{"countryCode":"AF","countryName":"Afghanistan","countryFilePath":"AF.json","countryCityList":[{"_id":1120471,"name":"Zorkot","country":"AF","coord":{"lon":69.734169,"lat":33.542221}},{"_id":1474856,"name":"Dê Kanāt-e Laţīf","country":"AF","coord":{"lon":65.039543,"lat":32.107262}},{"_id":1133835,"name":"Marghakay","country":"AF","coord":{"lon":68.178207,"lat":32.144299}},{"_id":1140382,"name":"Khadzhi-Alam-Kalay","country":"AF","coord":{"lon":65.536209,"lat":32.31834}},{"_id":1461264,"name":"Qaryah-ye Band Now","country":"AF","coord":{"lon":63.382301,"lat":32.360828}},{"_id":1122162,"name":"Tōngar","country":"AF","coord":{"lon":66.452667,"lat":32.383301}},{"_id":1148416,"name":"Aril","country":"AF","coord":{"lon":67.389381,"lat":32.453541}},{"_id":7106997,"name":"Khênḏakaī Karam Zāway","country":"AF","coord":{"lon":69.142174,"lat":32.532841}},{"_id":1433879,"name":"Kākā Khēl","country":"AF","coord":{"lon":69.266472,"lat":32.53952}},{"_id":1121941,"name":"Ūrāyin-e ‘Ulyā","country":"AF","coord":{"lon":62.182041,"lat":33.24662}},{"_id":1435246,"name":"Khānī-ye ‘Ulyā","country":"AF","coord":{"lon":68.530434,"lat":33.386532}},{"_id":1462157,"name":"Shiwnah Takhak","country":"AF","coord":{"lon":67.011597,"lat":34.21674}},{"_id":1129953,"name":"Kānsī Suflá","country":"AF","coord":{"lon":65.254913,"lat":34.528061}},{"_id":1470705,"name":"Dahan-e Akhtah Khānah","country":"AF","coord":{"lon":65.169777,"lat":34.509521}},{"_id":1141133,"name":"Ghurumbāw","country":"AF","coord":{"lon":63.02243,"lat":34.539558}},{"_id":1120863,"name":"Zarghun Shahr","country":"AF","coord":{"lon":68.445732,"lat":32.84734}},{"_id":1120879,"name":"Zarah Sharan","country":"AF","coord":{"lon":68.791672,"lat":33.146671}},{"_id":1121418,"name":"Yahya Khel","country":"AF","coord":{"lon":68.646217,"lat":32.93742}},{"_id":1122068,"name":"Tormay","country":"AF","coord":{"lon":68.401672,"lat":33.687222}},{"_id":1130131,"name":"Qalat","country":"AF","coord":{"lon":66.908333,"lat":32.105751}},{"_id":1138636,"name":"Kalakan","country":"AF","coord":{"lon":69.150009,"lat":34.78371}},{"_id":1143782,"name":"Dwah Manday","country":"AF","coord":{"lon":69.584999,"lat":33.28167}},{"_id":1144040,"name":"Darqad","country":"AF","coord":{"lon":69.452942,"lat":37.38414}},{"_id":1146979,"name":"Barg-e Matal","country":"AF","coord":{"lon":71.343391,"lat":35.672829}},{"_id":1147511,"name":"Bagrami","country":"AF","coord":{"lon":69.274269,"lat":34.493759}},{"_id":1148114,"name":"Alaqahdari Atghar","country":"AF","coord":{"lon":67.357399,"lat":31.73506}},{"_id":1148709,"name":"Anar Darah","country":"AF","coord":{"lon":61.653969,"lat":32.758701}},{"_id":1148939,"name":"Ali Khel","country":"AF","coord":{"lon":69.719078,"lat":33.942532}},{"_id":1429499,"name":"Shayrwani-ye Bala","country":"AF","coord":{"lon":69.599342,"lat":35.014679}},{"_id":1434016,"name":"Alaqahdari Sarobi","country":"AF","coord":{"lon":69.086601,"lat":32.793308}},{"_id":1435007,"name":"Zerok-Alakadari","country":"AF","coord":{"lon":69.312782,"lat":33.158058}},{"_id":1437517,"name":"Khayr Kot","country":"AF","coord":{"lon":68.449722,"lat":32.85355}},{"_id":1455430,"name":"Dahan-e Jarf","country":"AF","coord":{"lon":68.464172,"lat":34.927219}},{"_id":1456960,"name":"Maidan Shahr","country":"AF","coord":{"lon":68.86618,"lat":34.395611}},{"_id":1464922,"name":"Pul-e Hisar","country":"AF","coord":{"lon":69.471336,"lat":35.617939}},{"_id":1468514,"name":"Pas Pul","country":"AF","coord":{"lon":70.61586,"lat":37.474072}},{"_id":1135689,"name":"Kunduz","country":"AF","coord":{"lon":68.857002,"lat":36.728958}},{"_id":1148658,"name":"Andkhoy","country":"AF","coord":{"lon":65.123756,"lat":36.95293}},{"_id":1127766,"name":"Wilāyat-e Samangān","country":"AF","coord":{"lon":67.666672,"lat":36.0}},{"_id":1134720,"name":"Lashkar Gah","country":"AF","coord":{"lon":64.371613,"lat":31.593821}},{"_id":7052787,"name":"Ghōrmāch","country":"AF","coord":{"lon":63.77898,"lat":35.731049}},{"_id":6692413,"name":"Cool urhajo","country":"AF","coord":{"lon":67.345161,"lat":34.26545}},{"_id":1120500,"name":"Miray","country":"AF","coord":{"lon":68.439438,"lat":33.323608}},{"_id":1120501,"name":"Aq Kupruk","country":"AF","coord":{"lon":66.840286,"lat":36.083519}},{"_id":1120627,"name":"Ziarat-e Shah Maqsud","country":"AF","coord":{"lon":65.473602,"lat":31.9848}},{"_id":1120711,"name":"Zindah Jan","country":"AF","coord":{"lon":61.74675,"lat":34.34264}},{"_id":1120985,"name":"Zaranj","country":"AF","coord":{"lon":61.883331,"lat":30.966669}},{"_id":1121045,"name":"Zamto Kelay","country":"AF","coord":{"lon":66.177078,"lat":32.372601}},{"_id":1121271,"name":"Yangi Qalah","country":"AF","coord":{"lon":69.611313,"lat":37.465721}},{"_id":1121855,"name":"Washer","country":"AF","coord":{"lon":63.85553,"lat":32.251221}},{"_id":1122189,"name":"Tulak","country":"AF","coord":{"lon":63.72868,"lat":33.97509}},{"_id":1122402,"name":"Titan","country":"AF","coord":{"lon":63.863609,"lat":33.690319}},{"_id":1122408,"name":"Tir Pul","country":"AF","coord":{"lon":61.268951,"lat":34.594311}},{"_id":1122464,"name":"Taywarah","country":"AF","coord":{"lon":64.416672,"lat":33.349998}},{"_id":1122705,"name":"Bazar-e Tashkan","country":"AF","coord":{"lon":70.276741,"lat":36.88168}},{"_id":1123343,"name":"Tagaw-Bay","country":"AF","coord":{"lon":66.061638,"lat":35.699409}},{"_id":1138255,"name":"Wilāyat-e Kāpīsā","country":"AF","coord":{"lon":69.583328,"lat":35.0}},{"_id":1123424,"name":"Tagab","country":"AF","coord":{"lon":69.64917,"lat":34.855011}},{"_id":1123666,"name":"Markaz-e Hukumat-e Sultan-e Bakwah","country":"AF","coord":{"lon":62.94936,"lat":32.24139}},{"_id":1123906,"name":"Spin Boldak","country":"AF","coord":{"lon":66.400009,"lat":31.005751}},{"_id":1123935,"name":"Sperah","country":"AF","coord":{"lon":69.515282,"lat":33.202221}},{"_id":1123963,"name":"Sozmah Qalah","country":"AF","coord":{"lon":66.208229,"lat":36.099159}},{"_id":1124621,"name":"Siyahgird","country":"AF","coord":{"lon":68.855782,"lat":35.005531}},{"_id":1124973,"name":"Sheywah","country":"AF","coord":{"lon":70.588593,"lat":34.57169}},{"_id":1125267,"name":"Shaykh Amir Kelay","country":"AF","coord":{"lon":69.912827,"lat":33.287441}},{"_id":1125362,"name":"Qashqal","country":"AF","coord":{"lon":69.006851,"lat":35.039749}},{"_id":1125497,"name":"Shwak","country":"AF","coord":{"lon":69.376839,"lat":33.423859}},{"_id":1125866,"name":"Shahr-e Safa","country":"AF","coord":{"lon":66.323761,"lat":31.803471}},{"_id":1125890,"name":"Shahran","country":"AF","coord":{"lon":70.739281,"lat":36.979839}},{"_id":1125962,"name":"Alaqahdari Shah Joy","country":"AF","coord":{"lon":67.413147,"lat":32.521542}},{"_id":1126216,"name":"Wuleswali Sayyid Karam","country":"AF","coord":{"lon":69.368813,"lat":33.690559}},{"_id":1126263,"name":"Markaz-e Sayyidabad","country":"AF","coord":{"lon":68.715279,"lat":34.000832}},{"_id":1126266,"name":"Sayad","country":"AF","coord":{"lon":65.829697,"lat":36.135288}},{"_id":1126710,"name":"Sayagaz","country":"AF","coord":{"lon":67.033241,"lat":32.565208}},{"_id":1126796,"name":"Sar-e Tayghan","country":"AF","coord":{"lon":65.676323,"lat":33.509979}},{"_id":1126884,"name":"Sarobi","country":"AF","coord":{"lon":69.760048,"lat":34.589619}},{"_id":1126935,"name":"Sar Kani","country":"AF","coord":{"lon":71.109619,"lat":34.79023}},{"_id":1127001,"name":"Sarfiraz Kala","country":"AF","coord":{"lon":67.965172,"lat":32.98333}},{"_id":1127451,"name":"Sar Chakan","country":"AF","coord":{"lon":65.230553,"lat":35.701778}},{"_id":1127547,"name":"Sangin","country":"AF","coord":{"lon":64.835899,"lat":32.07275}},{"_id":1127604,"name":"Sang-e Mashah","country":"AF","coord":{"lon":67.44046,"lat":33.139599}},{"_id":1127664,"name":"Sang Atesh","country":"AF","coord":{"lon":63.004398,"lat":35.248001}},{"_id":1127667,"name":"Sangar Saray","country":"AF","coord":{"lon":70.639374,"lat":34.40744}},{"_id":1128186,"name":"Ru-ye Sang","country":"AF","coord":{"lon":67.633873,"lat":35.319988}},{"_id":1128239,"name":"Rudbar","country":"AF","coord":{"lon":62.599998,"lat":30.15}},{"_id":1128310,"name":"Rabat-e Sangi-ye Pain","country":"AF","coord":{"lon":62.139172,"lat":34.799511}},{"_id":1128565,"name":"Ramak","country":"AF","coord":{"lon":68.626404,"lat":33.522339}},{"_id":1128954,"name":"Qurghan","country":"AF","coord":{"lon":65.064903,"lat":36.919392}},{"_id":1129013,"name":"Quchanghi","country":"AF","coord":{"lon":66.275833,"lat":34.061668}},{"_id":1129077,"name":"Sangalak-i-Kaisar","country":"AF","coord":{"lon":64.293182,"lat":35.687469}},{"_id":1129555,"name":"Qarghahi","country":"AF","coord":{"lon":70.24292,"lat":34.55402}},{"_id":1129636,"name":"Qarchi Gak","country":"AF","coord":{"lon":66.78891,"lat":37.039989}},{"_id":1129678,"name":"Qarah Bagh","country":"AF","coord":{"lon":61.77589,"lat":34.940231}},{"_id":1129680,"name":"Qarah Bagh","country":"AF","coord":{"lon":68.104721,"lat":33.191669}},{"_id":1129928,"name":"Qalah-ye Kuf","country":"AF","coord":{"lon":70.474716,"lat":38.040089}},{"_id":1129932,"name":"Qalah-ye Kuhnah","country":"AF","coord":{"lon":63.666809,"lat":32.61591}},{"_id":1130065,"name":"Qalah-ye Shahr","country":"AF","coord":{"lon":65.567596,"lat":35.547291}},{"_id":1130132,"name":"Qalah-ye Shahi","country":"AF","coord":{"lon":70.5914,"lat":34.649212}},{"_id":1130233,"name":"Qadis","country":"AF","coord":{"lon":63.430031,"lat":34.808498}},{"_id":1130469,"name":"Parun","country":"AF","coord":{"lon":70.922142,"lat":35.4207}},{"_id":1130497,"name":"Pul-e Alam","country":"AF","coord":{"lon":69.022743,"lat":33.995289}},{"_id":1130981,"name":"Pasnay","country":"AF","coord":{"lon":65.764862,"lat":35.76664}},{"_id":1130997,"name":"Pashmul","country":"AF","coord":{"lon":65.434303,"lat":31.557199}},{"_id":1131045,"name":"Pasaband","country":"AF","coord":{"lon":64.853104,"lat":33.68956}},{"_id":1131162,"name":"Panjab","country":"AF","coord":{"lon":67.02327,"lat":34.387951}},{"_id":1131389,"name":"Omnah","country":"AF","coord":{"lon":68.796257,"lat":32.900291}},{"_id":1131406,"name":"Qaryeh-ye Owbeh","country":"AF","coord":{"lon":63.176392,"lat":34.36972}},{"_id":1131462,"name":"Uruzgan","country":"AF","coord":{"lon":66.63253,"lat":32.92775}},{"_id":1131479,"name":"Urgun","country":"AF","coord":{"lon":69.18,"lat":32.941109}},{"_id":1131591,"name":"Nusay","country":"AF","coord":{"lon":70.805412,"lat":38.44294}},{"_id":1131625,"name":"Nurgal","country":"AF","coord":{"lon":70.764977,"lat":34.613411}},{"_id":1131649,"name":"Now Zad","country":"AF","coord":{"lon":64.469589,"lat":32.403141}},{"_id":1131833,"name":"Nili","country":"AF","coord":{"lon":66.130234,"lat":33.721779}},{"_id":1132034,"name":"Nayak","country":"AF","coord":{"lon":66.952919,"lat":34.734138}},{"_id":1132046,"name":"Nayak","country":"AF","coord":{"lon":66.774033,"lat":32.5723}},{"_id":6957555,"name":"Panjshir","country":"AF","coord":{"lon":69.98291,"lat":35.402481}},{"_id":1132127,"name":"Now Dahanak","country":"AF","coord":{"lon":70.005112,"lat":35.623981}},{"_id":1132172,"name":"Okak","country":"AF","coord":{"lon":67.95652,"lat":33.897942}},{"_id":1132336,"name":"Naray","country":"AF","coord":{"lon":71.522499,"lat":35.221001}},{"_id":1132344,"name":"Narang","country":"AF","coord":{"lon":71.047379,"lat":34.76009}},{"_id":1132465,"name":"Nikeh","country":"AF","coord":{"lon":69.27179,"lat":33.189339}},{"_id":1132550,"name":"Hukumat-e Nad Ali","country":"AF","coord":{"lon":64.239822,"lat":31.64286}},{"_id":1132604,"name":"Musa Qalah","country":"AF","coord":{"lon":64.744858,"lat":32.445648}},{"_id":1132770,"name":"Bala Murghab","country":"AF","coord":{"lon":63.328861,"lat":35.58408}},{"_id":1132807,"name":"Muqer","country":"AF","coord":{"lon":67.769341,"lat":32.820091}},{"_id":1133105,"name":"Muhammad Aghah Wuluswali","country":"AF","coord":{"lon":69.099998,"lat":34.214722}},{"_id":1133154,"name":"Mizan Alaqahdari","country":"AF","coord":{"lon":66.512711,"lat":32.17635}},{"_id":1133270,"name":"Mir Bachah Kot","country":"AF","coord":{"lon":69.118988,"lat":34.749989}},{"_id":1133279,"name":"Miran","country":"AF","coord":{"lon":68.312523,"lat":34.220299}},{"_id":1133310,"name":"Mirabad","country":"AF","coord":{"lon":61.838299,"lat":30.436239}},{"_id":1133456,"name":"Maidan Khulah","country":"AF","coord":{"lon":69.781197,"lat":33.649158}},{"_id":1133544,"name":"Mingajik","country":"AF","coord":{"lon":66.128166,"lat":37.027901}},{"_id":1133657,"name":"Maymay","country":"AF","coord":{"lon":71.038383,"lat":38.408562}},{"_id":1133689,"name":"Muta Khan","country":"AF","coord":{"lon":68.866386,"lat":33.241669}},{"_id":1133749,"name":"Mashhad","country":"AF","coord":{"lon":70.096199,"lat":36.811069}},{"_id":1133856,"name":"Mardian","country":"AF","coord":{"lon":66.296852,"lat":36.992859}},{"_id":1133987,"name":"Mandol","country":"AF","coord":{"lon":70.170174,"lat":35.284031}},{"_id":1134074,"name":"Mama Khel","country":"AF","coord":{"lon":69.996803,"lat":34.244942}},{"_id":1134724,"name":"Lash-e Juwayn","country":"AF","coord":{"lon":61.622719,"lat":31.71382}},{"_id":1134762,"name":"Larkird","country":"AF","coord":{"lon":66.664093,"lat":35.489361}},{"_id":1134887,"name":"Lal","country":"AF","coord":{"lon":66.279961,"lat":34.501411}},{"_id":1135514,"name":"Kotowal","country":"AF","coord":{"lon":70.460602,"lat":34.105061}},{"_id":1135625,"name":"Kushk-e Kuhnah","country":"AF","coord":{"lon":62.547619,"lat":34.871101}},{"_id":1135656,"name":"Alaqahdari Kiran wa Munjan","country":"AF","coord":{"lon":70.772583,"lat":36.02866}},{"_id":1135960,"name":"Khoshi","country":"AF","coord":{"lon":69.211937,"lat":33.99889}},{"_id":1135980,"name":"Khoshamand","country":"AF","coord":{"lon":68.238007,"lat":32.685669}},{"_id":1136235,"name":"Khwajah Ghar","country":"AF","coord":{"lon":69.421257,"lat":37.06588}},{"_id":1136250,"name":"Khwajah Du Koh","country":"AF","coord":{"lon":65.624321,"lat":36.828812}},{"_id":1136414,"name":"Khulbisat","country":"AF","coord":{"lon":70.00605,"lat":33.494801}},{"_id":1136442,"name":"Khugyani","country":"AF","coord":{"lon":66.581398,"lat":31.56267}},{"_id":1136604,"name":"Khudaydad Khel","country":"AF","coord":{"lon":67.687576,"lat":35.178349}},{"_id":1136723,"name":"Khinjan","country":"AF","coord":{"lon":68.900932,"lat":35.589081}},{"_id":1136737,"name":"Khinj","country":"AF","coord":{"lon":69.734818,"lat":35.428982}},{"_id":1137079,"name":"Khan Neshin","country":"AF","coord":{"lon":63.788799,"lat":30.5488}},{"_id":1137121,"name":"Khanaqah","country":"AF","coord":{"lon":69.536949,"lat":36.62587}},{"_id":1137147,"name":"Chahar Bagh","country":"AF","coord":{"lon":65.223923,"lat":37.00108}},{"_id":1137148,"name":"Khandud","country":"AF","coord":{"lon":72.318001,"lat":36.951271}},{"_id":1137160,"name":"Khanaqah","country":"AF","coord":{"lon":66.167549,"lat":36.858898}},{"_id":1137247,"name":"Khamyab","country":"AF","coord":{"lon":65.758331,"lat":37.5275}},{"_id":1137359,"name":"Khakiran","country":"AF","coord":{"lon":67.073769,"lat":32.838501}},{"_id":1137548,"name":"Kazhah","country":"AF","coord":{"lon":70.182739,"lat":34.240879}},{"_id":1137745,"name":"Kishk-e Nakhud","country":"AF","coord":{"lon":65.055107,"lat":31.625191}},{"_id":1138321,"name":"Kanday","country":"AF","coord":{"lon":70.778969,"lat":34.953602}},{"_id":1138590,"name":"Kalan Deh","country":"AF","coord":{"lon":68.402328,"lat":33.836761}},{"_id":1138657,"name":"Kalafgan","country":"AF","coord":{"lon":69.945,"lat":36.772739}},{"_id":1138714,"name":"Kajran","country":"AF","coord":{"lon":65.473106,"lat":33.203571}},{"_id":1138801,"name":"Kai","country":"AF","coord":{"lon":70.718277,"lat":34.128189}},{"_id":1139085,"name":"Jurm","country":"AF","coord":{"lon":70.834213,"lat":36.864769}},{"_id":1139335,"name":"Jawand","country":"AF","coord":{"lon":64.14917,"lat":35.06361}},{"_id":1139500,"name":"Jani Khel","country":"AF","coord":{"lon":68.397217,"lat":32.763149}},{"_id":1139683,"name":"Jalrez","country":"AF","coord":{"lon":68.643333,"lat":34.473061}},{"_id":1139967,"name":"Hukumat-e Shinkai","country":"AF","coord":{"lon":67.335579,"lat":31.98303}},{"_id":1140341,"name":"Haji Khel","country":"AF","coord":{"lon":69.433411,"lat":35.109219}},{"_id":1140433,"name":"Hafiz Moghul","country":"AF","coord":{"lon":70.400612,"lat":37.056431}},{"_id":1140435,"name":"Khafizan","country":"AF","coord":{"lon":70.372467,"lat":34.286652}},{"_id":1140614,"name":"Goshtah","country":"AF","coord":{"lon":70.762642,"lat":34.358219}},{"_id":1140623,"name":"Gomal Kelay","country":"AF","coord":{"lon":68.85598,"lat":32.511902}},{"_id":1140919,"name":"Alaqahdari Gelan","country":"AF","coord":{"lon":67.636963,"lat":32.726921}},{"_id":1140970,"name":"Ghoriyan","country":"AF","coord":{"lon":61.49321,"lat":34.344799}},{"_id":1141098,"name":"Ghurayd Gharame","country":"AF","coord":{"lon":70.790642,"lat":36.522202}},{"_id":1142171,"name":"Faizabad","country":"AF","coord":{"lon":66.459641,"lat":36.82103}},{"_id":1142172,"name":"Fayzabad","country":"AF","coord":{"lon":64.862221,"lat":36.291111}},{"_id":1142234,"name":"Qalah-ye Farsi","country":"AF","coord":{"lon":63.247349,"lat":33.78529}},{"_id":1142239,"name":"Farkhar","country":"AF","coord":{"lon":69.857826,"lat":36.57288}},{"_id":1142330,"name":"Istalif","country":"AF","coord":{"lon":69.07756,"lat":34.83268}},{"_id":1142517,"name":"Injil","country":"AF","coord":{"lon":62.246498,"lat":34.301571}},{"_id":1142545,"name":"Imam Sahib","country":"AF","coord":{"lon":68.93644,"lat":37.188969}},{"_id":1142738,"name":"Doshi","country":"AF","coord":{"lon":68.684731,"lat":35.60918}},{"_id":1142758,"name":"Dowlatyar","country":"AF","coord":{"lon":65.793022,"lat":34.551319}},{"_id":1142761,"name":"Dowlat Shah","country":"AF","coord":{"lon":70.071022,"lat":34.950401}},{"_id":1142776,"name":"Dowlatabad","country":"AF","coord":{"lon":66.820663,"lat":36.98782}},{"_id":1142777,"name":"Dowlatabad","country":"AF","coord":{"lon":64.920708,"lat":36.43259}},{"_id":1142852,"name":"Du Qalah","country":"AF","coord":{"lon":61.446899,"lat":32.142368}},{"_id":1142964,"name":"Duab","country":"AF","coord":{"lon":67.821907,"lat":35.562771}},{"_id":1143057,"name":"Deh-e Shū","country":"AF","coord":{"lon":63.317379,"lat":30.432949}},{"_id":1143255,"name":"De Narkhel Kelay","country":"AF","coord":{"lon":65.634842,"lat":32.432049}},{"_id":1143477,"name":"Dehi","country":"AF","coord":{"lon":67.279984,"lat":35.958061}},{"_id":1143529,"name":"Deh-e Salah","country":"AF","coord":{"lon":69.315102,"lat":35.690311}},{"_id":1143548,"name":"Deh-e Now","country":"AF","coord":{"lon":69.047836,"lat":34.747669}},{"_id":1143630,"name":"Dehdadi","country":"AF","coord":{"lon":66.993759,"lat":36.663078}},{"_id":1143814,"name":"Dasht-e Qalah","country":"AF","coord":{"lon":69.443497,"lat":37.1539}},{"_id":1143816,"name":"Dasht-e Qalah","country":"AF","coord":{"lon":63.839439,"lat":33.030048}},{"_id":1143838,"name":"Dasht-e Archi","country":"AF","coord":{"lon":69.166672,"lat":37.133331}},{"_id":1143874,"name":"Darzab","country":"AF","coord":{"lon":65.378281,"lat":35.97744}},{"_id":1143901,"name":"Markaz-e Hukumat-e Darweshan","country":"AF","coord":{"lon":64.193398,"lat":31.13232}},{"_id":1144121,"name":"Darayim","country":"AF","coord":{"lon":70.383331,"lat":36.866669}},{"_id":1144166,"name":"Dangam","country":"AF","coord":{"lon":71.419434,"lat":34.99231}},{"_id":1144185,"name":"Dandar","country":"AF","coord":{"lon":69.475037,"lat":34.790951}},{"_id":1144559,"name":"Hukumati Dahanah-ye Ghori","country":"AF","coord":{"lon":68.488693,"lat":35.90617}},{"_id":1144905,"name":"Tsowkey","country":"AF","coord":{"lon":70.92688,"lat":34.692459}},{"_id":1144942,"name":"Chiras","country":"AF","coord":{"lon":65.982338,"lat":35.41674}},{"_id":1145007,"name":"Chisht-e Sharif","country":"AF","coord":{"lon":63.739658,"lat":34.347309}},{"_id":1145124,"name":"Chinar","country":"AF","coord":{"lon":65.107208,"lat":32.015831}},{"_id":1145128,"name":"Chimtal","country":"AF","coord":{"lon":66.803253,"lat":36.678181}},{"_id":1145348,"name":"Charkh","country":"AF","coord":{"lon":68.938057,"lat":33.796391}},{"_id":1145364,"name":"Dowr-e Rabat","country":"AF","coord":{"lon":68.790932,"lat":36.691319}},{"_id":1145417,"name":"Tsaperai","country":"AF","coord":{"lon":69.919197,"lat":33.830029}},{"_id":1145511,"name":"Tsamkani","country":"AF","coord":{"lon":69.816711,"lat":33.802979}},{"_id":1145605,"name":"Chakaray","country":"AF","coord":{"lon":69.437698,"lat":34.340988}},{"_id":1145607,"name":"Chakaran","country":"AF","coord":{"lon":71.068779,"lat":36.910469}},{"_id":1145799,"name":"Chahar Qalah","country":"AF","coord":{"lon":68.298332,"lat":33.55278}},{"_id":1145866,"name":"Chahar Burj","country":"AF","coord":{"lon":62.19165,"lat":34.244751}},{"_id":1145897,"name":"Chah Ab","country":"AF","coord":{"lon":69.814636,"lat":37.397732}},{"_id":1145904,"name":"Chaghcharan","country":"AF","coord":{"lon":65.250938,"lat":34.51952}},{"_id":1146336,"name":"Bulolah","country":"AF","coord":{"lon":68.087898,"lat":34.87706}},{"_id":1146576,"name":"Bal Chiragh","country":"AF","coord":{"lon":65.230904,"lat":35.84026}},{"_id":1146694,"name":"Bazar-e Talah","country":"AF","coord":{"lon":68.221672,"lat":35.387249}},{"_id":1146822,"name":"Basawul","country":"AF","coord":{"lon":70.872177,"lat":34.24749}},{"_id":1146911,"name":"Burkah","country":"AF","coord":{"lon":69.150383,"lat":36.22242}},{"_id":1147118,"name":"Banu","country":"AF","coord":{"lon":69.260201,"lat":35.63348}},{"_id":1147489,"name":"Baharak","country":"AF","coord":{"lon":70.906639,"lat":37.002541}},{"_id":1147851,"name":"Hukumati Azrah","country":"AF","coord":{"lon":69.645729,"lat":34.17355}},{"_id":1148268,"name":"Ashkasham","country":"AF","coord":{"lon":71.533333,"lat":36.683331}},{"_id":1148560,"name":"Aqchah","country":"AF","coord":{"lon":66.185829,"lat":36.911388}},{"_id":1148695,"name":"Unabah","country":"AF","coord":{"lon":69.37719,"lat":35.23251}},{"_id":1148792,"name":"Amanzi","country":"AF","coord":{"lon":66.047653,"lat":30.211439}},{"_id":1148863,"name":"Alaqahdari-ye Almar","country":"AF","coord":{"lon":64.530739,"lat":35.846161}},{"_id":1148893,"name":"Ali Sher Alaqahdari","country":"AF","coord":{"lon":70.067108,"lat":33.436199}},{"_id":1148911,"name":"Wuluswali Alingar","country":"AF","coord":{"lon":70.359459,"lat":34.834702}},{"_id":1149049,"name":"Alaqahdari Yosuf Khel","country":"AF","coord":{"lon":68.650002,"lat":33.051941}},{"_id":1149052,"name":"Alaqahdari Dishu","country":"AF","coord":{"lon":63.312981,"lat":30.43741}},{"_id":1149107,"name":"Alah Say","country":"AF","coord":{"lon":69.72049,"lat":34.8965}},{"_id":1149348,"name":"Pachir wa Agam","country":"AF","coord":{"lon":70.278061,"lat":34.200111}},{"_id":1149371,"name":"Afaki","country":"AF","coord":{"lon":69.350952,"lat":36.66172}},{"_id":1149379,"name":"Adraskan","country":"AF","coord":{"lon":62.269588,"lat":33.645729}},{"_id":1149550,"name":"Ab-e Kamari","country":"AF","coord":{"lon":63.067799,"lat":35.087959}},{"_id":1348242,"name":"Khadir","country":"AF","coord":{"lon":65.933983,"lat":33.922321}},{"_id":1349513,"name":"Ghulam Ali","country":"AF","coord":{"lon":69.228699,"lat":34.95076}},{"_id":1349709,"name":"Qarah Bagh Bazar","country":"AF","coord":{"lon":69.170624,"lat":34.852901}},{"_id":1349845,"name":"Zargaran","country":"AF","coord":{"lon":69.058777,"lat":34.78764}},{"_id":1349934,"name":"Surkh Bilandi","country":"AF","coord":{"lon":69.028633,"lat":34.684738}},{"_id":1349969,"name":"Pul-e Sangi","country":"AF","coord":{"lon":69.259933,"lat":34.59972}},{"_id":1422873,"name":"Langar","country":"AF","coord":{"lon":68.050812,"lat":35.99474}},{"_id":1423264,"name":"Bagh-e Maidan","country":"AF","coord":{"lon":69.213966,"lat":35.221561}},{"_id":1423451,"name":"Ibrahim Khan","country":"AF","coord":{"lon":69.256538,"lat":35.05352}},{"_id":1427089,"name":"Qaranghu Toghai","country":"AF","coord":{"lon":67.639717,"lat":37.215279}},{"_id":1429434,"name":"Bazarak","country":"AF","coord":{"lon":69.51519,"lat":35.31292}},{"_id":1429521,"name":"Kiraman","country":"AF","coord":{"lon":69.681252,"lat":35.297298}},{"_id":1437312,"name":"Kushkak","country":"AF","coord":{"lon":61.521938,"lat":32.289909}},{"_id":1448087,"name":"Chowney","country":"AF","coord":{"lon":66.272331,"lat":33.382778}},{"_id":1451863,"name":"Wutahpur","country":"AF","coord":{"lon":71.098633,"lat":34.91914}},{"_id":1452109,"name":"Karbori","country":"AF","coord":{"lon":71.274437,"lat":34.964722}},{"_id":1453103,"name":"Sultanpur-e Ulya","country":"AF","coord":{"lon":70.296341,"lat":34.412041}},{"_id":1453777,"name":"Babasakhib","country":"AF","coord":{"lon":65.66098,"lat":31.66144}},{"_id":1454590,"name":"Chandal Bai","country":"AF","coord":{"lon":68.95536,"lat":34.584702}},{"_id":1459933,"name":"Du Lainah","country":"AF","coord":{"lon":64.78566,"lat":34.155991}},{"_id":1464552,"name":"Qaram Qol","country":"AF","coord":{"lon":65.042992,"lat":36.830059}},{"_id":1465349,"name":"Lab-Sar","country":"AF","coord":{"lon":66.83799,"lat":36.02634}},{"_id":1467349,"name":"Taqchah Khanah","country":"AF","coord":{"lon":69.628052,"lat":36.619221}},{"_id":1467433,"name":"March","country":"AF","coord":{"lon":70.448196,"lat":37.52845}},{"_id":1467505,"name":"Ziraki","country":"AF","coord":{"lon":70.558571,"lat":37.592121}},{"_id":1467976,"name":"Aliabad","country":"AF","coord":{"lon":68.899849,"lat":36.521149}},{"_id":1469237,"name":"Qalah-ye Naim","country":"AF","coord":{"lon":69.166786,"lat":34.399799}},{"_id":1474140,"name":"Manogay","country":"AF","coord":{"lon":70.913017,"lat":34.99015}},{"_id":1476203,"name":"Ster Giyan","country":"AF","coord":{"lon":69.373077,"lat":32.977039}},{"_id":1133809,"name":"Marjah","country":"AF","coord":{"lon":64.117599,"lat":31.52112}},{"_id":1436087,"name":"Pātikzaī Chīnah","country":"AF","coord":{"lon":67.016281,"lat":31.56798}},{"_id":1130413,"name":"Pōṯaī Kêlay","country":"AF","coord":{"lon":66.515694,"lat":32.13702}},{"_id":1142263,"name":"Wilāyat-e Farāh","country":"AF","coord":{"lon":62.5,"lat":32.5}},{"_id":1428368,"name":"Chanura","country":"AF","coord":{"lon":62.100471,"lat":32.19117}},{"_id":1125543,"name":"Sharōnikêy","country":"AF","coord":{"lon":69.143333,"lat":32.292782}},{"_id":1127478,"name":"Sanowghān","country":"AF","coord":{"lon":62.177681,"lat":33.220242}},{"_id":1123537,"name":"Sūrkī","country":"AF","coord":{"lon":69.140411,"lat":33.357159}},{"_id":1473390,"name":"Gangah Khēl","country":"AF","coord":{"lon":70.043488,"lat":34.24239}},{"_id":1133965,"name":"Mangān","country":"AF","coord":{"lon":63.15416,"lat":35.482868}},{"_id":1148535,"name":"Āq Kowtal","country":"AF","coord":{"lon":64.460831,"lat":35.542782}},{"_id":1133635,"name":"Mazār","country":"AF","coord":{"lon":66.803459,"lat":35.818642}},{"_id":1136468,"name":"Khōst","country":"AF","coord":{"lon":70.845322,"lat":35.208542}},{"_id":1135158,"name":"Kushk","country":"AF","coord":{"lon":61.952209,"lat":33.29565}},{"_id":1120473,"name":"Wuleswali Bihsud","country":"AF","coord":{"lon":67.906387,"lat":34.34528}},{"_id":1120483,"name":"Kuhsan","country":"AF","coord":{"lon":61.197781,"lat":34.653889}},{"_id":1120484,"name":"Lash","country":"AF","coord":{"lon":64.774567,"lat":35.378201}},{"_id":1120487,"name":"Tukzar","country":"AF","coord":{"lon":66.421318,"lat":35.948311}},{"_id":1120543,"name":"Zurmat","country":"AF","coord":{"lon":69.02774,"lat":33.437778}},{"_id":1120616,"name":"Zaybak","country":"AF","coord":{"lon":71.348328,"lat":36.529442}},{"_id":1122747,"name":"Tarinkot","country":"AF","coord":{"lon":65.873306,"lat":32.626751}},{"_id":1149361,"name":"Islamic Republic of Afghanistan","country":"AF","coord":{"lon":66.0,"lat":33.0}},{"_id":1138335,"name":"Wilāyat-e Kandahār","country":"AF","coord":{"lon":65.75,"lat":31.0}},{"_id":1139813,"name":"Itī","country":"AF","coord":{"lon":66.219498,"lat":31.01062}},{"_id":1140043,"name":"Wilāyat-e Helmand","country":"AF","coord":{"lon":64.0,"lat":31.0}},{"_id":1137047,"name":"Khārā Kūh","country":"AF","coord":{"lon":64.116669,"lat":31.066669}},{"_id":1466891,"name":"Ḩowẕ Kêlay","country":"AF","coord":{"lon":65.553902,"lat":31.41453}},{"_id":1121789,"name":"Wakīl Rustam Kêlay","country":"AF","coord":{"lon":65.293861,"lat":31.448641}},{"_id":1425381,"name":"Chaghālānō Ghunḏêy","country":"AF","coord":{"lon":64.427193,"lat":31.56366}},{"_id":1407167,"name":"Za’farānzaī","country":"AF","coord":{"lon":65.502968,"lat":31.509991}},{"_id":1121143,"name":"Wilāyat-e Zābul","country":"AF","coord":{"lon":67.25,"lat":32.25}},{"_id":1131256,"name":"Wilāyat-e Paktīkā","country":"AF","coord":{"lon":68.75,"lat":32.416672}},{"_id":1141268,"name":"Wilāyat-e Ghaznī","country":"AF","coord":{"lon":67.75,"lat":33.333328}},{"_id":1148138,"name":"Aṯak","country":"AF","coord":{"lon":67.994499,"lat":33.007542}},{"_id":1138464,"name":"Kamah Jarkanah","country":"AF","coord":{"lon":68.506393,"lat":33.065559}},{"_id":1146706,"name":"Bāzak","country":"AF","coord":{"lon":69.254082,"lat":33.20808}},{"_id":1444362,"name":"Velāyat-e Khowst","country":"AF","coord":{"lon":69.883331,"lat":33.383331}},{"_id":1120713,"name":"Zindah Tiz̲h̲ah","country":"AF","coord":{"lon":69.553886,"lat":33.233059}},{"_id":1140025,"name":"Wilāyat-e Herāt","country":"AF","coord":{"lon":62.0,"lat":34.5}},{"_id":1131257,"name":"Wilāyat-e Paktiyā","country":"AF","coord":{"lon":69.333328,"lat":33.666672}},{"_id":1136938,"name":"Kharoti","country":"AF","coord":{"lon":69.032967,"lat":33.54871}},{"_id":1148914,"name":"‘Alī Muḩammad Khēl","country":"AF","coord":{"lon":69.418037,"lat":33.518311}},{"_id":1130419,"name":"Pusht Kōh","country":"AF","coord":{"lon":62.13467,"lat":34.10582}},{"_id":1132366,"name":"Wilāyat-e Nangarhār","country":"AF","coord":{"lon":70.416672,"lat":34.333328}},{"_id":1144882,"name":"Tsōbī","country":"AF","coord":{"lon":71.027199,"lat":34.068729}},{"_id":1473427,"name":"Āsmān Bānḏah","country":"AF","coord":{"lon":70.091843,"lat":34.162819}},{"_id":1460441,"name":"Regak","country":"AF","coord":{"lon":67.503891,"lat":34.16972}},{"_id":1147239,"name":"Wilāyat-e Bāmyān","country":"AF","coord":{"lon":67.25,"lat":34.75}},{"_id":1121863,"name":"Wilāyat-e Wardak","country":"AF","coord":{"lon":68.0,"lat":34.25}},{"_id":1130704,"name":"Paīwand","country":"AF","coord":{"lon":68.503326,"lat":34.227219}},{"_id":6957553,"name":"Wilāyat-e Dāykundī","country":"AF","coord":{"lon":66.25,"lat":33.75}},{"_id":1456506,"name":"Siyāh Kharak-e Wātarmah","country":"AF","coord":{"lon":66.172211,"lat":34.292488}},{"_id":1134561,"name":"Wilāyat-e Lōgar","country":"AF","coord":{"lon":69.25,"lat":34.0}},{"_id":1131173,"name":"Panamay","country":"AF","coord":{"lon":69.010277,"lat":34.29583}},{"_id":1131965,"name":"Nāz̧ir Kalā","country":"AF","coord":{"lon":69.098892,"lat":34.30444}},{"_id":1459084,"name":"Khalīl Murdah","country":"AF","coord":{"lon":68.044724,"lat":34.327499}},{"_id":1457199,"name":"Ākhūndzādah Khēl","country":"AF","coord":{"lon":68.584442,"lat":34.352501}},{"_id":1129844,"name":"Qalāt-e Qāẕī","country":"AF","coord":{"lon":61.41721,"lat":34.440552}},{"_id":1146910,"name":"Bar Kakṟak","country":"AF","coord":{"lon":70.107224,"lat":34.376549}},{"_id":1123410,"name":"Tagāb-e Mā’īch","country":"AF","coord":{"lon":63.271191,"lat":34.479198}},{"_id":1138957,"name":"Wilāyat-e Kābul","country":"AF","coord":{"lon":69.416672,"lat":34.5}},{"_id":1146081,"name":"Butkhāk","country":"AF","coord":{"lon":69.3591,"lat":34.50111}},{"_id":1141103,"name":"Wilāyat-e Ghōr","country":"AF","coord":{"lon":65.0,"lat":34.0}},{"_id":1454033,"name":"Kalayi-Daulat","country":"AF","coord":{"lon":69.180573,"lat":34.581692}},{"_id":1349962,"name":"Khwājah-Bughrā","country":"AF","coord":{"lon":69.160233,"lat":34.582939}},{"_id":1135022,"name":"Wilāyat-e Laghmān","country":"AF","coord":{"lon":70.183327,"lat":34.783329}},{"_id":1474601,"name":"Kandah","country":"AF","coord":{"lon":70.213509,"lat":34.572929}},{"_id":1135702,"name":"Wilāyat-e Kunaṟ","country":"AF","coord":{"lon":71.133331,"lat":34.950001}},{"_id":1424092,"name":"Hilālzō Kêlay","country":"AF","coord":{"lon":71.263046,"lat":35.00631}},{"_id":1131054,"name":"Wilāyat-e Parwān","country":"AF","coord":{"lon":68.916672,"lat":35.0}},{"_id":1423348,"name":"Mīr ‘Alā","country":"AF","coord":{"lon":69.168083,"lat":35.05928}},{"_id":1423399,"name":"Gul Bahār","country":"AF","coord":{"lon":69.269638,"lat":35.145901}},{"_id":1133815,"name":"Marīd","country":"AF","coord":{"lon":71.300423,"lat":35.157501}},{"_id":1147707,"name":"Wilāyat-e Bādghīs","country":"AF","coord":{"lon":63.75,"lat":35.0}},{"_id":1147537,"name":"Wilāyat-e Baghlān","country":"AF","coord":{"lon":69.0,"lat":35.75}},{"_id":1147586,"name":"Bāgh-e Bālinah","country":"AF","coord":{"lon":68.524544,"lat":35.54295}},{"_id":1142226,"name":"Faryab Province","country":"AF","coord":{"lon":64.833328,"lat":36.25}},{"_id":1147288,"name":"Wilāyat-e Balkh","country":"AF","coord":{"lon":67.0,"lat":36.75}},{"_id":1129733,"name":"Qamishlī","country":"AF","coord":{"lon":66.574287,"lat":36.428902}},{"_id":1129676,"name":"Qarah Bātūr Qishlāq","country":"AF","coord":{"lon":68.65226,"lat":36.509819}},{"_id":1139049,"name":"Wilāyat-e Jowzjān","country":"AF","coord":{"lon":65.833328,"lat":36.833328}},{"_id":1139362,"name":"Jar-e Qūdūq","country":"AF","coord":{"lon":65.484169,"lat":36.30389}},{"_id":1122943,"name":"Tandōrak","country":"AF","coord":{"lon":67.100883,"lat":36.432789}},{"_id":1147745,"name":"Wilāyat-e Badakhshān","country":"AF","coord":{"lon":72.0,"lat":36.75}},{"_id":1131059,"name":"Parūkh","country":"AF","coord":{"lon":71.309097,"lat":36.436069}},{"_id":1123230,"name":"Wilāyat-e Takhār","country":"AF","coord":{"lon":69.75,"lat":36.666672}},{"_id":1136560,"name":"Khurmāb","country":"AF","coord":{"lon":69.995079,"lat":36.580929}},{"_id":1467940,"name":"Kōr Chashmah","country":"AF","coord":{"lon":70.344139,"lat":37.051189}},{"_id":1139976,"name":"Ḩaīratān","country":"AF","coord":{"lon":67.424103,"lat":37.221401}},{"_id":7525482,"name":"Kākul","country":"AF","coord":{"lon":69.4571,"lat":37.279079}},{"_id":1138336,"name":"Kandahar","country":"AF","coord":{"lon":65.710129,"lat":31.613319}},{"_id":1453263,"name":"Malakyār Kêlay","country":"AF","coord":{"lon":69.118011,"lat":32.923309}},{"_id":1434613,"name":"Lanḏay Kêlay","country":"AF","coord":{"lon":69.952377,"lat":33.327801}},{"_id":1139715,"name":"Jalalabad","country":"AF","coord":{"lon":70.45153,"lat":34.426472}},{"_id":1147242,"name":"Bamyan","country":"AF","coord":{"lon":67.821671,"lat":34.824169}},{"_id":1145352,"name":"Charikar","country":"AF","coord":{"lon":69.171387,"lat":35.013611}},{"_id":1147540,"name":"Baghlan","country":"AF","coord":{"lon":68.70829,"lat":36.13068}},{"_id":1125155,"name":"Shindand","country":"AF","coord":{"lon":62.1474,"lat":33.30294}},{"_id":1138958,"name":"Kabul","country":"AF","coord":{"lon":69.172333,"lat":34.52813}},{"_id":7097995,"name":"Būryā Furōshī","country":"AF","coord":{"lon":69.182838,"lat":34.51572}},{"_id":1140026,"name":"Herat","country":"AF","coord":{"lon":62.199669,"lat":34.348171}},{"_id":1135690,"name":"Wilāyat-e Kunduz","country":"AF","coord":{"lon":68.75,"lat":36.75}},{"_id":1141857,"name":"Gardez","country":"AF","coord":{"lon":69.225922,"lat":33.597439}},{"_id":1444363,"name":"Velāyat-e Nūrestān","country":"AF","coord":{"lon":70.833328,"lat":35.299999}},{"_id":1138565,"name":"Kalāt","country":"AF","coord":{"lon":63.3778,"lat":34.389931}},{"_id":1442384,"name":"Sharīf","country":"AF","coord":{"lon":66.635437,"lat":33.46413}},{"_id":1123004,"name":"Taloqan","country":"AF","coord":{"lon":69.534508,"lat":36.73605}},{"_id":1133453,"name":"Maymana","country":"AF","coord":{"lon":64.783607,"lat":35.921391}},{"_id":1141269,"name":"Ghazni","country":"AF","coord":{"lon":68.426888,"lat":33.553558}},{"_id":1447259,"name":"Jam‘eh ‘Olyā","country":"AF","coord":{"lon":68.426109,"lat":33.553059}},{"_id":1147290,"name":"Balkh","country":"AF","coord":{"lon":66.897202,"lat":36.756351}},{"_id":1129070,"name":"Qizilābād","country":"AF","coord":{"lon":67.19574,"lat":36.7201}},{"_id":1467993,"name":"Qarah Qishlāq","country":"AF","coord":{"lon":68.892883,"lat":36.657059}},{"_id":1129867,"name":"Qala i Naw","country":"AF","coord":{"lon":63.12891,"lat":34.98735}},{"_id":1423722,"name":"Khwājah Paytāgh","country":"AF","coord":{"lon":64.7761,"lat":35.93589}},{"_id":1129154,"name":"Kaze Karez","country":"AF","coord":{"lon":65.845009,"lat":31.537979}},{"_id":1473022,"name":"Nahr-e Shāhī","country":"AF","coord":{"lon":70.491814,"lat":34.414822}},{"_id":1140605,"name":"Guzarah","country":"AF","coord":{"lon":62.212349,"lat":34.212231}},{"_id":1136354,"name":"Deh Khwahan","country":"AF","coord":{"lon":70.21875,"lat":37.889648}},{"_id":1438158,"name":"Mīānūr Kalā","country":"AF","coord":{"lon":69.252777,"lat":33.628132}},{"_id":1447263,"name":"Qal‘ah-ye ‘Abd ul Aḩmad Khān","country":"AF","coord":{"lon":68.427498,"lat":33.53722}},{"_id":1447254,"name":"Kala-Navi-Sarm-Reg","country":"AF","coord":{"lon":68.416389,"lat":33.53833}},{"_id":1146727,"name":"Bāī Mālasī","country":"AF","coord":{"lon":70.512398,"lat":37.132938}},{"_id":1428258,"name":"Kalayi-Gulyamsheykhi","country":"AF","coord":{"lon":62.152641,"lat":32.374889}},{"_id":1457317,"name":"Sar Āsyāb","country":"AF","coord":{"lon":67.821671,"lat":34.8125}},{"_id":1125444,"name":"Shibirghan","country":"AF","coord":{"lon":65.752899,"lat":36.667568}},{"_id":1125896,"name":"Shahrak","country":"AF","coord":{"lon":64.305199,"lat":34.10738}},{"_id":1127106,"name":"Wilāyat-e Sar-e Pul","country":"AF","coord":{"lon":66.166672,"lat":35.833328}},{"_id":1127110,"name":"Sar-e Pul","country":"AF","coord":{"lon":65.932487,"lat":36.215439}},{"_id":1127628,"name":"Sang-e Charak","country":"AF","coord":{"lon":66.436943,"lat":35.84972}},{"_id":1127768,"name":"Aibak","country":"AF","coord":{"lon":68.015511,"lat":36.264679}},{"_id":1128265,"name":"Rustaq","country":"AF","coord":{"lon":69.830452,"lat":37.126041}},{"_id":1129516,"name":"Qarqin","country":"AF","coord":{"lon":66.043579,"lat":37.41853}},{"_id":1129648,"name":"Qarawul","country":"AF","coord":{"lon":68.780411,"lat":37.220188}},{"_id":1130490,"name":"Pul-e Khumri","country":"AF","coord":{"lon":68.715118,"lat":35.94458}},{"_id":1131316,"name":"Paghman","country":"AF","coord":{"lon":68.953331,"lat":34.587502}},{"_id":1132495,"name":"Nahrin","country":"AF","coord":{"lon":69.13343,"lat":36.064899}},{"_id":1133574,"name":"Mehtar Lam","country":"AF","coord":{"lon":70.209442,"lat":34.671391}},{"_id":1133616,"name":"Mazar-e Sharif","country":"AF","coord":{"lon":67.11087,"lat":36.709042}},{"_id":1136469,"name":"Khost","country":"AF","coord":{"lon":69.92041,"lat":33.339512}},{"_id":1136575,"name":"Khulm","country":"AF","coord":{"lon":67.698257,"lat":36.697361}},{"_id":1131821,"name":"Wilāyat-e Nīmrōz","country":"AF","coord":{"lon":62.5,"lat":31.0}},{"_id":1136863,"name":"Khash","country":"AF","coord":{"lon":62.79055,"lat":31.52919}},{"_id":1137168,"name":"Khanabad","country":"AF","coord":{"lon":69.115562,"lat":36.682499}},{"_id":1137807,"name":"Karukh","country":"AF","coord":{"lon":62.5863,"lat":34.481079}},{"_id":1139807,"name":"Jabal os Saraj","country":"AF","coord":{"lon":69.237778,"lat":35.118328}},{"_id":1141089,"name":"Ghormach","country":"AF","coord":{"lon":63.782639,"lat":35.730621}},{"_id":1141540,"name":"Gereshk","country":"AF","coord":{"lon":64.570053,"lat":31.82089}},{"_id":1142170,"name":"Fayzabad","country":"AF","coord":{"lon":70.580017,"lat":37.116638}},{"_id":1142264,"name":"Farah","country":"AF","coord":{"lon":62.116379,"lat":32.374512}},{"_id":1142404,"name":"Kafir Qala","country":"AF","coord":{"lon":61.066669,"lat":34.666672}},{"_id":1147066,"name":"Baraki Barak","country":"AF","coord":{"lon":68.948608,"lat":33.967499}},{"_id":1148106,"name":"Art Khwajah","country":"AF","coord":{"lon":69.479584,"lat":37.085709}},{"_id":1148205,"name":"Asmar","country":"AF","coord":{"lon":71.358093,"lat":35.033329}},{"_id":1148311,"name":"Asadabad","country":"AF","coord":{"lon":71.146973,"lat":34.873112}},{"_id":1469706,"name":"Markaz-e Woluswali-ye Achin","country":"AF","coord":{"lon":70.707779,"lat":34.125832}},{"_id":1131461,"name":"Wilāyat-e Uruzgān","country":"AF","coord":{"lon":66.0,"lat":32.833328}},{"_id":1438738,"name":"Ḩamāmak","country":"AF","coord":{"lon":61.87384,"lat":31.705509}}]}
