{"countryCityList":[{"_id":1120471,"coord":{"lat":33.542221,"lon":69.734169},"country":"AF","name":"Zorkot"},{"_id":1474856,"coord":{"lat":32.107262,"lon":65.039543},"country":"AF","name":"Dê Kanāt-e Laţīf"},{"_id":1133835,"coord":{"lat":32.144299,"lon":68.178207},"country":"AF","name":"Marghakay"},{"_id":1140382,"coord":{"lat":32.31834,"lon":65.536209},"country":"AF","name":"Khadzhi-Alam-Kalay"},{"_id":1461264,"coord":{"lat":32.360828,"lon":63.382301},"country":"AF","name":"Qaryah-ye Band Now"},{"_id":1122162,"coord":{"lat":32.383301,"lon":66.452667},"country":"AF","name":"Tōngar"},{"_id":1148416,"coord":{"lat":32.453541,"lon":67.389381},"country":"AF","name":"Aril"},{"_id":7106997,"coord":{"lat":32.532841,"lon":69.142174},"country":"AF","name":"Khênḏakaī Karam Zāway"},{"_id":1433879,"coord":{"lat":32.53952,"lon":69.266472},"country":"AF","name":"Kākā Khēl"},{"_id":1121941,"coord":{"lat":33.24662,"lon":62.182041},"country":"AF","name":"Ūrāyin-e ‘Ulyā"},{"_id":1435246,"coord":{"lat":33.386532,"lon":68.530434},"country":"AF","name":"Khānī-ye ‘Ulyā"},{"_id":1462157,"coord":{"lat":34.21674,"lon":67.011597},"country":"AF","name":"Shiwnah Takhak"},{"_id":1129953,"coord":{"lat":34.528061,"lon":65.254913},"country":"AF","name":"Kānsī Suflá"},{"_id":1470705,"coord":{"lat":34.509521,"lon":65.169777},"country":"AF","name":"Dahan-e Akhtah Khānah"},{"_id":1141133,"coord":{"lat":34.539558,"lon":63.02243},"country":"AF","name":"Ghurumbāw"},{"_id":1120863,"coord":{"lat":32.84734,"lon":68.445732},"country":"AF","name":"Zarghun Shahr"},{"_id":1120879,"coord":{"lat":33.146671,"lon":68.791672},"country":"AF","name":"Zarah Sharan"},{"_id":1121418,"coord":{"lat":32.93742,"lon":68.646217},"country":"AF","name":"Yahya Khel"},{"_id":1122068,"coord":{"lat":33.687222,"lon":68.401672},"country":"AF","name":"Tormay"},{"_id":1130131,"coord":{"lat":32.105751,"lon":66.908333},"country":"AF","name":"Qalat"},{"_id":1138636,"coord":{"lat":34.78371,"lon":69.150009},"country":"AF","name":"Kalakan"},{"_id":1143782,"coord":{"lat":33.28167,"lon":69.584999},"country":"AF","name":"Dwah Manday"},{"_id":1144040,"coord":{"lat":37.38414,"lon":69.452942},"country":"AF","name":"Darqad"},{"_id":1146979,"coord":{"lat":35.672829,"lon":71.343391},"country":"AF","name":"Barg-e Matal"},{"_id":1147511,"coord":{"lat":34.493759,"lon":69.274269},"country":"AF","name":"Bagrami"},{"_id":1148114,"coord":{"lat":31.73506,"lon":67.357399},"country":"AF","name":"Alaqahdari Atghar"},{"_id":1148709,"coord":{"lat":32.758701,"lon":61.653969},"country":"AF","name":"Anar Darah"},{"_id":1148939,"coord":{"lat":33.942532,"lon":69.719078},"country":"AF","name":"Ali Khel"},{"_id":1429499,"coord":{"lat":35.014679,"lon":69.599342},"country":"AF","name":"Shayrwani-ye Bala"},{"_id":1434016,"coord":{"lat":32.793308,"lon":69.086601},"country":"AF","name":"Alaqahdari Sarobi"},{"_id":1435007,"coord":{"lat":33.158058,"lon":69.312782},"country":"AF","name":"Zerok-Alakadari"},{"_id":1437517,"coord":{"lat":32.85355,"lon":68.449722},"country":"AF","name":"Khayr Kot"},{"_id":1455430,"coord":{"lat":34.927219,"lon":68.464172},"country":"AF","name":"Dahan-e Jarf"},{"_id":1456960,"coord":{"lat":34.395611,"lon":68.86618},"country":"AF","name":"Maidan Shahr"},{"_id":1464922,"coord":{"lat":35.617939,"lon":69.471336},"country":"AF","name":"Pul-e Hisar"},{"_id":1468514,"coord":{"lat":37.474072,"lon":70.61586},"country":"AF","name":"Pas Pul"},{"_id":1135689,"coord":{"lat":36.728958,"lon":68.857002},"country":"AF","name":"Kunduz"},{"_id":1148658,"coord":{"lat":36.95293,"lon":65.123756},"country":"AF","name":"Andkhoy"},{"_id":1127766,"coord":{"lat":36,"lon":67.666672},"country":"AF","name":"Wilāyat-e Samangān"},{"_id":1134720,"coord":{"lat":31.593821,"lon":64.371613},"country":"AF","name":"Lashkar Gah"},{"_id":7052787,"coord":{"lat":35.731049,"lon":63.77898},"country":"AF","name":"Ghōrmāch"},{"_id":6692413,"coord":{"lat":34.26545,"lon":67.345161},"country":"AF","name":"Cool urhajo"},{"_id":1120500,"coord":{"lat":33.323608,"lon":68.439438},"country":"AF","name":"Miray"},{"_id":1120501,"coord":{"lat":36.083519,"lon":66.840286},"country":"AF","name":"Aq Kupruk"},{"_id":1120627,"coord":{"lat":31.9848,"lon":65.473602},"country":"AF","name":"Ziarat-e Shah Maqsud"},{"_id":1120711,"coord":{"lat":34.34264,"lon":61.74675},"country":"AF","name":"Zindah Jan"},{"_id":1120985,"coord":{"lat":30.966669,"lon":61.883331},"country":"AF","name":"Zaranj"},{"_id":1121045,"coord":{"lat":32.372601,"lon":66.177078},"country":"AF","name":"Zamto Kelay"},{"_id":1121271,"coord":{"lat":37.465721,"lon":69.611313},"country":"AF","name":"Yangi Qalah"},{"_id":1121855,"coord":{"lat":32.251221,"lon":63.85553},"country":"AF","name":"Washer"},{"_id":1122189,"coord":{"lat":33.97509,"lon":63.72868},"country":"AF","name":"Tulak"},{"_id":1122402,"coord":{"lat":33.690319,"lon":63.863609},"country":"AF","name":"Titan"},{"_id":1122408,"coord":{"lat":34.594311,"lon":61.268951},"country":"AF","name":"Tir Pul"},{"_id":1122464,"coord":{"lat":33.349998,"lon":64.416672},"country":"AF","name":"Taywarah"},{"_id":1122705,"coord":{"lat":36.88168,"lon":70.276741},"country":"AF","name":"Bazar-e Tashkan"},{"_id":1123343,"coord":{"lat":35.699409,"lon":66.061638},"country":"AF","name":"Tagaw-Bay"},{"_id":1138255,"coord":{"lat":35,"lon":69.583328},"country":"AF","name":"Wilāyat-e Kāpīsā"},{"_id":1123424,"coord":{"lat":34.855011,"lon":69.64917},"country":"AF","name":"Tagab"},{"_id":1123666,"coord":{"lat":32.24139,"lon":62.94936},"country":"AF","name":"Markaz-e Hukumat-e Sultan-e Bakwah"},{"_id":1123906,"coord":{"lat":31.005751,"lon":66.400009},"country":"AF","name":"Spin Boldak"},{"_id":1123935,"coord":{"lat":33.202221,"lon":69.515282},"country":"AF","name":"Sperah"},{"_id":1123963,"coord":{"lat":36.099159,"lon":66.208229},"country":"AF","name":"Sozmah Qalah"},{"_id":1124621,"coord":{"lat":35.005531,"lon":68.855782},"country":"AF","name":"Siyahgird"},{"_id":1124973,"coord":{"lat":34.57169,"lon":70.588593},"country":"AF","name":"Sheywah"},{"_id":1125267,"coord":{"lat":33.287441,"lon":69.912827},"country":"AF","name":"Shaykh Amir Kelay"},{"_id":1125362,"coord":{"lat":35.039749,"lon":69.006851},"country":"AF","name":"Qashqal"},{"_id":1125497,"coord":{"lat":33.423859,"lon":69.376839},"country":"AF","name":"Shwak"},{"_id":1125866,"coord":{"lat":31.803471,"lon":66.323761},"country":"AF","name":"Shahr-e Safa"},{"_id":1125890,"coord":{"lat":36.979839,"lon":70.739281},"country":"AF","name":"Shahran"},{"_id":1125962,"coord":{"lat":32.521542,"lon":67.413147},"country":"AF","name":"Alaqahdari Shah Joy"},{"_id":1126216,"coord":{"lat":33.690559,"lon":69.368813},"country":"AF","name":"Wuleswali Sayyid Karam"},{"_id":1126263,"coord":{"lat":34.000832,"lon":68.715279},"country":"AF","name":"Markaz-e Sayyidabad"},{"_id":1126266,"coord":{"lat":36.135288,"lon":65.829697},"country":"AF","name":"Sayad"},{"_id":1126710,"coord":{"lat":32.565208,"lon":67.033241},"country":"AF","name":"Sayagaz"},{"_id":1126796,"coord":{"lat":33.509979,"lon":65.676323},"country":"AF","name":"Sar-e Tayghan"},{"_id":1126884,"coord":{"lat":34.589619,"lon":69.760048},"country":"AF","name":"Sarobi"},{"_id":1126935,"coord":{"lat":34.79023,"lon":71.109619},"country":"AF","name":"Sar Kani"},{"_id":1127001,"coord":{"lat":32.98333,"lon":67.965172},"country":"AF","name":"Sarfiraz Kala"},{"_id":1127451,"coord":{"lat":35.701778,"lon":65.230553},"country":"AF","name":"Sar Chakan"},{"_id":1127547,"coord":{"lat":32.07275,"lon":64.835899},"country":"AF","name":"Sangin"},{"_id":1127604,"coord":{"lat":33.139599,"lon":67.44046},"country":"AF","name":"Sang-e Mashah"},{"_id":1127664,"coord":{"lat":35.248001,"lon":63.004398},"country":"AF","name":"Sang Atesh"},{"_id":1127667,"coord":{"lat":34.40744,"lon":70.639374},"country":"AF","name":"Sangar Saray"},{"_id":1128186,"coord":{"lat":35.319988,"lon":67.633873},"country":"AF","name":"Ru-ye Sang"},{"_id":1128239,"coord":{"lat":30.15,"lon":62.599998},"country":"AF","name":"Rudbar"},{"_id":1128310,"coord":{"lat":34.799511,"lon":62.139172},"country":"AF","name":"Rabat-e Sangi-ye Pain"},{"_id":1128565,"coord":{"lat":33.522339,"lon":68.626404},"country":"AF","name":"Ramak"},{"_id":1128954,"coord":{"lat":36.919392,"lon":65.064903},"country":"AF","name":"Qurghan"},{"_id":1129013,"coord":{"lat":34.061668,"lon":66.275833},"country":"AF","name":"Quchanghi"},{"_id":1129077,"coord":{"lat":35.687469,"lon":64.293182},"country":"AF","name":"Sangalak-i-Kaisar"},{"_id":1129555,"coord":{"lat":34.55402,"lon":70.24292},"country":"AF","name":"Qarghahi"},{"_id":1129636,"coord":{"lat":37.039989,"lon":66.78891},"country":"AF","name":"Qarchi Gak"},{"_id":1129678,"coord":{"lat":34.940231,"lon":61.77589},"country":"AF","name":"Qarah Bagh"},{"_id":1129680,"coord":{"lat":33.191669,"lon":68.104721},"country":"AF","name":"Qarah Bagh"},{"_id":1129928,"coord":{"lat":38.040089,"lon":70.474716},"country":"AF","name":"Qalah-ye Kuf"},{"_id":1129932,"coord":{"lat":32.61591,"lon":63.666809},"country":"AF","name":"Qalah-ye Kuhnah"},{"_id":1130065,"coord":{"lat":35.547291,"lon":65.567596},"country":"AF","name":"Qalah-ye Shahr"},{"_id":1130132,"coord":{"lat":34.649212,"lon":70.5914},"country":"AF","name":"Qalah-ye Shahi"},{"_id":1130233,"coord":{"lat":34.808498,"lon":63.430031},"country":"AF","name":"Qadis"},{"_id":1130469,"coord":{"lat":35.4207,"lon":70.922142},"country":"AF","name":"Parun"},{"_id":1130497,"coord":{"lat":33.995289,"lon":69.022743},"country":"AF","name":"Pul-e Alam"},{"_id":1130981,"coord":{"lat":35.76664,"lon":65.764862},"country":"AF","name":"Pasnay"},{"_id":1130997,"coord":{"lat":31.557199,"lon":65.434303},"country":"AF","name":"Pashmul"},{"_id":1131045,"coord":{"lat":33.68956,"lon":64.853104},"country":"AF","name":"Pasaband"},{"_id":1131162,"coord":{"lat":34.387951,"lon":67.02327},"country":"AF","name":"Panjab"},{"_id":1131389,"coord":{"lat":32.900291,"lon":68.796257},"country":"AF","name":"Omnah"},{"_id":1131406,"coord":{"lat":34.36972,"lon":63.176392},"country":"AF","name":"Qaryeh-ye Owbeh"},{"_id":1131462,"coord":{"lat":32.92775,"lon":66.63253},"country":"AF","name":"Uruzgan"},{"_id":1131479,"coord":{"lat":32.941109,"lon":69.18},"country":"AF","name":"Urgun"},{"_id":1131591,"coord":{"lat":38.44294,"lon":70.805412},"country":"AF","name":"Nusay"},{"_id":1131625,"coord":{"lat":34.613411,"lon":70.764977},"country":"AF","name":"Nurgal"},{"_id":1131649,"coord":{"lat":32.403141,"lon":64.469589},"country":"AF","name":"Now Zad"},{"_id":1131833,"coord":{"lat":33.721779,"lon":66.130234},"country":"AF","name":"Nili"},{"_id":1132034,"coord":{"lat":34.734138,"lon":66.952919},"country":"AF","name":"Nayak"},{"_id":1132046,"coord":{"lat":32.5723,"lon":66.774033},"country":"AF","name":"Nayak"},{"_id":6957555,"coord":{"lat":35.402481,"lon":69.98291},"country":"AF","name":"Panjshir"},{"_id":1132127,"coord":{"lat":35.623981,"lon":70.005112},"country":"AF","name":"Now Dahanak"},{"_id":1132172,"coord":{"lat":33.897942,"lon":67.95652},"country":"AF","name":"Okak"},{"_id":1132336,"coord":{"lat":35.221001,"lon":71.522499},"country":"AF","name":"Naray"},{"_id":1132344,"coord":{"lat":34.76009,"lon":71.047379},"country":"AF","name":"Narang"},{"_id":1132465,"coord":{"lat":33.189339,"lon":69.27179},"country":"AF","name":"Nikeh"},{"_id":1132550,"coord":{"lat":31.64286,"lon":64.239822},"country":"AF","name":"Hukumat-e Nad Ali"},{"_id":1132604,"coord":{"lat":32.445648,"lon":64.744858},"country":"AF","name":"Musa Qalah"},{"_id":1132770,"coord":{"lat":35.58408,"lon":63.328861},"country":"AF","name":"Bala Murghab"},{"_id":1132807,"coord":{"lat":32.820091,"lon":67.769341},"country":"AF","name":"Muqer"},{"_id":1133105,"coord":{"lat":34.214722,"lon":69.099998},"country":"AF","name":"Muhammad Aghah Wuluswali"},{"_id":1133154,"coord":{"lat":32.17635,"lon":66.512711},"country":"AF","name":"Mizan Alaqahdari"},{"_id":1133270,"coord":{"lat":34.749989,"lon":69.118988},"country":"AF","name":"Mir Bachah Kot"},{"_id":1133279,"coord":{"lat":34.220299,"lon":68.312523},"country":"AF","name":"Miran"},{"_id":1133310,"coord":{"lat":30.436239,"lon":61.838299},"country":"AF","name":"Mirabad"},{"_id":1133456,"coord":{"lat":33.649158,"lon":69.781197},"country":"AF","name":"Maidan Khulah"},{"_id":1133544,"coord":{"lat":37.027901,"lon":66.128166},"country":"AF","name":"Mingajik"},{"_id":1133657,"coord":{"lat":38.408562,"lon":71.038383},"country":"AF","name":"Maymay"},{"_id":1133689,"coord":{"lat":33.241669,"lon":68.866386},"country":"AF","name":"Muta Khan"},{"_id":1133749,"coord":{"lat":36.811069,"lon":70.096199},"country":"AF","name":"Mashhad"},{"_id":1133856,"coord":{"lat":36.992859,"lon":66.296852},"country":"AF","name":"Mardian"},{"_id":1133987,"coord":{"lat":35.284031,"lon":70.170174},"country":"AF","name":"Mandol"},{"_id":1134074,"coord":{"lat":34.244942,"lon":69.996803},"country":"AF","name":"Mama Khel"},{"_id":1134724,"coord":{"lat":31.71382,"lon":61.622719},"country":"AF","name":"Lash-e Juwayn"},{"_id":1134762,"coord":{"lat":35.489361,"lon":66.664093},"country":"AF","name":"Larkird"},{"_id":1134887,"coord":{"lat":34.501411,"lon":66.279961},"country":"AF","name":"Lal"},{"_id":1135514,"coord":{"lat":34.105061,"lon":70.460602},"country":"AF","name":"Kotowal"},{"_id":1135625,"coord":{"lat":34.871101,"lon":62.547619},"country":"AF","name":"Kushk-e Kuhnah"},{"_id":1135656,"coord":{"lat":36.02866,"lon":70.772583},"country":"AF","name":"Alaqahdari Kiran wa Munjan"},{"_id":1135960,"coord":{"lat":33.99889,"lon":69.211937},"country":"AF","name":"Khoshi"},{"_id":1135980,"coord":{"lat":32.685669,"lon":68.238007},"country":"AF","name":"Khoshamand"},{"_id":1136235,"coord":{"lat":37.06588,"lon":69.421257},"country":"AF","name":"Khwajah Ghar"},{"_id":1136250,"coord":{"lat":36.828812,"lon":65.624321},"country":"AF","name":"Khwajah Du Koh"},{"_id":1136414,"coord":{"lat":33.494801,"lon":70.00605},"country":"AF","name":"Khulbisat"},{"_id":1136442,"coord":{"lat":31.56267,"lon":66.581398},"country":"AF","name":"Khugyani"},{"_id":1136604,"coord":{"lat":35.178349,"lon":67.687576},"country":"AF","name":"Khudaydad Khel"},{"_id":1136723,"coord":{"lat":35.589081,"lon":68.900932},"country":"AF","name":"Khinjan"},{"_id":1136737,"coord":{"lat":35.428982,"lon":69.734818},"country":"AF","name":"Khinj"},{"_id":1137079,"coord":{"lat":30.5488,"lon":63.788799},"country":"AF","name":"Khan Neshin"},{"_id":1137121,"coord":{"lat":36.62587,"lon":69.536949},"country":"AF","name":"Khanaqah"},{"_id":1137147,"coord":{"lat":37.00108,"lon":65.223923},"country":"AF","name":"Chahar Bagh"},{"_id":1137148,"coord":{"lat":36.951271,"lon":72.318001},"country":"AF","name":"Khandud"},{"_id":1137160,"coord":{"lat":36.858898,"lon":66.167549},"country":"AF","name":"Khanaqah"},{"_id":1137247,"coord":{"lat":37.5275,"lon":65.758331},"country":"AF","name":"Khamyab"},{"_id":1137359,"coord":{"lat":32.838501,"lon":67.073769},"country":"AF","name":"Khakiran"},{"_id":1137548,"coord":{"lat":34.240879,"lon":70.182739},"country":"AF","name":"Kazhah"},{"_id":1137745,"coord":{"lat":31.625191,"lon":65.055107},"country":"AF","name":"Kishk-e Nakhud"},{"_id":1138321,"coord":{"lat":34.953602,"lon":70.778969},"country":"AF","name":"Kanday"},{"_id":1138590,"coord":{"lat":33.836761,"lon":68.402328},"country":"AF","name":"Kalan Deh"},{"_id":1138657,"coord":{"lat":36.772739,"lon":69.945},"country":"AF","name":"Kalafgan"},{"_id":1138714,"coord":{"lat":33.203571,"lon":65.473106},"country":"AF","name":"Kajran"},{"_id":1138801,"coord":{"lat":34.128189,"lon":70.718277},"country":"AF","name":"Kai"},{"_id":1139085,"coord":{"lat":36.864769,"lon":70.834213},"country":"AF","name":"Jurm"},{"_id":1139335,"coord":{"lat":35.06361,"lon":64.14917},"country":"AF","name":"Jawand"},{"_id":1139500,"coord":{"lat":32.763149,"lon":68.397217},"country":"AF","name":"Jani Khel"},{"_id":1139683,"coord":{"lat":34.473061,"lon":68.643333},"country":"AF","name":"Jalrez"},{"_id":1139967,"coord":{"lat":31.98303,"lon":67.335579},"country":"AF","name":"Hukumat-e Shinkai"},{"_id":1140341,"coord":{"lat":35.109219,"lon":69.433411},"country":"AF","name":"Haji Khel"},{"_id":1140433,"coord":{"lat":37.056431,"lon":70.400612},"country":"AF","name":"Hafiz Moghul"},{"_id":1140435,"coord":{"lat":34.286652,"lon":70.372467},"country":"AF","name":"Khafizan"},{"_id":1140614,"coord":{"lat":34.358219,"lon":70.762642},"country":"AF","name":"Goshtah"},{"_id":1140623,"coord":{"lat":32.511902,"lon":68.85598},"country":"AF","name":"Gomal Kelay"},{"_id":1140919,"coord":{"lat":32.726921,"lon":67.636963},"country":"AF","name":"Alaqahdari Gelan"},{"_id":1140970,"coord":{"lat":34.344799,"lon":61.49321},"country":"AF","name":"Ghoriyan"},{"_id":1141098,"coord":{"lat":36.522202,"lon":70.790642},"country":"AF","name":"Ghurayd Gharame"},{"_id":1142171,"coord":{"lat":36.82103,"lon":66.459641},"country":"AF","name":"Faizabad"},{"_id":1142172,"coord":{"lat":36.291111,"lon":64.862221},"country":"AF","name":"Fayzabad"},{"_id":1142234,"coord":{"lat":33.78529,"lon":63.247349},"country":"AF","name":"Qalah-ye Farsi"},{"_id":1142239,"coord":{"lat":36.57288,"lon":69.857826},"country":"AF","name":"Farkhar"},{"_id":1142330,"coord":{"lat":34.83268,"lon":69.07756},"country":"AF","name":"Istalif"},{"_id":1142517,"coord":{"lat":34.301571,"lon":62.246498},"country":"AF","name":"Injil"},{"_id":1142545,"coord":{"lat":37.188969,"lon":68.93644},"country":"AF","name":"Imam Sahib"},{"_id":1142738,"coord":{"lat":35.60918,"lon":68.684731},"country":"AF","name":"Doshi"},{"_id":1142758,"coord":{"lat":34.551319,"lon":65.793022},"country":"AF","name":"Dowlatyar"},{"_id":1142761,"coord":{"lat":34.950401,"lon":70.071022},"country":"AF","name":"Dowlat Shah"},{"_id":1142776,"coord":{"lat":36.98782,"lon":66.820663},"country":"AF","name":"Dowlatabad"},{"_id":1142777,"coord":{"lat":36.43259,"lon":64.920708},"country":"AF","name":"Dowlatabad"},{"_id":1142852,"coord":{"lat":32.142368,"lon":61.446899},"country":"AF","name":"Du Qalah"},{"_id":1142964,"coord":{"lat":35.562771,"lon":67.821907},"country":"AF","name":"Duab"},{"_id":1143057,"coord":{"lat":30.432949,"lon":63.317379},"country":"AF","name":"Deh-e Shū"},{"_id":1143255,"coord":{"lat":32.432049,"lon":65.634842},"country":"AF","name":"De Narkhel Kelay"},{"_id":1143477,"coord":{"lat":35.958061,"lon":67.279984},"country":"AF","name":"Dehi"},{"_id":1143529,"coord":{"lat":35.690311,"lon":69.315102},"country":"AF","name":"Deh-e Salah"},{"_id":1143548,"coord":{"lat":34.747669,"lon":69.047836},"country":"AF","name":"Deh-e Now"},{"_id":1143630,"coord":{"lat":36.663078,"lon":66.993759},"country":"AF","name":"Dehdadi"},{"_id":1143814,"coord":{"lat":37.1539,"lon":69.443497},"country":"AF","name":"Dasht-e Qalah"},{"_id":1143816,"coord":{"lat":33.030048,"lon":63.839439},"country":"AF","name":"Dasht-e Qalah"},{"_id":1143838,"coord":{"lat":37.133331,"lon":69.166672},"country":"AF","name":"Dasht-e Archi"},{"_id":1143874,"coord":{"lat":35.97744,"lon":65.378281},"country":"AF","name":"Darzab"},{"_id":1143901,"coord":{"lat":31.13232,"lon":64.193398},"country":"AF","name":"Markaz-e Hukumat-e Darweshan"},{"_id":1144121,"coord":{"lat":36.866669,"lon":70.383331},"country":"AF","name":"Darayim"},{"_id":1144166,"coord":{"lat":34.99231,"lon":71.419434},"country":"AF","name":"Dangam"},{"_id":1144185,"coord":{"lat":34.790951,"lon":69.475037},"country":"AF","name":"Dandar"},{"_id":1144559,"coord":{"lat":35.90617,"lon":68.488693},"country":"AF","name":"Hukumati Dahanah-ye Ghori"},{"_id":1144905,"coord":{"lat":34.692459,"lon":70.92688},"country":"AF","name":"Tsowkey"},{"_id":1144942,"coord":{"lat":35.41674,"lon":65.982338},"country":"AF","name":"Chiras"},{"_id":1145007,"coord":{"lat":34.347309,"lon":63.739658},"country":"AF","name":"Chisht-e Sharif"},{"_id":1145124,"coord":{"lat":32.015831,"lon":65.107208},"country":"AF","name":"Chinar"},{"_id":1145128,"coord":{"lat":36.678181,"lon":66.803253},"country":"AF","name":"Chimtal"},{"_id":1145348,"coord":{"lat":33.796391,"lon":68.938057},"country":"AF","name":"Charkh"},{"_id":1145364,"coord":{"lat":36.691319,"lon":68.790932},"country":"AF","name":"Dowr-e Rabat"},{"_id":1145417,"coord":{"lat":33.830029,"lon":69.919197},"country":"AF","name":"Tsaperai"},{"_id":1145511,"coord":{"lat":33.802979,"lon":69.816711},"country":"AF","name":"Tsamkani"},{"_id":1145605,"coord":{"lat":34.340988,"lon":69.437698},"country":"AF","name":"Chakaray"},{"_id":1145607,"coord":{"lat":36.910469,"lon":71.068779},"country":"AF","name":"Chakaran"},{"_id":1145799,"coord":{"lat":33.55278,"lon":68.298332},"country":"AF","name":"Chahar Qalah"},{"_id":1145866,"coord":{"lat":34.244751,"lon":62.19165},"country":"AF","name":"Chahar Burj"},{"_id":1145897,"coord":{"lat":37.397732,"lon":69.814636},"country":"AF","name":"Chah Ab"},{"_id":1145904,"coord":{"lat":34.51952,"lon":65.250938},"country":"AF","name":"Chaghcharan"},{"_id":1146336,"coord":{"lat":34.87706,"lon":68.087898},"country":"AF","name":"Bulolah"},{"_id":1146576,"coord":{"lat":35.84026,"lon":65.230904},"country":"AF","name":"Bal Chiragh"},{"_id":1146694,"coord":{"lat":35.387249,"lon":68.221672},"country":"AF","name":"Bazar-e Talah"},{"_id":1146822,"coord":{"lat":34.24749,"lon":70.872177},"country":"AF","name":"Basawul"},{"_id":1146911,"coord":{"lat":36.22242,"lon":69.150383},"country":"AF","name":"Burkah"},{"_id":1147118,"coord":{"lat":35.63348,"lon":69.260201},"country":"AF","name":"Banu"},{"_id":1147489,"coord":{"lat":37.002541,"lon":70.906639},"country":"AF","name":"Baharak"},{"_id":1147851,"coord":{"lat":34.17355,"lon":69.645729},"country":"AF","name":"Hukumati Azrah"},{"_id":1148268,"coord":{"lat":36.683331,"lon":71.533333},"country":"AF","name":"Ashkasham"},{"_id":1148560,"coord":{"lat":36.911388,"lon":66.185829},"country":"AF","name":"Aqchah"},{"_id":1148695,"coord":{"lat":35.23251,"lon":69.37719},"country":"AF","name":"Unabah"},{"_id":1148792,"coord":{"lat":30.211439,"lon":66.047653},"country":"AF","name":"Amanzi"},{"_id":1148863,"coord":{"lat":35.846161,"lon":64.530739},"country":"AF","name":"Alaqahdari-ye Almar"},{"_id":1148893,"coord":{"lat":33.436199,"lon":70.067108},"country":"AF","name":"Ali Sher Alaqahdari"},{"_id":1148911,"coord":{"lat":34.834702,"lon":70.359459},"country":"AF","name":"Wuluswali Alingar"},{"_id":1149049,"coord":{"lat":33.051941,"lon":68.650002},"country":"AF","name":"Alaqahdari Yosuf Khel"},{"_id":1149052,"coord":{"lat":30.43741,"lon":63.312981},"country":"AF","name":"Alaqahdari Dishu"},{"_id":1149107,"coord":{"lat":34.8965,"lon":69.72049},"country":"AF","name":"Alah Say"},{"_id":1149348,"coord":{"lat":34.200111,"lon":70.278061},"country":"AF","name":"Pachir wa Agam"},{"_id":1149371,"coord":{"lat":36.66172,"lon":69.350952},"country":"AF","name":"Afaki"},{"_id":1149379,"coord":{"lat":33.645729,"lon":62.269588},"country":"AF","name":"Adraskan"},{"_id":1149550,"coord":{"lat":35.087959,"lon":63.067799},"country":"AF","name":"Ab-e Kamari"},{"_id":1348242,"coord":{"lat":33.922321,"lon":65.933983},"country":"AF","name":"Khadir"},{"_id":1349513,"coord":{"lat":34.95076,"lon":69.228699},"country":"AF","name":"Ghulam Ali"},{"_id":1349709,"coord":{"lat":34.852901,"lon":69.170624},"country":"AF","name":"Qarah Bagh Bazar"},{"_id":1349845,"coord":{"lat":34.78764,"lon":69.058777},"country":"AF","name":"Zargaran"},{"_id":1349934,"coord":{"lat":34.684738,"lon":69.028633},"country":"AF","name":"Surkh Bilandi"},{"_id":1349969,"coord":{"lat":34.59972,"lon":69.259933},"country":"AF","name":"Pul-e Sangi"},{"_id":1422873,"coord":{"lat":35.99474,"lon":68.050812},"country":"AF","name":"Langar"},{"_id":1423264,"coord":{"lat":35.221561,"lon":69.213966},"country":"AF","name":"Bagh-e Maidan"},{"_id":1423451,"coord":{"lat":35.05352,"lon":69.256538},"country":"AF","name":"Ibrahim Khan"},{"_id":1427089,"coord":{"lat":37.215279,"lon":67.639717},"country":"AF","name":"Qaranghu Toghai"},{"_id":1429434,"coord":{"lat":35.31292,"lon":69.51519},"country":"AF","name":"Bazarak"},{"_id":1429521,"coord":{"lat":35.297298,"lon":69.681252},"country":"AF","name":"Kiraman"},{"_id":1437312,"coord":{"lat":32.289909,"lon":61.521938},"country":"AF","name":"Kushkak"},{"_id":1448087,"coord":{"lat":33.382778,"lon":66.272331},"country":"AF","name":"Chowney"},{"_id":1451863,"coord":{"lat":34.91914,"lon":71.098633},"country":"AF","name":"Wutahpur"},{"_id":1452109,"coord":{"lat":34.964722,"lon":71.274437},"country":"AF","name":"Karbori"},{"_id":1453103,"coord":{"lat":34.412041,"lon":70.296341},"country":"AF","name":"Sultanpur-e Ulya"},{"_id":1453777,"coord":{"lat":31.66144,"lon":65.66098},"country":"AF","name":"Babasakhib"},{"_id":1454590,"coord":{"lat":34.584702,"lon":68.95536},"country":"AF","name":"Chandal Bai"},{"_id":1459933,"coord":{"lat":34.155991,"lon":64.78566},"country":"AF","name":"Du Lainah"},{"_id":1464552,"coord":{"lat":36.830059,"lon":65.042992},"country":"AF","name":"Qaram Qol"},{"_id":1465349,"coord":{"lat":36.02634,"lon":66.83799},"country":"AF","name":"Lab-Sar"},{"_id":1467349,"coord":{"lat":36.619221,"lon":69.628052},"country":"AF","name":"Taqchah Khanah"},{"_id":1467433,"coord":{"lat":37.52845,"lon":70.448196},"country":"AF","name":"March"},{"_id":1467505,"coord":{"lat":37.592121,"lon":70.558571},"country":"AF","name":"Ziraki"},{"_id":1467976,"coord":{"lat":36.521149,"lon":68.899849},"country":"AF","name":"Aliabad"},{"_id":1469237,"coord":{"lat":34.399799,"lon":69.166786},"country":"AF","name":"Qalah-ye Naim"},{"_id":1474140,"coord":{"lat":34.99015,"lon":70.913017},"country":"AF","name":"Manogay"},{"_id":1476203,"coord":{"lat":32.977039,"lon":69.373077},"country":"AF","name":"Ster Giyan"},{"_id":1133809,"coord":{"lat":31.52112,"lon":64.117599},"country":"AF","name":"Marjah"},{"_id":1436087,"coord":{"lat":31.56798,"lon":67.016281},"country":"AF","name":"Pātikzaī Chīnah"},{"_id":1130413,"coord":{"lat":32.13702,"lon":66.515694},"country":"AF","name":"Pōṯaī Kêlay"},{"_id":1142263,"coord":{"lat":32.5,"lon":62.5},"country":"AF","name":"Wilāyat-e Farāh"},{"_id":1428368,"coord":{"lat":32.19117,"lon":62.100471},"country":"AF","name":"Chanura"},{"_id":1125543,"coord":{"lat":32.292782,"lon":69.143333},"country":"AF","name":"Sharōnikêy"},{"_id":1127478,"coord":{"lat":33.220242,"lon":62.177681},"country":"AF","name":"Sanowghān"},{"_id":1123537,"coord":{"lat":33.357159,"lon":69.140411},"country":"AF","name":"Sūrkī"},{"_id":1473390,"coord":{"lat":34.24239,"lon":70.043488},"country":"AF","name":"Gangah Khēl"},{"_id":1133965,"coord":{"lat":35.482868,"lon":63.15416},"country":"AF","name":"Mangān"},{"_id":1148535,"coord":{"lat":35.542782,"lon":64.460831},"country":"AF","name":"Āq Kowtal"},{"_id":1133635,"coord":{"lat":35.818642,"lon":66.803459},"country":"AF","name":"Mazār"},{"_id":1136468,"coord":{"lat":35.208542,"lon":70.845322},"country":"AF","name":"Khōst"},{"_id":1135158,"coord":{"lat":33.29565,"lon":61.952209},"country":"AF","name":"Kushk"},{"_id":1120473,"coord":{"lat":34.34528,"lon":67.906387},"country":"AF","name":"Wuleswali Bihsud"},{"_id":1120483,"coord":{"lat":34.653889,"lon":61.197781},"country":"AF","name":"Kuhsan"},{"_id":1120484,"coord":{"lat":35.378201,"lon":64.774567},"country":"AF","name":"Lash"},{"_id":1120487,"coord":{"lat":35.948311,"lon":66.421318},"country":"AF","name":"Tukzar"},{"_id":1120543,"coord":{"lat":33.437778,"lon":69.02774},"country":"AF","name":"Zurmat"},{"_id":1120616,"coord":{"lat":36.529442,"lon":71.348328},"country":"AF","name":"Zaybak"},{"_id":1122747,"coord":{"lat":32.626751,"lon":65.873306},"country":"AF","name":"Tarinkot"},{"_id":1149361,"coord":{"lat":33,"lon":66},"country":"AF","name":"Islamic Republic of Afghanistan"},{"_id":1138335,"coord":{"lat":31,"lon":65.75},"country":"AF","name":"Wilāyat-e Kandahār"},{"_id":1139813,"coord":{"lat":31.01062,"lon":66.219498},"country":"AF","name":"Itī"},{"_id":1140043,"coord":{"lat":31,"lon":64},"country":"AF","name":"Wilāyat-e Helmand"},{"_id":1137047,"coord":{"lat":31.066669,"lon":64.116669},"country":"AF","name":"Khārā Kūh"},{"_id":1466891,"coord":{"lat":31.41453,"lon":65.553902},"country":"AF","name":"Ḩowẕ Kêlay"},{"_id":1121789,"coord":{"lat":31.448641,"lon":65.293861},"country":"AF","name":"Wakīl Rustam Kêlay"},{"_id":1425381,"coord":{"lat":31.56366,"lon":64.427193},"country":"AF","name":"Chaghālānō Ghunḏêy"},{"_id":1407167,"coord":{"lat":31.509991,"lon":65.502968},"country":"AF","name":"Za’farānzaī"},{"_id":1121143,"coord":{"lat":32.25,"lon":67.25},"country":"AF","name":"Wilāyat-e Zābul"},{"_id":1131256,"coord":{"lat":32.416672,"lon":68.75},"country":"AF","name":"Wilāyat-e Paktīkā"},{"_id":1141268,"coord":{"lat":33.333328,"lon":67.75},"country":"AF","name":"Wilāyat-e Ghaznī"},{"_id":1148138,"coord":{"lat":33.007542,"lon":67.994499},"country":"AF","name":"Aṯak"},{"_id":1138464,"coord":{"lat":33.065559,"lon":68.506393},"country":"AF","name":"Kamah Jarkanah"},{"_id":1146706,"coord":{"lat":33.20808,"lon":69.254082},"country":"AF","name":"Bāzak"},{"_id":1444362,"coord":{"lat":33.383331,"lon":69.883331},"country":"AF","name":"Velāyat-e Khowst"},{"_id":1120713,"coord":{"lat":33.233059,"lon":69.553886},"country":"AF","name":"Zindah Tiz̲h̲ah"},{"_id":1140025,"coord":{"lat":34.5,"lon":62},"country":"AF","name":"Wilāyat-e Herāt"},{"_id":1131257,"coord":{"lat":33.666672,"lon":69.333328},"country":"AF","name":"Wilāyat-e Paktiyā"},{"_id":1136938,"coord":{"lat":33.54871,"lon":69.032967},"country":"AF","name":"Kharoti"},{"_id":1148914,"coord":{"lat":33.518311,"lon":69.418037},"country":"AF","name":"‘Alī Muḩammad Khēl"},{"_id":1130419,"coord":{"lat":34.10582,"lon":62.13467},"country":"AF","name":"Pusht Kōh"},{"_id":1132366,"coord":{"lat":34.333328,"lon":70.416672},"country":"AF","name":"Wilāyat-e Nangarhār"},{"_id":1144882,"coord":{"lat":34.068729,"lon":71.027199},"country":"AF","name":"Tsōbī"},{"_id":1473427,"coord":{"lat":34.162819,"lon":70.091843},"country":"AF","name":"Āsmān Bānḏah"},{"_id":1460441,"coord":{"lat":34.16972,"lon":67.503891},"country":"AF","name":"Regak"},{"_id":1147239,"coord":{"lat":34.75,"lon":67.25},"country":"AF","name":"Wilāyat-e Bāmyān"},{"_id":1121863,"coord":{"lat":34.25,"lon":68},"country":"AF","name":"Wilāyat-e Wardak"},{"_id":1130704,"coord":{"lat":34.227219,"lon":68.503326},"country":"AF","name":"Paīwand"},{"_id":6957553,"coord":{"lat":33.75,"lon":66.25},"country":"AF","name":"Wilāyat-e Dāykundī"},{"_id":1456506,"coord":{"lat":34.292488,"lon":66.172211},"country":"AF","name":"Siyāh Kharak-e Wātarmah"},{"_id":1134561,"coord":{"lat":34,"lon":69.25},"country":"AF","name":"Wilāyat-e Lōgar"},{"_id":1131173,"coord":{"lat":34.29583,"lon":69.010277},"country":"AF","name":"Panamay"},{"_id":1131965,"coord":{"lat":34.30444,"lon":69.098892},"country":"AF","name":"Nāz̧ir Kalā"},{"_id":1459084,"coord":{"lat":34.327499,"lon":68.044724},"country":"AF","name":"Khalīl Murdah"},{"_id":1457199,"coord":{"lat":34.352501,"lon":68.584442},"country":"AF","name":"Ākhūndzādah Khēl"},{"_id":1129844,"coord":{"lat":34.440552,"lon":61.41721},"country":"AF","name":"Qalāt-e Qāẕī"},{"_id":1146910,"coord":{"lat":34.376549,"lon":70.107224},"country":"AF","name":"Bar Kakṟak"},{"_id":1123410,"coord":{"lat":34.479198,"lon":63.271191},"country":"AF","name":"Tagāb-e Mā’īch"},{"_id":1138957,"coord":{"lat":34.5,"lon":69.416672},"country":"AF","name":"Wilāyat-e Kābul"},{"_id":1146081,"coord":{"lat":34.50111,"lon":69.3591},"country":"AF","name":"Butkhāk"},{"_id":1141103,"coord":{"lat":34,"lon":65},"country":"AF","name":"Wilāyat-e Ghōr"},{"_id":1454033,"coord":{"lat":34.581692,"lon":69.180573},"country":"AF","name":"Kalayi-Daulat"},{"_id":1349962,"coord":{"lat":34.582939,"lon":69.160233},"country":"AF","name":"Khwājah-Bughrā"},{"_id":1135022,"coord":{"lat":34.783329,"lon":70.183327},"country":"AF","name":"Wilāyat-e Laghmān"},{"_id":1474601,"coord":{"lat":34.572929,"lon":70.213509},"country":"AF","name":"Kandah"},{"_id":1135702,"coord":{"lat":34.950001,"lon":71.133331},"country":"AF","name":"Wilāyat-e Kunaṟ"},{"_id":1424092,"coord":{"lat":35.00631,"lon":71.263046},"country":"AF","name":"Hilālzō Kêlay"},{"_id":1131054,"coord":{"lat":35,"lon":68.916672},"country":"AF","name":"Wilāyat-e Parwān"},{"_id":1423348,"coord":{"lat":35.05928,"lon":69.168083},"country":"AF","name":"Mīr ‘Alā"},{"_id":1423399,"coord":{"lat":35.145901,"lon":69.269638},"country":"AF","name":"Gul Bahār"},{"_id":1133815,"coord":{"lat":35.157501,"lon":71.300423},"country":"AF","name":"Marīd"},{"_id":1147707,"coord":{"lat":35,"lon":63.75},"country":"AF","name":"Wilāyat-e Bādghīs"},{"_id":1147537,"coord":{"lat":35.75,"lon":69},"country":"AF","name":"Wilāyat-e Baghlān"},{"_id":1147586,"coord":{"lat":35.54295,"lon":68.524544},"country":"AF","name":"Bāgh-e Bālinah"},{"_id":1142226,"coord":{"lat":36.25,"lon":64.833328},"country":"AF","name":"Faryab Province"},{"_id":1147288,"coord":{"lat":36.75,"lon":67},"country":"AF","name":"Wilāyat-e Balkh"},{"_id":1129733,"coord":{"lat":36.428902,"lon":66.574287},"country":"AF","name":"Qamishlī"},{"_id":1129676,"coord":{"lat":36.509819,"lon":68.65226},"country":"AF","name":"Qarah Bātūr Qishlāq"},{"_id":1139049,"coord":{"lat":36.833328,"lon":65.833328},"country":"AF","name":"Wilāyat-e Jowzjān"},{"_id":1139362,"coord":{"lat":36.30389,"lon":65.484169},"country":"AF","name":"Jar-e Qūdūq"},{"_id":1122943,"coord":{"lat":36.432789,"lon":67.100883},"country":"AF","name":"Tandōrak"},{"_id":1147745,"coord":{"lat":36.75,"lon":72},"country":"AF","name":"Wilāyat-e Badakhshān"},{"_id":1131059,"coord":{"lat":36.436069,"lon":71.309097},"country":"AF","name":"Parūkh"},{"_id":1123230,"coord":{"lat":36.666672,"lon":69.75},"country":"AF","name":"Wilāyat-e Takhār"},{"_id":1136560,"coord":{"lat":36.580929,"lon":69.995079},"country":"AF","name":"Khurmāb"},{"_id":1467940,"coord":{"lat":37.051189,"lon":70.344139},"country":"AF","name":"Kōr Chashmah"},{"_id":1139976,"coord":{"lat":37.221401,"lon":67.424103},"country":"AF","name":"Ḩaīratān"},{"_id":7525482,"coord":{"lat":37.279079,"lon":69.4571},"country":"AF","name":"Kākul"},{"_id":1138336,"coord":{"lat":31.613319,"lon":65.710129},"country":"AF","name":"Kandahar"},{"_id":1453263,"coord":{"lat":32.923309,"lon":69.118011},"country":"AF","name":"Malakyār Kêlay"},{"_id":1434613,"coord":{"lat":33.327801,"lon":69.952377},"country":"AF","name":"Lanḏay Kêlay"},{"_id":1139715,"coord":{"lat":34.426472,"lon":70.45153},"country":"AF","name":"Jalalabad"},{"_id":1147242,"coord":{"lat":34.824169,"lon":67.821671},"country":"AF","name":"Bamyan"},{"_id":1145352,"coord":{"lat":35.013611,"lon":69.171387},"country":"AF","name":"Charikar"},{"_id":1147540,"coord":{"lat":36.13068,"lon":68.70829},"country":"AF","name":"Baghlan"},{"_id":1125155,"coord":{"lat":33.30294,"lon":62.1474},"country":"AF","name":"Shindand"},{"_id":1138958,"coord":{"lat":34.52813,"lon":69.172333},"country":"AF","name":"Kabul"},{"_id":7097995,"coord":{"lat":34.51572,"lon":69.182838},"country":"AF","name":"Būryā Furōshī"},{"_id":1140026,"coord":{"lat":34.348171,"lon":62.199669},"country":"AF","name":"Herat"},{"_id":1135690,"coord":{"lat":36.75,"lon":68.75},"country":"AF","name":"Wilāyat-e Kunduz"},{"_id":1141857,"coord":{"lat":33.597439,"lon":69.225922},"country":"AF","name":"Gardez"},{"_id":1444363,"coord":{"lat":35.299999,"lon":70.833328},"country":"AF","name":"Velāyat-e Nūrestān"},{"_id":1138565,"coord":{"lat":34.389931,"lon":63.3778},"country":"AF","name":"Kalāt"},{"_id":1442384,"coord":{"lat":33.46413,"lon":66.635437},"country":"AF","name":"Sharīf"},{"_id":1123004,"coord":{"lat":36.73605,"lon":69.534508},"country":"AF","name":"Taloqan"},{"_id":1133453,"coord":{"lat":35.921391,"lon":64.783607},"country":"AF","name":"Maymana"},{"_id":1141269,"coord":{"lat":33.553558,"lon":68.426888},"country":"AF","name":"Ghazni"},{"_id":1447259,"coord":{"lat":33.553059,"lon":68.426109},"country":"AF","name":"Jam‘eh ‘Olyā"},{"_id":1147290,"coord":{"lat":36.756351,"lon":66.897202},"country":"AF","name":"Balkh"},{"_id":1129070,"coord":{"lat":36.7201,"lon":67.19574},"country":"AF","name":"Qizilābād"},{"_id":1467993,"coord":{"lat":36.657059,"lon":68.892883},"country":"AF","name":"Qarah Qishlāq"},{"_id":1129867,"coord":{"lat":34.98735,"lon":63.12891},"country":"AF","name":"Qala i Naw"},{"_id":1423722,"coord":{"lat":35.93589,"lon":64.7761},"country":"AF","name":"Khwājah Paytāgh"},{"_id":1129154,"coord":{"lat":31.537979,"lon":65.845009},"country":"AF","name":"Kaze Karez"},{"_id":1473022,"coord":{"lat":34.414822,"lon":70.491814},"country":"AF","name":"Nahr-e Shāhī"},{"_id":1140605,"coord":{"lat":34.212231,"lon":62.212349},"country":"AF","name":"Guzarah"},{"_id":1136354,"coord":{"lat":37.889648,"lon":70.21875},"country":"AF","name":"Deh Khwahan"},{"_id":1438158,"coord":{"lat":33.628132,"lon":69.252777},"country":"AF","name":"Mīānūr Kalā"},{"_id":1447263,"coord":{"lat":33.53722,"lon":68.427498},"country":"AF","name":"Qal‘ah-ye ‘Abd ul Aḩmad Khān"},{"_id":1447254,"coord":{"lat":33.53833,"lon":68.416389},"country":"AF","name":"Kala-Navi-Sarm-Reg"},{"_id":1146727,"coord":{"lat":37.132938,"lon":70.512398},"country":"AF","name":"Bāī Mālasī"},{"_id":1428258,"coord":{"lat":32.374889,"lon":62.152641},"country":"AF","name":"Kalayi-Gulyamsheykhi"},{"_id":1457317,"coord":{"lat":34.8125,"lon":67.821671},"country":"AF","name":"Sar Āsyāb"},{"_id":1125444,"coord":{"lat":36.667568,"lon":65.752899},"country":"AF","name":"Shibirghan"},{"_id":1125896,"coord":{"lat":34.10738,"lon":64.305199},"country":"AF","name":"Shahrak"},{"_id":1127106,"coord":{"lat":35.833328,"lon":66.166672},"country":"AF","name":"Wilāyat-e Sar-e Pul"},{"_id":1127110,"coord":{"lat":36.215439,"lon":65.932487},"country":"AF","name":"Sar-e Pul"},{"_id":1127628,"coord":{"lat":35.84972,"lon":66.436943},"country":"AF","name":"Sang-e Charak"},{"_id":1127768,"coord":{"lat":36.264679,"lon":68.015511},"country":"AF","name":"Aibak"},{"_id":1128265,"coord":{"lat":37.126041,"lon":69.830452},"country":"AF","name":"Rustaq"},{"_id":1129516,"coord":{"lat":37.41853,"lon":66.043579},"country":"AF","name":"Qarqin"},{"_id":1129648,"coord":{"lat":37.220188,"lon":68.780411},"country":"AF","name":"Qarawul"},{"_id":1130490,"coord":{"lat":35.94458,"lon":68.715118},"country":"AF","name":"Pul-e Khumri"},{"_id":1131316,"coord":{"lat":34.587502,"lon":68.953331},"country":"AF","name":"Paghman"},{"_id":1132495,"coord":{"lat":36.064899,"lon":69.13343},"country":"AF","name":"Nahrin"},{"_id":1133574,"coord":{"lat":34.671391,"lon":70.209442},"country":"AF","name":"Mehtar Lam"},{"_id":1133616,"coord":{"lat":36.709042,"lon":67.11087},"country":"AF","name":"Mazar-e Sharif"},{"_id":1136469,"coord":{"lat":33.339512,"lon":69.92041},"country":"AF","name":"Khost"},{"_id":1136575,"coord":{"lat":36.697361,"lon":67.698257},"country":"AF","name":"Khulm"},{"_id":1131821,"coord":{"lat":31,"lon":62.5},"country":"AF","name":"Wilāyat-e Nīmrōz"},{"_id":1136863,"coord":{"lat":31.52919,"lon":62.79055},"country":"AF","name":"Khash"},{"_id":1137168,"coord":{"lat":36.682499,"lon":69.115562},"country":"AF","name":"Khanabad"},{"_id":1137807,"coord":{"lat":34.481079,"lon":62.5863},"country":"AF","name":"Karukh"},{"_id":1139807,"coord":{"lat":35.118328,"lon":69.237778},"country":"AF","name":"Jabal os Saraj"},{"_id":1141089,"coord":{"lat":35.730621,"lon":63.782639},"country":"AF","name":"Ghormach"},{"_id":1141540,"coord":{"lat":31.82089,"lon":64.570053},"country":"AF","name":"Gereshk"},{"_id":1142170,"coord":{"lat":37.116638,"lon":70.580017},"country":"AF","name":"Fayzabad"},{"_id":1142264,"coord":{"lat":32.374512,"lon":62.116379},"country":"AF","name":"Farah"},{"_id":1142404,"coord":{"lat":34.666672,"lon":61.066669},"country":"AF","name":"Kafir Qala"},{"_id":1147066,"coord":{"lat":33.967499,"lon":68.948608},"country":"AF","name":"Baraki Barak"},{"_id":1148106,"coord":{"lat":37.085709,"lon":69.479584},"country":"AF","name":"Art Khwajah"},{"_id":1148205,"coord":{"lat":35.033329,"lon":71.358093},"country":"AF","name":"Asmar"},{"_id":1148311,"coord":{"lat":34.873112,"lon":71.146973},"country":"AF","name":"Asadabad"},{"_id":1469706,"coord":{"lat":34.125832,"lon":70.707779},"country":"AF","name":"Markaz-e Woluswali-ye Achin"},{"_id":1131461,"coord":{"lat":32.833328,"lon":66},"country":"AF","name":"Wilāyat-e Uruzgān"},{"_id":1438738,"coord":{"lat":