{"countryCityList":[{"_id":2784549,"coord":{"lat":50.738628,"lon":5.7019},"country":"BE","name":"Visé"},{"_id":2793079,"coord":{"lat":50.962582,"lon":3.94544},"country":"BE","name":"Lede"},{"_id":2795101,"coord":{"lat":50.85704,"lon":2.86733},"country":"BE","name":"Ieper"},{"_id":2787891,"coord":{"lat":50.950001,"lon":3.13333},"country":"BE","name":"Roeselare"},{"_id":2788507,"coord":{"lat":51.075001,"lon":4.28999},"country":"BE","name":"Puurs"},{"_id":2787814,"coord":{"lat":50.98872,"lon":4.89558},"country":"BE","name":"Rommelaar"},{"_id":2784199,"coord":{"lat":50.414879,"lon":6.11207},"country":"BE","name":"Waimes"},{"_id":2784107,"coord":{"lat":50.480228,"lon":4.52019},"country":"BE","name":"Wangenies"},{"_id":2785110,"coord":{"lat":50.966671,"lon":3.96667},"country":"BE","name":"Uilenhoek"},{"_id":2801423,"coord":{"lat":51.066669,"lon":4.71667},"country":"BE","name":"Bos"},{"_id":2788313,"coord":{"lat":51.37199,"lon":4.99037},"country":"BE","name":"Ravels"},{"_id":2786459,"coord":{"lat":50.883331,"lon":3.41667},"country":"BE","name":"Smoorken"},{"_id":2800482,"coord":{"lat":50.412998,"lon":4.44654},"country":"BE","name":"Charleroi"},{"_id":2786421,"coord":{"lat":50.56358,"lon":4.04431},"country":"BE","name":"Soignies"},{"_id":2784803,"coord":{"lat":51.05558,"lon":2.6706},"country":"BE","name":"Arrondissement Veurne"},{"_id":2784805,"coord":{"lat":51.052021,"lon":2.67484},"country":"BE","name":"Veurne"},{"_id":2784804,"coord":{"lat":51.072311,"lon":2.66238},"country":"BE","name":"Veurne"},{"_id":2792412,"coord":{"lat":50.633781,"lon":5.56509},"country":"BE","name":"Arrondissement de Liège"},{"_id":2792414,"coord":{"lat":50.633331,"lon":5.56667},"country":"BE","name":"Liège"},{"_id":2793643,"coord":{"lat":50.466671,"lon":4.41667},"country":"BE","name":"La Ferté"},{"_id":2800930,"coord":{"lat":51.200001,"lon":3.21667},"country":"BE","name":"Arrondissement Brugge"},{"_id":2800935,"coord":{"lat":51.25,"lon":3.21667},"country":"BE","name":"Brugge"},{"_id":2803444,"coord":{"lat":51.083328,"lon":3.43333},"country":"BE","name":"Aalter"},{"_id":2791316,"coord":{"lat":50.972641,"lon":3.74366},"country":"BE","name":"Merelbeke"},{"_id":2790100,"coord":{"lat":50.599998,"lon":4.31667},"country":"BE","name":"Arrondissement de Nivelles"},{"_id":2790102,"coord":{"lat":50.59877,"lon":4.32733},"country":"BE","name":"Nivelles"},{"_id":2797671,"coord":{"lat":50.966671,"lon":5.5},"country":"BE","name":"Genk"},{"_id":2789200,"coord":{"lat":51.037788,"lon":4.47549},"country":"BE","name":"Pennepoel"},{"_id":2784975,"coord":{"lat":50.833328,"lon":4.3},"country":"BE","name":"Veeweide"},{"_id":2794017,"coord":{"lat":50.861992,"lon":4.47178},"country":"BE","name":"Kraainem"},{"_id":2794016,"coord":{"lat":50.861549,"lon":4.46946},"country":"BE","name":"Kraainem"},{"_id":2784822,"coord":{"lat":50.583328,"lon":5.86667},"country":"BE","name":"Verviers"},{"_id":2789738,"coord":{"lat":50.929611,"lon":3.34003},"country":"BE","name":"Oostrozebeke"},{"_id":2803421,"coord":{"lat":51.135422,"lon":4.38269},"country":"BE","name":"Aartselaar"},{"_id":2800782,"coord":{"lat":50.40731,"lon":6.25749},"country":"BE","name":"Bullange"},{"_id":2795011,"coord":{"lat":50.833328,"lon":4.36667},"country":"BE","name":"Ixelles"},{"_id":2793442,"coord":{"lat":50.654629,"lon":5.96455},"country":"BE","name":"Lanceaumont"},{"_id":2785623,"coord":{"lat":50.816669,"lon":4.51667},"country":"BE","name":"Tervuren"},{"_id":2803074,"coord":{"lat":49.683331,"lon":5.81667},"country":"BE","name":"Arlon"},{"_id":2787498,"coord":{"lat":50.616669,"lon":5.93333},"country":"BE","name":"Ruyff"},{"_id":2795931,"coord":{"lat":50.664478,"lon":5.62569},"country":"BE","name":"Herstal"},{"_id":2803183,"coord":{"lat":50.611301,"lon":5.59942},"country":"BE","name":"Angleur"},{"_id":2786548,"coord":{"lat":50.868382,"lon":4.45195},"country":"BE","name":"Sint-Stevens-Woluwe"},{"_id":2783737,"coord":{"lat":50.8395,"lon":4.49427},"country":"BE","name":"Wezembeek-Oppem"},{"_id":2792008,"coord":{"lat":50.988041,"lon":5.1943},"country":"BE","name":"Lummen"},{"_id":2783856,"coord":{"lat":50.908119,"lon":4.30613},"country":"BE","name":"Wemmel"},{"_id":2783213,"coord":{"lat":50.944801,"lon":5.10742},"country":"BE","name":"Zittaard"},{"_id":2802584,"coord":{"lat":50,"lon":5.71667},"country":"BE","name":"Bastogne"},{"_id":2792119,"coord":{"lat":50.681259,"lon":6.00712},"country":"BE","name":"Lontzen"},{"_id":2802627,"coord":{"lat":50.58654,"lon":5.41524},"country":"BE","name":"Basse Awirs"},{"_id":2802051,"coord":{"lat":50.916672,"lon":4.31667},"country":"BE","name":"Bever"},{"_id":2792135,"coord":{"lat":50.48333,"lon":4.2},"country":"BE","name":"Longtain"},{"_id":2790793,"coord":{"lat":50.599998,"lon":3.85},"country":"BE","name":"Montils"},{"_id":2785879,"coord":{"lat":50.38982,"lon":5.93338},"country":"BE","name":"Sur le Stockeu"},{"_id":2784373,"coord":{"lat":50.68745,"lon":5.5544},"country":"BE","name":"Voroux-lez-Liers"},{"_id":2795818,"coord":{"lat":50.342159,"lon":4.25969},"country":"BE","name":"Heulen"},{"_id":2796057,"coord":{"lat":50.433182,"lon":3.68566},"country":"BE","name":"Hensies"},{"_id":2790015,"coord":{"lat":49.771561,"lon":5.78773},"country":"BE","name":"Nothomb"},{"_id":2791643,"coord":{"lat":49.83234,"lon":5.73881},"country":"BE","name":"Martelange"},{"_id":2798594,"coord":{"lat":49.666672,"lon":5.61667},"country":"BE","name":"Étalle"},{"_id":2800026,"coord":{"lat":50.052898,"lon":4.49306},"country":"BE","name":"Couvin"},{"_id":2788187,"coord":{"lat":50.23333,"lon":5.5},"country":"BE","name":"Rendeux"},{"_id":2802248,"coord":{"lat":50.866669,"lon":4.28333},"country":"BE","name":"Sint-Agatha-Berchem"},{"_id":2787601,"coord":{"lat":50.683331,"lon":3.26667},"country":"BE","name":"Royère"},{"_id":6957848,"coord":{"lat":50.583328,"lon":3.76667},"country":"BE","name":"Courtil Gras"},{"_id":2784548,"coord":{"lat":50.737598,"lon":5.69907},"country":"BE","name":"Vise"},{"_id":2785779,"coord":{"lat":51.134541,"lon":4.2085},"country":"BE","name":"Temse"},{"_id":2787769,"coord":{"lat":50.745739,"lon":3.6005},"country":"BE","name":"Ronse"},{"_id":2788499,"coord":{"lat":50.44067,"lon":3.8653},"country":"BE","name":"Quaregnon"},{"_id":2789162,"coord":{"lat":50.50819,"lon":3.59373},"country":"BE","name":"Peruwelz"},{"_id":2789530,"coord":{"lat":50.856701,"lon":3.62474},"country":"BE","name":"Oudenaarde"},{"_id":2791814,"coord":{"lat":50.50312,"lon":4.23589},"country":"BE","name":"Manage"},{"_id":2783278,"coord":{"lat":51.189629,"lon":3.80777},"country":"BE","name":"Zelzate"},{"_id":2783717,"coord":{"lat":50.900002,"lon":3.36667},"country":"BE","name":"Wielsbeke"},{"_id":2784350,"coord":{"lat":51.307442,"lon":4.88806},"country":"BE","name":"Vosselaar"},{"_id":2784349,"coord":{"lat":51.308559,"lon":4.8896},"country":"BE","name":"Vosselaar"},{"_id":2786588,"coord":{"lat":50.808922,"lon":4.16313},"country":"BE","name":"Lennik"},{"_id":2786587,"coord":{"lat":50.811581,"lon":4.16965},"country":"BE","name":"Sint-Martens-Lennik"},{"_id":2789167,"coord":{"lat":50.889141,"lon":3.86098},"country":"BE","name":"Perre"},{"_id":2790179,"coord":{"lat":50.8638,"lon":5.19467},"country":"BE","name":"Nieuwerkerken"},{"_id":2792423,"coord":{"lat":50.868919,"lon":4.08743},"country":"BE","name":"Liedekerke"},{"_id":2793733,"coord":{"lat":50.394779,"lon":4.61444},"country":"BE","name":"La Bruyere"},{"_id":2796085,"coord":{"lat":51.14484,"lon":4.33874},"country":"BE","name":"Hemiksem"},{"_id":2797771,"coord":{"lat":50.669861,"lon":5.17465},"country":"BE","name":"Geer"},{"_id":2799511,"coord":{"lat":51.238548,"lon":5.11448},"country":"BE","name":"Dessel"},{"_id":2799798,"coord":{"lat":50.842621,"lon":3.3651},"country":"BE","name":"Deerlijk"},{"_id":2800591,"coord":{"lat":50.170471,"lon":4.41028},"country":"BE","name":"Cerfontaine"},{"_id":2801438,"coord":{"lat":51.196609,"lon":4.48543},"country":"BE","name":"Borsbeek"},{"_id":2801539,"coord":{"lat":51.02261,"lon":4.54714},"country":"BE","name":"Bonheiden"},{"_id":2802681,"coord":{"lat":50.672798,"lon":5.72396},"country":"BE","name":"Blégny"},{"_id":2802849,"coord":{"lat":50.66774,"lon":5.46329},"country":"BE","name":"Awans"},{"_id":2803323,"coord":{"lat":50.411579,"lon":4.58671},"country":"BE","name":"Aiseau"},{"_id":7667505,"coord":{"lat":51.080669,"lon":5.00556},"country":"BE","name":"Laakdal"},{"_id":2796157,"coord":{"lat":51.338669,"lon":3.23882},"country":"BE","name":"Heist"},{"_id":2801958,"coord":{"lat":50.947128,"lon":4.82351},"country":"BE","name":"Biest"},{"_id":2785140,"coord":{"lat":51.32439,"lon":4.94007},"country":"BE","name":"Arrondissement Turnhout"},{"_id":2798863,"coord":{"lat":51.333328,"lon":4.78333},"country":"BE","name":"Ekstergoor"},{"_id":2802399,"coord":{"lat":51.049999,"lon":3.75},"country":"BE","name":"Begijnhof 's Wijk"},{"_id":2799925,"coord":{"lat":50.833328,"lon":4.33333},"country":"BE","name":"Cureghem"},{"_id":2786419,"coord":{"lat":50.62851,"lon":4.00401},"country":"BE","name":"Arrondissement de Soignies"},{"_id":2783311,"coord":{"lat":50.883221,"lon":4.47504},"country":"BE","name":"Zaventem"},{"_id":2784897,"coord":{"lat":51.46246,"lon":4.45856},"country":"BE","name":"Venitiaanseheide"},{"_id":2800558,"coord":{"lat":50.712978,"lon":4.38582},"country":"BE","name":"Champ de Mai"},{"_id":2784605,"coord":{"lat":50.928902,"lon":4.4323},"country":"BE","name":"Vilvoorde"},{"_id":2789787,"coord":{"lat":50.76667,"lon":3.46667},"country":"BE","name":"Oostende"},{"_id":2785142,"coord":{"lat":51.323101,"lon":4.94831},"country":"BE","name":"Turnhout"},{"_id":2785321,"coord":{"lat":50.633331,"lon":4.01667},"country":"BE","name":"Trahison"},{"_id":2796467,"coord":{"lat":50.73333,"lon":3.21667},"country":"BE","name":"Haureux"},{"_id":2792432,"coord":{"lat":50.80534,"lon":5.20017},"country":"BE","name":"Lichtenberg"},{"_id":2794860,"coord":{"lat":50.4422,"lon":4.43745},"country":"BE","name":"Jumet"},{"_id":2796492,"coord":{"lat":50.93182,"lon":5.33266},"country":"BE","name":"Hasselt"},{"_id":2793107,"coord":{"lat":50.51667,"lon":4.25},"country":"BE","name":"Le Chenia"},{"_id":2794056,"coord":{"lat":50.82811,"lon":3.26459},"country":"BE","name":"Kortrijk"},{"_id":2789882,"coord":{"lat":50.849998,"lon":3.6},"country":"BE","name":"Oliehoek"},{"_id":2790472,"coord":{"lat":50.468208,"lon":4.86729},"country":"BE","name":"Namur"},{"_id":2800783,"coord":{"lat":50.40781,"lon":6.25929},"country":"BE","name":"Bullange"},{"_id":2795012,"coord":{"lat":50.833328,"lon":4.36667},"country":"BE","name":"Elsene"},{"_id":2783160,"coord":{"lat":50.950001,"lon":3.13333},"country":"BE","name":"Zuidhoek"},{"_id":2785662,"coord":{"lat":50.75,"lon":4.35},"country":"BE","name":"Termeulen"},{"_id":2803072,"coord":{"lat":49.68351,"lon":5.81778},"country":"BE","name":"Arrondissement d'Arlon"},{"_id":2791825,"coord":{"lat":50.566669,"lon":4.68333},"country":"BE","name":"Malplaqués"},{"_id":2785762,"coord":{"lat":51.166672,"lon":5.15},"country":"BE","name":"Tenderlo"},{"_id":2786031,"coord":{"lat":50.63155,"lon":6.02961},"country":"BE","name":"Stockem"},{"_id":2783738,"coord":{"lat":50.833328,"lon":4.5},"country":"BE","name":"Wezembeek-Oppem"},{"_id":2787990,"coord":{"lat":50.716671,"lon":4.53333},"country":"BE","name":"Rixensart"},{"_id":2783857,"coord":{"lat":50.916672,"lon":4.3},"country":"BE","name":"Wemmel"},{"_id":2802582,"coord":{"lat":50,"lon":5.71667},"country":"BE","name":"Arrondissement de Bastogne"},{"_id":2792120,"coord":{"lat":50.681561,"lon":6.00729},"country":"BE","name":"Lontzen"},{"_id":2801925,"coord":{"lat":50.872978,"lon":5.51625},"country":"BE","name":"Bilzen"},{"_id":2798204,"coord":{"lat":50.01667,"lon":5.38333},"country":"BE","name":"Fond Saint-Roch"},{"_id":2800936,"coord":{"lat":50.595772,"lon":3.85363},"country":"BE","name":"Brugelette"},{"_id":2790914,"coord":{"lat":51.185749,"lon":5.10066},"country":"BE","name":"Molsveld"},{"_id":2803003,"coord":{"lat":50.417198,"lon":5.37258},"country":"BE","name":"Atrin"},{"_id":2802251,"coord":{"lat":50.790169,"lon":3.51317},"country":"BE","name":"Berchem"},{"_id":2793529,"coord":{"lat":50.395931,"lon":3.86684},"country":"BE","name":"L'aisette"},{"_id":2797926,"coord":{"lat":50.610371,"lon":3.53861},"country":"BE","name":"Froidmanteau"},{"_id":2797481,"coord":{"lat":50.6549,"lon":3.77183},"country":"BE","name":"Goberwelz"},{"_id":2783090,"coord":{"lat":50.78297,"lon":3.37671},"country":"BE","name":"Zwevegem"},{"_id":2783176,"coord":{"lat":50.866219,"lon":3.80897},"country":"BE","name":"Zottegem"},{"_id":2783189,"coord":{"lat":50.99139,"lon":5.37094},"country":"BE","name":"Zonhoven"},{"_id":2783205,"coord":{"lat":51.267502,"lon":4.71262},"country":"BE","name":"Zoersel"},{"_id":2783275,"coord":{"lat":50.983452,"lon":4.45882},"country":"BE","name":"Zemst"},{"_id":2783294,"coord":{"lat":51.067009,"lon":4.03492},"country":"BE","name":"Zele"},{"_id":2783309,"coord":{"lat":51.12616,"lon":3.13719},"country":"BE","name":"Zedelgem"},{"_id":2783417,"coord":{"lat":51.391918,"lon":4.59392},"country":"BE","name":"Wuustwezel"},{"_id":2783633,"coord":{"lat":51.060822,"lon":4.36466},"country":"BE","name":"Willebroek"},{"_id":2783760,"coord":{"lat":50.832458,"lon":3.17178},"country":"BE","name":"Wevelgem"},{"_id":2783764,"coord":{"lat":50.99342,"lon":3.87212},"country":"BE","name":"Wetteren"},{"_id":2783821,"coord":{"lat":50.80798,"lon":3.05762},"country":"BE","name":"Wervik"},{"_id":2783942,"coord":{"lat":50.73333,"lon":4.6},"country":"BE","name":"Wavre"},{"_id":2783986,"coord":{"lat":50.709438,"lon":4.40446},"country":"BE","name":"Waterloo"},{"_id":2784069,"coord":{"lat":50.881062,"lon":3.40259},"country":"BE","name":"Waregem"},{"_id":2784190,"coord":{"lat":50.253899,"lon":4.43521},"country":"BE","name":"Walcourt"},{"_id":2784189,"coord":{"lat":50.254009,"lon":4.43796},"country":"BE","name":"Walcourt"},{"_id":2785170,"coord":{"lat":50.690369,"lon":4.20691},"country":"BE","name":"Tubize"},{"_id":2785365,"coord":{"lat":51.06065,"lon":3.09841},"country":"BE","name":"Torhout"},{"_id":2785471,"coord":{"lat":50.807671,"lon":4.94179},"country":"BE","name":"Tienen"},{"_id":2785478,"coord":{"lat":51.00375,"lon":3.36718},"country":"BE","name":"Tielt"},{"_id":2785613,"coord":{"lat":51.06546,"lon":5.08667},"country":"BE","name":"Tessenderlo"},{"_id":2786577,"coord":{"lat":51.199581,"lon":4.13447},"country":"BE","name":"Arrondissement Sint-Niklaas"},{"_id":2786088,"coord":{"lat":51.21476,"lon":4.03347},"country":"BE","name":"Stekene"},{"_id":2786345,"coord":{"lat":50.615162,"lon":5.74825},"country":"BE","name":"Soumagne"},{"_id":2786546,"coord":{"lat":50.815369,"lon":5.184},"country":"BE","name":"Sint-Truiden"},{"_id":2786560,"coord":{"lat":50.789581,"lon":4.24752},"country":"BE","name":"Sint-Pieters-Leeuw"},{"_id":2786579,"coord":{"lat":51.159969,"lon":4.10893},"country":"BE","name":"Sint-Niklaas"},{"_id":2786695,"coord":{"lat":51.228001,"lon":4.12064},"country":"BE","name":"Sint-Gillis-Waas"},{"_id":2786701,"coord":{"lat":50.745499,"lon":4.375},"country":"BE","name":"Sint-Genesius-Rode"},{"_id":2786825,"coord":{"lat":50.583328,"lon":5.5},"country":"BE","name":"Seraing"},{"_id":2786964,"coord":{"lat":51.253639,"lon":4.50354},"country":"BE","name":"Schoten"},{"_id":2787049,"coord":{"lat":51.24107,"lon":4.5813},"country":"BE","name":"Schilde"},{"_id":2787357,"coord":{"lat":50.62867,"lon":5.53179},"country":"BE","name":"Saint-Nicolas"},{"_id":2787663,"coord":{"lat":50.952641,"lon":4.71889},"country":"BE","name":"Rotselaar"},{"_id":2787770,"coord":{"lat":50.75045,"lon":3.60488},"country":"BE","name":"Ronse"},{"_id":2787888,"coord":{"lat":50.950001,"lon":3.13333},"country":"BE","name":"Arrondissement Roeselare"},{"_id":2788089,"coord":{"lat":50.809841,"lon":5.6044},"country":"BE","name":"Riemst"},{"_id":2788349,"coord":{"lat":51.190048,"lon":4.56774},"country":"BE","name":"Ranst"},{"_id":2788500,"coord":{"lat":50.441711,"lon":3.86702},"country":"BE","name":"Quaregnon"},{"_id":2788523,"coord":{"lat":51.054878,"lon":4.62988},"country":"BE","name":"Putte"},{"_id":2788727,"coord":{"lat":50.854881,"lon":2.6875},"country":"BE","name":"Poperinge"},{"_id":2789163,"coord":{"lat":50.50819,"lon":3.59184},"country":"BE","name":"Péruwelz"},{"_id":2789233,"coord":{"lat":51.131748,"lon":5.45677},"country":"BE","name":"Peer"},{"_id":2789414,"coord":{"lat":50.77512,"lon":4.53718},"country":"BE","name":"Overijse"},{"_id":2789472,"coord":{"lat":50.709991,"lon":5.64491},"country":"BE","name":"Oupeye"},{"_id":2789752,"coord":{"lat":51.11879,"lon":3.23095},"country":"BE","name":"Oostkamp"},{"_id":2790115,"coord":{"lat":50.828449,"lon":4.00465},"country":"BE","name":"Ninove"},{"_id":2790136,"coord":{"lat":51.162708,"lon":4.67091},"country":"BE","name":"Nijlen"},{"_id":2790358,"coord":{"lat":51.228069,"lon":5.44201},"country":"BE","name":"Neerpelt"},{"_id":2790596,"coord":{"lat":50.73333,"lon":3.2},"country":"BE","name":"Arrondissement de Mouscron"},{"_id":2795937,"coord":{"lat":50.73333,"lon":3.21667},"country":"BE","name":"Mouscron"},{"_id":2790677,"coord":{"lat":51.166672,"lon":4.45},"country":"BE","name":"Mortsel"},{"_id":2790871,"coord":{"lat":50.453838,"lon":3.95164},"country":"BE","name":"Mons"},{"_id":2791068,"coord":{"lat":51.192039,"lon":5.11448},"country":"BE","name":"Mol"},{"_id":2791195,"coord":{"lat":51.15583,"lon":2.84175},"country":"BE","name":"Middelkerke"},{"_id":2791425,"coord":{"lat":50.939831,"lon":4.32947},"country":"BE","name":"Meise"},{"_id":2791538,"coord":{"lat":51.02758,"lon":4.48071},"country":"BE","name":"Mechelen"},{"_id":2791744,"coord":{"lat":50.22678,"lon":5.34416},"country":"BE","name":"Marche-en-Famenne"},{"_id":2791815,"coord":{"lat":50.493301,"lon":4.24062},"country":"BE","name":"Manage"},{"_id":2791858,"coord":{"lat":51.201462,"lon":3.44716},"country":"BE","name":"Maldegem"},{"_id":2791965,"coord":{"lat":51.099998,"lon":5.78333},"country":"BE","name":"Maaseik"},{"_id":2792180,"coord":{"lat":51.23172,"lon":5.31103},"country":"BE","name":"Lommel"},{"_id":2792197,"coord":{"lat":51.11544,"lon":3.96304},"country":"BE","name":"Lokeren"},{"_id":2792236,"coord":{"lat":51.106468,"lon":3.8566},"country":"BE","name":"Lochristi"},{"_id":2792361,"coord":{"lat":51.23333,"lon":4.8},"country":"BE","name":"Lille"},{"_id":2792406,"coord":{"lat":51.133331,"lon":4.56667},"country":"BE","name":"Lier"},{"_id":2793145,"coord":{"lat":50.991032,"lon":4.12246},"country":"BE","name":"Lebbeke"},{"_id":2793447,"coord":{"lat":50.89426,"lon":5.65006},"country":"BE","name":"Lanaken"},{"_id":2793509,"coord":{"lat":50.47348,"lon":4.15632},"country":"BE","name":"La Louvière"},{"_id":2794071,"coord":{"lat":50.887009,"lon":4.53976},"country":"BE","name":"Kortenberg"},{"_id":2794118,"coord":{"lat":51.132019,"lon":4.44878},"country":"BE","name":"Kontich"},{"_id":2794167,"coord":{"lat":51.111691,"lon":2.68519},"country":"BE","name":"Koksijde"},{"_id":2794216,"coord":{"lat":51.333328,"lon":3.33333},"country":"BE","name":"Knokke-Heist"},{"_id":2794664,"coord":{"lat":51.24258,"lon":4.96994},"country":"BE","name":"Kasterlee"},{"_id":2794733,"coord":{"lat":51.314629,"lon":4.4383},"country":"BE","name":"Kapellen"},{"_id":2794789,"coord":{"lat":51.38464,"lon":4.47418},"country":"BE","name":"Kalmthout"},{"_id":2795010,"coord":{"lat":50.91996,"lon":3.20863},"country":"BE","name":"Izegem"},{"_id":2795262,"coord":{"lat":51.032001,"lon":5.37755},"country":"BE","name":"Houthalen-Helchteren"},{"_id":2795399,"coord":{"lat":51.402149,"lon":4.7618},"country":"BE","name":"Hoogstraten"},{"_id":2795802,"coord":{"lat":51.03751,"lon":5.29919},"country":"BE","name":"Heusden-Zolder"},{"_id":2795909,"coord":{"lat":50.869709,"lon":3.8931},"country":"BE","name":"Herzele"},{"_id":2796010,"coord":{"lat":51.176441,"lon":4.82763},"country":"BE","name":"Herentals"},{"_id":2796013,"coord":{"lat":50.90823,"lon":4.66833},"country":"BE","name":"Herent"},{"_id":2796154,"coord":{"lat":51.076141,"lon":4.72446},"country":"BE","name":"Heist-op-den-Berg"},{"_id":2796543,"coord":{"lat":50.864849,"lon":3.31078},"country":"BE","name":"Harelbeke"},{"_id":2796640,"coord":{"lat":51.08445,"lon":4.13538},"country":"BE","name":"Hamme"},{"_id":2796834,"coord":{"lat":50.88525,"lon":3.99092},"country":"BE","name":"Haaltert"},{"_id":2797115,"coord":{"lat":50.933331,"lon":4.36667},"country":"BE","name":"Grimbergen"},{"_id":2797780,"coord":{"lat":51.1661,"lon":4.99191},"country":"BE","name":"Geel"},{"_id":2798302,"coord":{"lat":50.615108,"lon":5.68139},"country":"BE","name":"Fléron"},{"_id":2798307,"coord":{"lat":50.599941,"lon":5.44471},"country":"BE","name":"Flemalle-Haute"},{"_id":2798553,"coord":{"lat":51.145519,"lon":3.7118},"country":"BE","name":"Evergem"},{"_id":2798574,"coord":{"lat":50.629539,"lon":6.03819},"country":"BE","name":"Eupen"},{"_id":2798616,"coord":{"lat":51.462238,"lon":4.45633},"country":"BE","name":"Essen"},{"_id":2799008,"coord":{"lat":51.1562,"lon":4.44654},"country":"BE","name":"Edegem"},{"_id":2799091,"coord":{"lat":51.09576,"lon":4.51178},"country":"BE","name":"Duffel"},{"_id":2799366,"coord":{"lat":50.849998,"lon":4.26667},"country":"BE","name":"Dilbeek"},{"_id":2799368,"coord":{"lat":51.033329,"lon":2.86667},"country":"BE","name":"Arrondissement Diksmuide"},{"_id":2799370,"coord":{"lat":51.033329,"lon":2.86667},"country":"BE","name":"Diksmuide"},{"_id":2799398,"coord":{"lat":50.98333,"lon":5.05},"country":"BE","name":"Diest"},{"_id":2799413,"coord":{"lat":50.907799,"lon":5.4221},"country":"BE","name":"Diepenbeek"},{"_id":2799497,"coord":{"lat":51.040218,"lon":3.81058},"country":"BE","name":"Destelbergen"},{"_id":2799648,"coord":{"lat":50.887531,"lon":4.05929},"country":"BE","name":"Denderleeuw"},{"_id":2801107,"coord":{"lat":51.349998,"lon":4.63333},"country":"BE","name":"Brecht"},{"_id":2801118,"coord":{"lat":51.291451,"lon":4.49495},"country":"BE","name":"Brasschaat"},{"_id":2801151,"coord":{"lat":50.60817,"lon":4.14344},"country":"BE","name":"Braine-le-Comte"},{"_id":2801448,"coord":{"lat":51.09705,"lon":4.24192},"country":"BE","name":"Bornem"},{"_id":2801495,"coord":{"lat":51.093281,"lon":4.37153},"country":"BE","name":"Boom"},{"_id":2802035,"coord":{"lat":51.255939,"lon":4.23708},"country":"BE","name":"Beveren"},{"_id":2802172,"coord":{"lat":51.050678,"lon":5.2216},"country":"BE","name":"Beringen"},{"_id":2802436,"coord":{"lat":51.320641,"lon":4.85596},"country":"BE","name":"Beerse"},{"_id":2802744,"coord":{"lat":51.168419,"lon":5.17173},"country":"BE","name":"Balen"},{"_id":2803011,"coord":{"lat":50.628288,"lon":3.77938},"country":"BE","name":"Ath"},{"_id":2803161,"coord":{"lat":50.662361,"lon":5.51908},"country":"BE","name":"Ans"},{"_id":2803451,"coord":{"lat":50.943321,"lon":4.07351},"country":"BE","name":"Aalst"},{"_id":2786391,"coord":{"lat":50.528648,"lon":4.59838},"country":"BE","name":"Sombreffe"},{"_id":2787313,"coord":{"lat":50.743351,"lon":2.90992},"country":"BE","name":"Saint-Yvon"},{"_id":2790225,"coord":{"lat":51.110958,"lon":4.33428},"country":"BE","name":"Niel"},{"_id":2793070,"coord":{"lat":51.038589,"lon":3.74458},"country":"BE","name":"Ledeberg"},{"_id":2793072,"coord":{"lat":50.843559,"lon":4.09112},"country":"BE","name":"Ledeberg"},{"_id":2799512,"coord":{"lat":51.240162,"lon":5.11448},"country":"BE","name":"Dessel"},{"_id":2800883,"coord":{"lat":50.505241,"lon":4.43209},"country":"BE","name":"Brunehault"},{"_id":2802610,"coord":{"lat":50.69503,"lon":4.49218},"country":"BE","name":"Basse Lasne"},{"_id":2802851,"coord":{"lat":50.666672,"lon":5.46667},"country":"BE","name":"Awans"},{"_id":2803286,"coord":{"lat":50.875092,"lon":5.30708},"country":"BE","name":"Alken"},{"_id":2803285,"coord":{"lat":50.875519,"lon":5.30558},"country":"BE","name":"Alken"},{"_id":2802361,"coord":{"lat":50.833328,"lon":4},"country":"BE","name":"Kingdom of Belgium"},{"_id":3337387,"coord":{"lat":50.5,"lon":4.75},"country":"BE","name":"Walloon Region"},{"_id":2791993,"coord":{"lat":50,"lon":5.5},"country":"BE","name":"Province du Luxembourg"},{"_id":2800038,"coord":{"lat":50.01667,"lon":5.23333},"country":"BE","name":"Coutelle"},{"_id":2796741,"coord":{"lat":50.5,"lon":3.83333},"country":"BE","name":"Province du Hainaut"},{"_id":2792460,"coord":{"lat":50.116669,"lon":4.36667},"country":"BE","name":"Le Walestru Septentrional"},{"_id":2792411,"coord":{"lat":50.63427,"lon":5.56543},"country":"BE","name":"Province de Liège"},{"_id":2792103,"coord":{"lat":50.283329,"lon":6.11667},"country":"BE","name":"Lorentswaldchen"},{"_id":2801791,"coord":{"lat":50.277321,"lon":5.54809},"country":"BE","name":"Blier"},{"_id":2790469,"coord":{"lat":50.333328,"lon":4.83333},"country":"BE","name":"Province de Namur"},{"_id":2799421,"coord":{"lat":50.454102,"lon":4.45426},"country":"BE","name":"Diarbois"},{"_id":2790470,"coord":{"lat":50.468651,"lon":4.86591},"country":"BE","name":"Arrondissement de Namur"},{"_id":2802903,"coord":{"lat":50.434662,"lon":4.63383},"country":"BE","name":"Sambreville"},{"_id":2794480,"coord":{"lat":50.461769,"lon":4.58233},"country":"BE","name":"Keumiée"},{"_id":2784730,"coord":{"lat":50.466671,"lon":5.11667},"country":"BE","name":"Vieux Tauve"},{"_id":2784820,"coord":{"lat":50.583889,"lon":5.86481},"country":"BE","name":"Arrondissement de Verviers"},{"_id":2784200,"coord":{"lat":50.416672,"lon":6.11667},"country":"BE","name":"Waimes"},{"_id":2786340,"coord":{"lat":50.479191,"lon":6.11166},"country":"BE","name":"Sourbrodt"},{"_id":2787803,"coord":{"lat":50.534771,"lon":4.30321},"country":"BE","name":"Ronce"},{"_id":2801652,"coord":{"lat":50.52457,"lon":4.3059},"country":"BE","name":"Bois de Nauwe"},{"_id":6957847,"coord":{"lat":50.549999,"lon":3.43333},"country":"BE","name":"Crèvecoeur"},{"_id":2791291,"coord":{"lat":50.553928,"lon":3.40121},"country":"BE","name":"Merlin"},{"_id":2785908,"coord":{"lat":50.56329,"lon":5.59659},"country":"BE","name":"Cortil"},{"_id":2799866,"coord":{"lat":50.566669,"lon":4.23333},"country":"BE","name":"Daublain"},{"_id":3337388,"coord":{"lat":51,"lon":4.5},"country":"BE","name":"Flemish Region"},{"_id":2783770,"coord":{"lat":51,"lon":3},"country":"BE","name":"Provincie West-Vlaanderen"},{"_id":2788695,"coord":{"lat":50.864361,"lon":3.43606},"country":"BE","name":"Potegem"},{"_id":2799867,"coord":{"lat":51.016338,"lon":5.04691},"country":"BE","name":"Dassenaarde"},{"_id":2792347,"coord":{"lat":51,"lon":5.5},"country":"BE","name":"Provincie Limburg"},{"_id":2797778,"coord":{"lat":51.008549,"lon":5.33013},"country":"BE","name":"Geelberg"},{"_id":2789889,"coord":{"lat":51.034489,"lon":5.01183},"country":"BE","name":"Okselaar"},{"_id":2796818,"coord":{"lat":51.083328,"lon":3.16667},"country":"BE","name":"Haaselbeekstraat"},{"_id":2796488,"coord":{"lat":50.93095,"lon":5.33438},"country":"BE","name":"Arrondissement Hasselt"},{"_id":2792857,"coord":{"lat":51.116669,"lon":5.25},"country":"BE","name":"Leopoldsburg"},{"_id":2792856,"coord":{"lat":51.116669,"lon":5.25},"country":"BE","name":"Leopoldsburg"},{"_id":2797686,"coord":{"lat":51.103699,"lon":5.14128},"country":"BE","name":"Genenbemd"},{"_id":2789733,"coord":{"lat":51,"lon":3.75},"country":"BE","name":"Provincie Oost-Vlaanderen"},{"_id":2784323,"coord":{"lat":51.119438,"lon":3.48119},"country":"BE","name":"Vrechem"},{"_id":2798648,"coord":{"lat":51.190239,"lon":4.29444},"country":"BE","name":"Es"},{"_id":2803136,"coord":{"lat":51.166672,"lon":4.83333},"country":"BE","name":"Provincie Antwerpen"},{"_id":2785670,"coord":{"lat":51.25,"lon":5},"country":"BE","name":"Terlo"},{"_id":2792243,"coord":{"lat":50.383331,"lon":5.28333},"country":"BE","name":"L'Obélisque"},{"_id":2791836,"coord":{"lat":49.897228,"lon":5.69962},"country":"BE","name":"Malmaison"},{"_id":2794054,"coord":{"lat":50.82098,"lon":3.30993},"country":"BE","name":"Arrondissement Kortrijk"},{"_id":2783082,"coord":{"lat":51.221939,"lon":4.3257},"country":"BE","name":"Zwijndrecht"},{"_id":2790212,"coord":{"lat":50.960701,"lon":5.48132},"country":"BE","name":"Nieuwdak"},{"_id":2794634,"coord":{"lat":50.654789,"lon":5.99244},"country":"BE","name":"Kaulen"},{"_id":2800480,"coord":{"lat":50.413658,"lon":4.44534},"country":"BE","name":"Arrondissement de Charleroi"},{"_id":2798298,"coord":{"lat":50.484268,"lon":4.55177},"country":"BE","name":"Fleurus"},{"_id":2801463,"coord":{"lat":51.26667,"lon":4.78333},"country":"BE","name":"Borgt Driesen"},{"_id":2795774,"coord":{"lat":50.883331,"lon":4.33333},"country":"BE","name":"Heisel"},{"_id":2802872,"coord":{"lat":50.7812,"lon":3.46012},"country":"BE","name":"Avelgem"},{"_id":2801348,"coord":{"lat":50.748508,"lon":3.40822},"country":"BE","name":"Bossuit"},{"_id":2789429,"coord":{"lat":50.950001,"lon":5.31667},"country":"BE","name":"Over den Demer"},{"_id":2793861,"coord":{"lat":50.928581,"lon":4.52978},"country":"BE","name":"Kutsegem"},{"_id":2802464,"coord":{"lat":51.137501,"lon":4.48355},"country":"BE","name":"Beekhoek"},{"_id":2799644,"coord":{"lat":51.033329,"lon":4.08333},"country":"BE","name":"Arrondissement Dendermonde"},{"_id":2800817,"coord":{"lat":51.012691,"lon":4.19943},"country":"BE","name":"Buggenhout"},{"_id":2800816,"coord":{"lat":51.0159,"lon":4.20173},"country":"BE","name":"Buggenhout"},{"_id":3333250,"coord":{"lat":50.916672,"lon":4.58333},"country":"BE","name":"Provincie Vlaams-Brabant"},{"_id":2784398,"coord":{"lat":51.334881,"lon":5.09509},"country":"BE","name":"Voorheide"},{"_id":2788724,"coord":{"lat":51.445648,"lon":5.0433},"country":"BE","name":"Poppel"},{"_id":2789594,"coord":{"lat":50.2738,"lon":5.65672},"country":"BE","name":"Oster"},{"_id":2791536,"coord":{"lat":51.028332,"lon":4.48259},"country":"BE","name":"Arrondissement Mechelen"},{"_id":2786642,"coord":{"lat":51.066669,"lon":4.53333},"country":"BE","name":"Sint-Katelijne-Waver"},{"_id":2789821,"coord":{"lat":51.062649,"lon":4.57941},"country":"BE","name":"Onze-Lieve-Vrouw-Waver"},{"_id":2792481,"coord":{"lat":50.880291,"lon":4.70472},"country":"BE","name":"Arrondissement Leuven"},{"_id":2783612,"coord":{"lat":50.89188,"lon":4.69769},"country":"BE","name":"Wilsele"},{"_id":2800867,"coord":{"lat":50.853321,"lon":4.35144},"country":"BE","name":"Bruxelles-Capitale"},{"_id":6693370,"coord":{"lat":50.84877,"lon":4.34664},"country":"BE","name":"(Bruxelles-Capitale)"},{"_id":2794723,"coord":{"lat":50.845921,"lon":4.45088},"country":"BE","name":"Kapelleveld"},{"_id":2793880,"coord":{"lat":51.083328,"lon":4.48333},"country":"BE","name":"Kruisweg"},{"_id":2789223,"coord":{"lat":51.077911,"lon":3.27798},"country":"BE","name":"Peerstalle"},{"_id":2799324,"coord":{"lat":50.614399,"lon":5.94944},"country":"BE","name":"Dolhain"},{"_id":2791495,"coord":{"lat":51.133331,"lon":5.08333},"country":"BE","name":"Meerhout"},{"_id":2791494,"coord":{"lat":51.132099,"lon":5.07842},"country":"BE","name":"Meerhout"},{"_id":2803137,"coord":{"lat":51.216671,"lon":4.41667},"country":"BE","name":"Arrondissement Antwerpen"},{"_id":2803139,"coord":{"lat":51.216671,"lon":4.41667},"country":"BE","name":"Antwerpen"},{"_id":2798873,"coord":{"lat":51.280869,"lon":4.41813},"country":"BE","name":"Ekeren"},{"_id":2795099,"coord":{"lat":50.849998,"lon":2.86667},"country":"BE","name":"Arrondissement Ieper"},{"_id":2791285,"coord":{"lat":50.759972,"lon":2.90057},"country":"BE","name":"Mesen"},{"_id":2792198,"coord":{"lat":50.781658,"lon":2.77234},"country":"BE","name":"Loker"},{"_id":2796698,"coord":{"lat":50.73333,"lon":4.23333},"country":"BE","name":"Arrondissement Halle-Vilvoorde"},{"_id":2792166,"coord":{"lat":51.008251,"lon":4.30304},"country":"BE","name":"Londerzeel"},{"_id":2792165,"coord":{"lat":51.004681,"lon":4.30304},"country":"BE","name":"Londerzeel"},{"_id":2789244,"coord":{"lat":51.216671,"lon":4.28333},"country":"BE","name":"Pauwstraat"},{"_id":2795474,"coord":{"lat":50.683331,"lon":6.13333},"country":"BE","name":"Honien Platz"},{"_id":2792483,"coord":{"lat":50.879669,"lon":4.70078},"country":"BE","name":"Leuven"},{"_id":2792482,"coord":{"lat":50.879589,"lon":4.70093},"country":"BE","name":"Leuven"},{"_id":2799880,"coord":{"lat":50.417049,"lon":4.43092},"country":"BE","name":"Dampremy"},{"_id":2784877,"coord":{"lat":51.216671,"lon":4.33333},"country":"BE","name":"Verbrandendijk"},{"_id":2797655,"coord":{"lat":51.049091,"lon":3.6884},"country":"BE","name":"Arrondissement Gent"},{"_id":2797657,"coord":{"lat":51.07304,"lon":3.73664},"country":"BE","name":"Gent"},{"_id":2797656,"coord":{"lat":51.049999,"lon":3.71667},"country":"BE","name":"Gent"},{"_id":2786420,"coord":{"lat":50.579041,"lon":4.07129},"country":"BE","name":"Soignies"},{"_id":2783310,"coord":{"lat":50.883652,"lon":4.47298},"country":"BE","name":"Zaventem"},{"_id":2803138,"coord":{"lat":51.219891,"lon":4.40346},"country":"BE","name":"Antwerpen"},{"_id":3333251,"coord":{"lat":50.75,"lon":4.58333},"country":"BE","name":"Province du Brabant Wallon"},{"_id":2792413,"coord":{"lat":50.633732,"lon":5.56749},"country":"BE","name":"Liege"},{"_id":2800865,"coord":{"lat":50.849998,"lon":4.35},"country":"BE","name":"Arrondissement Brussel"},{"_id":2798555,"coord":{"lat":50.866669,"lon":4.4},"country":"BE","name":"Evere"},{"_id":2798554,"coord":{"lat":50.874409,"lon":4.39905},"country":"BE","name":"Evere"},{"_id":2786661,"coord":{"lat":50.932789,"lon":4.02939},"country":"BE","name":"Sint-Job"},{"_id":6957825,"coord":{"lat":50.450001,"lon":3.91667},"country":"BE","name":"Grands Prés"},{"_id":2792568,"coord":{"lat":50.714279,"lon":3.83231},"country":"BE","name":"Lessines"},{"_id":2792567,"coord":{"lat":50.71104,"lon":3.83579},"country":"BE","name":"Lessines"},{"_id":2784604,"coord":{"lat":50.928139,"lon":4.42938},"country":"BE","name":"Vilvoorde"},{"_id":2800931,"coord":{"lat":51.20892,"lon":3.22424},"country":"BE","name":"Brugge"},{"_id":2785141,"coord":{"lat":51.32254,"lon":4.94471},"country":"BE","name":"Turnhout"},{"_id":2803443,"coord":{"lat":51.090172,"lon":3.44693},"country":"BE","name":"Aalter"},{"_id":2791315,"coord":{"lat":50.994469,"lon":3.74621},"country":"BE","name":"Merelbeke"},{"_id":2790101,"coord":{"lat":50.598331,"lon":4.32848},"country":"BE","name":"Nivelles"},{"_id":2797670,"coord":{"lat":50.965,"lon":5.50082},"country":"BE","name":"Genk"},{"_id":2796491,"coord":{"lat":50.931061,"lon":5.33781},"country":"BE","name":"Hasselt"},{"_id":2784935,"coord":{"lat":50.93869,"lon":4.38509},"country":"BE","name":"Veldkant"},{"_id":2787025,"coord":{"lat":51.133331,"lon":4.21667},"country":"BE","name":"Schoenstraat"},{"_id":2803430,"coord":{"lat":50.987499,"lon":4.8333},"country":"BE","name":"Aarschot"},{"_id":2803429,"coord":{"lat":50.987148,"lon":4.83695},"country":"BE","name":"Aarschot"},{"_id":2794055,"coord":{"lat":50.82803,"lon":3.26487},"country":"BE","name":"Kortrijk"},{"_id":2784821,"coord":{"lat":50.589069,"lon":5.86241},"country":"BE","name":"Verviers"},{"_id":2785475,"coord":{"lat":51,"lon":3.31667},"country":"BE","name":"Arrondissement Tielt"},{"_id":2789737,"coord":{"lat":50.920929,"lon":3.33799},"country":"BE","name":"Oostrozebeke"},{"_id":2790471,"coord":{"lat":50.4669,"lon":4.86746},"country":"BE","name":"Namur"},{"_id":2803420,"coord":{"lat":51.134121,"lon":4.38678},"country":"BE","name":"Aartselaar"},{"_id":2793549,"coord":{"lat":50.731781,"lon":4.48191},"country":"BE","name":"La Hulpe"},{"_id":2793548,"coord":{"lat":50.730911,"lon":4.48577},"country":"BE","name":"La Hulpe"},{"_id":2796697,"coord":{"lat":51.24118,"lon":4.64636},"country":"BE","name":"Halle"},{"_id":2796696,"coord":{"lat":50.733849,"lon":4.23454},"country":"BE","name":"Halle"},{"_id":2792907,"coord":{"lat":50.600842,"lon":5.49188},"country":"BE","name":"Le Many"},{"_id":2797862,"coord":{"lat":50.706989,"lon":4.04485},"country":"BE","name":"Galgendries"},{"_id":2800439,"coord":{"lat":50.583328,"lon":5.63333},"country":"BE","name":"Chaudfontaine"},{"_id":2800438,"coord":{"lat":50.582802,"lon":5.6341},"country":"BE","name":"Chaudfontaine"},{"_id":2791062,"coord":{"lat":51.166672,"lon":4.13333},"country":"BE","name":"Moleken"},{"_id":2798986,"coord":{"lat":51.23106,"lon":3.60952},"country":"BE","name":"Arrondissement Eeklo"},{"_id":2798988,"coord":{"lat":51.19389,"lon":3.56383},"country":"BE","name":"Eeklo"},{"_id":2798987,"coord":{"lat":51.187031,"lon":3.55654},"country":"BE","name":"Eeklo"},{"_id":2794086,"coord":{"lat":50.76667,"lon":3},"country":"BE","name":"Korentje"},{"_id":2786259,"coord":{"lat":50.973701,"lon":3.58799},"country":"BE","name":"Spleet"},{"_id":2785340,"coord":{"lat":50.62463,"lon":3.44815},"country":"BE","name":"Arrondissement de Tournai"},{"_id":2785342,"coord":{"lat":50.618389,"lon":3.41943},"country":"BE","name":"Tournai"},{"_id":2785341,"coord":{"lat":50.607151,"lon":3.38932},"country":"BE","name":"Tournai"},{"_id":2785622,"coord":{"lat":50.823719,"lon":4.51418},"country":"BE","name":"Tervuren"},{"_id":2803073,"coord":{"lat":49.683331,"lon":5.81667},"country":"BE","name":"Arlon"},{"_id":2794479,"coord":{"lat":51.033161,"lon":4.1129},"country":"BE","name":"Keur"},{"_id":2788124,"coord":{"lat":50.759369,"lon":4.53135},"country":"BE","name":"Reutenbeek"},{"_id":2790506,"coord":{"lat":50.683331,"lon":4.2},"country":"BE","name":"Naarmonts"},{"_id":2799747,"coord":{"lat":50.999111,"lon":3.51462},"country":"BE","name":"Deinze"},{"_id":2799746,"coord":{"lat":50.98175,"lon":3.53096},"country":"BE","name":"Deinze"},{"_id":2795930,"coord":{"lat":50.66415,"lon":5.62346},"country":"BE","name":"Herstal"},{"_id":2799367,"coord":{"lat":50.849998,"lon":2.88333},"country":"BE","name":"Diksmuidsepoort"},{"_id":2791344,"coord":{"lat":50.78944,"lon":3.15482},"country":"BE","name":"Menen"},{"_id":2791343,"coord":{"lat":50.797218,"lon":3.12245},"country":"BE","name":"Menen"},{"_id":2790817,"coord":{"lat":50.533329,"lon":5.21667},"country":"BE","name":"Mont Falize"},{"_id":2783802,"coord":{"lat":51.08778,"lon":4.9157},"country":"BE","name":"Westerlo"},{"_id":2783801,"coord":{"lat":51.090488,"lon":4.91544},"country":"BE","name":"Westerlo"},{"_id":2792007,"coord":{"lat":50.98772,"lon":5.19121},"country":"BE","name":"Lummen"},{"_id":2785388,"coord":{"lat":50.782822,"lon":5.4657},"country":"BE","name":"Arrondissement Tongeren"},{"_id":2785390,"coord":{"lat":50.780651,"lon":5.46227},"country":"BE","name":"Tongeren"},{"_id":2785389,"coord":{"lat":50.78054,"lon":5.46484},"country":"BE","name":"Tongeren"},{"_id":2787989,"coord":{"lat":50.712292,"lon":4.52529},"country":"BE","name":"Rixensart"},{"_id":2797109,"coord":{"lat":50.803108,"lon":4.95672},"country":"BE","name":"Grimde"},{"_id":2784720,"coord":{"lat":50.866669,"lon":4.08333},"country":"BE","name":"Vijfhoek"},{"_id":2803084,"coord":{"lat":51.322239,"lon":5.07826},"country":"BE","name":"Arendonk"},{"_id":2803083,"coord":{"lat":51.32267,"lon":5.08289},"country":"BE","name":"Arendonk"},{"_id":2800431,"coord":{"lat":50.683331,"lon":4.71667},"country":"BE","name":"Chaumont-Gistoux"},{"_id":2800430,"coord":{"lat":50.677528,"lon":4.7212},"country":"BE","name":"Chaumont-Gistoux"},{"_id":2802961,"coord":{"lat":50.816669,"lon":4.43333},"country":"BE","name":"Oudergem"},{"_id":2802960,"coord":{"lat":50.816669,"lon":4.43333},"country":"BE","name":"Auderghem"},{"_id":2794022,"coord":{"lat":50.849998,"lon":4.26667},"country":"BE","name":"Kraaienbroek"},{"_id":2792189,"coord":{"lat":50.468391,"lon":4.24868},"country":"BE","name":"L'Olive"},{"_id":2783755,"coord":{"lat":51,"lon":4.13333},"country":"BE","name":"Weverstraat"},{"_id":2795446,"coord":{"lat":50.846909,"lon":4.84458},"country":"BE","name":"Hoogbutsel"},{"_id":2787629,"coord":{"lat":49.73333,"lon":5.33333},"country":"BE","name":"Roussy"},{"_id":2803319,"coord":{"lat":50.716671,"lon":4.61667},"country":"BE","name":"Aisémont"},{"_id":2787093,"coord":{"lat":51.316669,"lon":4.86667},"country":"BE","name":"Scheiltjenseinde"},{"_id":2803315,"coord":{"lat":49.57616,"lon":5.78122},"country":"BE","name":"Aix-sur-Cloix"},{"_id":2794896,"coord":{"lat":50.72765,"lon":4.87226},"country":"BE","name":"Jodoigne"},{"_id":2794895,"coord":{"lat":50.723572,"lon":4.86914},"country":"BE","name":"Jodoigne"},{"_id":6957813,"coord":{"lat":50.433331,"lon":3.85},"country":"BE","name":"La Courbette"},{"_id":2803035,"coord":{"lat":50.916672,"lon":4.2},"country":"BE","name":"Asse"},{"_id":2803033,"coord":{"lat":50.91011,"lon":4.19836},"country":"BE","name":"Asse"},{"_id":2802583,"coord":{"lat":50.003471,"lon":5.71844},"country":"BE","name":"Bastogne"},{"_id":2793087,"coord":{"lat":50.659458,"lon":3.30757},"country":"BE","name":"Le Crouzet"},{"_id":2784554,"coord":{"lat":49.566669,"lon":5.51667},"country":"BE","name":"Arrondissement de Virton"},{"_id":2798273,"coord":{"lat":49.683331,"lon":5.31667},"country":"BE","name":"Florenville"},{"_id":2798272,"coord":{"lat":49.699829,"lon":5.3074},"country":"BE","name":"Florenville"},{"_id":2796800,"coord":{"lat":50.666828,"lon":5.74266},"country":"BE","name":"Hacboister"},{"_id":2799115,"coord":{"lat":50.794121,"lon":4.30906},"country":"BE","name":"Drogenbos"},{"_id":2799114,"coord":{"lat":50.787331,"lon":4.31471},"country":"BE","name":"Drogenbos"},{"_id":2786264,"coord":{"lat":50.433331,"lon":4.41667},"country":"BE","name":"Spinoy"},{"_id":2795520,"coord":{"lat":50.214279,"lon":5.35793},"country":"BE","name":"Hollogne"},{"_id":2790796,"coord":{"lat":50.410809,"lon":4.49109},"country":"BE","name":"Montignies-sur-Sambre"},{"_id":2785479,"coord":{"lat":50.917751,"lon":4.8848},"country":"BE","name":"Tielt-Winge"},{"_id":2791521,"coord":{"lat":50.89621,"lon":4.92496},"country":"BE","name":"Meensel-Kiezegem"},{"_id":2787388,"coord":{"lat":50.856682,"lon":4.37428},"country":"BE","name":"Saint-Josse-ten-Noode"},{"_id":2787387,"coord":{"lat":50.853802,"lon":4.37282},"country":"BE","name":"Saint-Josse-ten-Noode"},{"_id":2799525,"coord":{"lat":50.366669,"lon":5.86667},"country":"BE","name":"Derrière Spai"},{"_id":2786210,"coord":{"lat":50.797741,"lon":4.32531},"country":"BE","name":"Stalle"},{"_id":2800064,"coord":{"lat":50.46373,"lon":4.37359},"country":"BE","name":"Courcelles"},{"_id":2800063,"coord":{"lat":50.463791,"lon":4.3747},"country":"BE","name":"Courcelles"},{"_id":2799137,"coord":{"lat":50.675739,"lon":6.11075},"country":"BE","name":"Driesch"},{"_id":2792302,"coord":{"lat":50.76757,"lon":4.34457},"country":"BE","name":"Linkebeek"},{"_id":2792301,"coord":{"lat":50.767811,"lon":4.33688},"country":"BE","name":"Linkebeek"},{"_id":2798730,"coord":{"lat":50.580528,"lon":5.84927},"country":"BE","name":"Ensival"},{"_id":2794719,"coord":{"lat":51.01667,"lon":3.63333},"country":"BE","name":"Kapelplaats"},{"_id":2789571,"coord":{"lat":50.666672,"lon":4.53333},"country":"BE","name":"Ottignies-Louvain-la-Neuve"},{"_id":2789570,"coord":{"lat":50.665352,"lon":4.56679},"country":"BE","name":"Ottignies"},{"_id":2795112,"coord":{"lat":50.51981,"lon":5.23378},"country":"BE","name":"Arrondissement de Huy"},{"_id":2795950,"coord":{"lat":50.547359,"lon":5.0992},"country":"BE","name":"Héron"},{"_id":2795949,"coord":{"lat":50.54731,"lon":5.09774},"country":"BE","name":"Heron"},{"_id":2792035,"coord":{"lat":50.883331,"lon":4.83333},"country":"BE","name":"Lubbeek"},{"_id":2792034,"coord":{"lat":50.882778,"lon":4.83896},"country":"BE","name":"Lubbeek"},{"_id":2784065,"coord":{"lat":50.6982,"lon":5.25481},"country":"BE","name":"Arrondissement de Waremme"},{"_id":2800609,"coord":{"lat":50.662682,"lon":5.25902},"country":"BE","name":"Faimes"},{"_id":2798512,"coord":{"lat":50.662521,"lon":5.26005},"country":"BE","name":"Faimes"},{"_id":2787931,"coord":{"lat":50.84581,"lon":4.41749},"country":"BE","name":"Rodebeek"},{"_id":2789424,"coord":{"lat":51.011589,"lon":5.588},"country":"BE","name":"Overeindeveld"},{"_id":2798800,"coord":{"lat":50.631599,"lon":5.79864},"country":"BE","name":"Elvaux"},{"_id":2791963,"coord":{"lat":51.099998,"lon":5.78333},"country":"BE","name":"Arrondissement Maaseik"},{"_id":2801094,"coord":{"lat":51.141819,"lon":5.59891},"country":"BE","name":"Bree"},{"_id":2801093,"coord":{"lat":51.141521,"lon":5.5969},"country":"BE","name":"Bree"},{"_id":2799356,"coord":{"lat":50.258289,"lon":4.90986},"country":"BE","name":"Arrondissement de Dinant"},{"_id":2800299,"coord":{"lat":50.296471,"lon":5.101},"country":"BE","name":"Ciney"},{"_id":2800298,"coord":{"lat":50.294491,"lon":5.10015},"country":"BE","name":"Ciney"},{"_id":2802434,"coord":{"lat":50.76339,"lon":4.30029},"country":"BE","name":"Beersel"},{"_id":2802433,"coord":{"lat":50.765888,"lon":4.3002},"country":"BE","name":"Beersel"},{"_id":2801924,"coord":{"lat":50.873249,"lon":5.5184},"country":"BE","name":"Bilzen"},{"_id":2795085,"coord":{"lat":51.216671,"lon":4.25},"country":"BE","name":"IJzerhand"},{"_id":2788212,"coord":{"lat":50.681011,"lon":5.32837},"country":"BE","name":"Remicourt"},{"_id":2788211,"coord":{"lat":50.680691,"lon":5.32785},"country":"BE","name":"Remicourt"},{"_id":2802815,"coord":{"lat":51.04525,"lon":3.60624},"country":"BE","name":"Baarleveld"},{"_id":2803205,"coord":{"lat":50.48951,"lon":5.09834},"country":"BE","name":"Andenne"},{"_id":2803204,"coord":{"lat":50.48941,"lon":5.09513},"country":"BE","name":"Andenne"},{"_id":2799690,"coord":{"lat":51.024651,"lon":4.75854},"country":"BE","name":"De Meren"},{"_id":2793992,"coord":{"lat":50.75,"lon":3.6},"country":"BE","name":"Krekelberg"},{"_id":2783171,"coord":{"lat":50.834999,"lon":5.10109},"country":"BE","name":"Zoutleeuw"},{"_id":2783170,"coord":{"lat":50.83316,"lon":5.10376},"country":"BE","name":"Zoutleeuw"},{"_id":2801490,"coord":{"lat":51.086281,"lon":4.71602},"country":"BE","name":"Boonmerkt"},{"_id":2799646,"coord":{"lat":51.033329,"lon":4.08333},"country":"BE","name":"Dendermonde"},{"_id":2786697,"coord":{"lat":51.019051,"lon":4.11146},"country":"BE","name":"Sint-Gillis-bij-Dendermonde"},{"_id":2784169,"coord":{"lat":50.616669,"lon":4.7},"country":"BE","name":"Walhain"},{"_id":7648367,"coord":{"lat":50.616798,"lon":4.69477},"country":"BE","name":"Walhain"},{"_id":2801619,"coord":{"lat":50.5,"lon":4.21667},"country":"BE","name":"Bois Robert"},{"_id":2789564,"coord":{"lat":50.866669,"lon":4.63333},"country":"BE","name":"Oude Baan"},{"_id":2801553,"coord":{"lat":49.921822,"lon":5.38802},"country":"BE","name":"Bonance"},{"_id":2802484,"coord":{"lat":50.783329,"lon":4.76667},"country":"BE","name":"Beauvechain"},{"_id":2802483,"coord":{"lat":50.781952,"lon":4.7718},"country":"BE","name":"Beauvechain"},{"_id":2793004,"coord":{"lat":50.266842,"lon":4.90776},"country":"BE","name":"Leffe"},{"_id":2802986,"coord":{"lat":50.703201,"lon":5.85872},"country":"BE","name":"Aubel"},{"_id":2802985,"coord":{"lat":50.701889,"lon":5.85812},"country":"BE","name":"Aubel"},{"_id":2792884,"coord":{"lat":50.617828,"lon":4.80892},"country":"BE","name":"Le Mont"},{"_id":2798895,"coord":{"lat":51.33429,"lon":4.63496},"country":"BE","name":"Eindhoven"},{"_id":2794191,"coord":{"lat":50.76667,"lon":4.06667},"country":"BE","name":"Koekelberg"},{"_id":2785274,"coord":{"lat":51.02314,"lon":4.36458},"country":"BE","name":"Triest"},{"_id":2798579,"coord":{"lat":50.83316,"lon":4.39024},"country":"BE","name":"Etterbeek"},{"_id":2798578,"coord":{"lat":50.832722,"lon":4.38835},"country":"BE","name":"Etterbeek"},{"_id":2795018,"coord":{"lat":50.64674,"lon":4.26201},"country":"BE","name":"Ittre"},{"_id":2795017,"coord":{"lat":50.643959,"lon":4.26476},"country":"BE","name":"Ittre"},{"_id":2789493,"coord":{"lat":50.835651,"lon":4.66164},"country":"BE","name":"Oud-Heverlee"},{"_id":2789492,"coord":{"lat":50.83522,"lon":4.66421},"country":"BE","name":"Oud-Heverlee"},{"_id":2791726,"coord":{"lat":50.392159,"lon":4.44388},"country":"BE","name":"Marcinelle"},{"_id":2797672,"coord":{"lat":50.73333,"lon":5.7},"country":"BE","name":"Genistreux"},{"_id":2785516,"coord":{"lat":50.235489,"lon":4.26018},"country":"BE","name":"Arrondissement de Thuin"},{"_id":2790698,"coord":{"lat":50.450001,"lon":4.23333},"country":"BE","name":"Morlanwelz"},{"_id":2790697,"coord":{"lat":50.455021,"lon":4.24519},"country":"BE","name":"Morlanwelz-Mariemont"},{"_id":2788347,"coord":{"lat":50.616669,"lon":5.63333},"country":"BE","name":"Ransy"},{"_id":2794192,"coord":{"lat":50.866669,"lon":4.33333},"country":"BE","name":"Koekelberg"},{"_id":2794190,"coord":{"lat":50.861172,"lon":4.33136},"country":"BE","name":"Koekelberg"},{"_id":2802646,"coord":{"lat":50.616669,"lon":5.75},"country":"BE","name":"Bas Bois"},{"_id":2801612,"coord":{"lat":50.799999,"lon":4.4},"country":"BE","name":"Bosvoorde"},{"_id":2798101,"coord":{"lat":50.395828,"lon":4.69751},"country":"BE","name":"Fosses-la-Ville"},{"_id":2798099,"coord":{"lat":50.395168,"lon":4.69623},"country":"BE","name":"Fosses-la-Ville"},{"_id":2797129,"coord":{"lat":50.716671,"lon":4.68333},"country":"BE","name":"Grez-Doiceau"},{"_id":2797128,"coord":{"lat":50.73901,"lon":4.69829},"country":"BE","name":"Grez-Doiceau"},{"_id":2803027,"coord":{"lat":51.228001,"lon":3.71517},"country":"BE","name":"Assenede"},{"_id":2803026,"coord":{"lat":51.225979,"lon":3.75085},"country":"BE","name":"Assenede"},{"_id":3337389,"coord":{"lat":50.851151,"lon":4.34526},"country":"BE","name":"City of Brussels"},{"_id":2793656,"coord":{"lat":50.875851,"lon":4.34844},"country":"BE","name":"Laeken"},{"_id":2791835,"coord":{"lat":50.426128,"lon":6.03029},"country":"BE","name":"Malmédy"},{"_id":2791834,"coord":{"lat":50.426861,"lon":6.02794},"country":"BE","name":"Malmedy"},{"_id":2802838,"coord":{"lat":50.473789,"lon":5.67976},"country":"BE","name":"Aywaille"},{"_id":2802837,"coord":{"lat":50.47411,"lon":5.67684},"country":"BE","name":"Aywaille"},{"_id":2790866,"coord":{"lat":50.448181,"lon":3.86341},"country":"BE","name":"Arrondissement de Mons"},{"_id":2798024,"coord":{"lat":50.405338,"lon":3.89594},"country":"BE","name":"Frameries"},{"_id":2798023,"coord":{"lat":50.405781,"lon":3.89603},"country":"BE","name":"Frameries"},{"_id":2801201,"coord":{"lat":50.469479,"lon":4.17959},"country":"BE","name":"Bouvy"},{"_id":2791273,"coord":{"lat":49.599998,"lon":5.81667},"country":"BE","name":"Messancy"},{"_id":2791272,"coord":{"lat":49.591999,"lon":5.81878},"country":"BE","name":"Messancy"},{"_id":2796631,"coord":{"lat":51.099998,"lon":4.13333},"country":"BE","name":"Hammeveer"},{"_id":2786180,"coord":{"lat":51.349998,"lon":4.63333},"country":"BE","name":"Steeghoven"},{"_id":2801507,"coord":{"lat":50.61467,"lon":5.84661},"country":"BE","name":"Bonvoisin"},{"_id":2791852,"coord":{"lat":50.883331,"lon":4.06667},"country":"BE","name":"Malegem"},{"_id":2789309,"coord":{"lat":50.865131,"lon":5.30691},"country":"BE","name":"Paradijs"},{"_id":2801008,"coord":{"lat":50.833328,"lon":4.28333},"country":"BE","name":"Broek"},{"_id":2790283,"coord":{"lat":49.833328,"lon":5.41667},"country":"BE","name":"Arrondissement de Neufchâteau"},{"_id":2790288,"coord":{"lat":49.833328,"lon":5.41667},"country":"BE","name":"Neufchâteau"},{"_id":2790286,"coord":{"lat":49.84074,"lon":5.43535},"country":"BE","name":"Neufchateau"},{"_id":2793061,"coord":{"lat":50.666222,"lon":5.65298},"country":"BE","name":"Le Dossay"},{"_id":2801859,"coord":{"lat":51.301231,"lon":3.14175},"country":"BE","name":"Blankenberge"},{"_id":2801858,"coord":{"lat":51.313061,"lon":3.13227},"country":"BE","name":"Blankenberge"},{"_id":2784640,"coord":{"lat":50.577679,"lon":5.26134},"country":"BE","name":"Villers-le-Bouillet"},{"_id":2784639,"coord":{"lat":50.57708,"lon":5.25945},"country":"BE","name":"Villers-le-Bouillet"},{"_id":2784556,"coord":{"lat":49.599998,"lon":5.53333},"country":"BE","name":"Virton"},{"_id":2784555,"coord":{"lat":49.568241,"lon":5.53259},"country":"BE","name":"Virton"},{"_id":2802275,"coord":{"lat":50.830959,"lon":4.41747},"country":"BE","name":"Bemel"},{"_id":2791664,"coord":{"lat":50.198441,"lon":5.32141},"country":"BE","name":"Marloie"},{"_id":2797782,"coord":{"lat":49.98048,"lon":4.93835},"country":"BE","name":"Gedinne"},{"_id":2797781,"coord":{"lat":49.98037,"lon":4.93674},"country":"BE","name":"Gedinne"},{"_id":2793512,"coord":{"lat":50.567268,"lon":5.67873},"country":"BE","name":"La Lonhienne"},{"_id":2788768,"coord":{"lat":50.666672,"lon":5.16667},"country":"BE","name":"Ponsin"},{"_id":2799754,"coord":{"lat":50.95039,"lon":4.96819},"country":"BE","name":"De Hulst"},{"_id":2791587,"coord":{"lat":50.599998,"lon":5.6},"country":"BE","name":"Mathysart"},{"_id":2801923,"coord":{"lat":50.416229,"lon":4.16587},"country":"BE","name":"Binche"},{"_id":2801922,"coord":{"lat":50.411549,"lon":4.16469},"country":"BE","name":"Binche"},{"_id":2794855,"coord":{"lat":50.70771,"lon":5.53368},"country":"BE","name":"Juprelle"},{"_id":2796584,"coord":{"lat":50.67231,"lon":5.07603},"country":"BE","name":"Hannut"},{"_id":2796583,"coord":{"lat":50.671421,"lon":5.07898},"country":"BE","name":"Hannut"},{"_id":2791019,"coord":{"lat":50.849998,"lon":4.31667},"country":"BE","name":"Sint-Jans-Molenbeek"},{"_id":2791018,"coord":{"lat":50.849899,"lon":4.31248},"country":"BE","name":"Molenbeek-Saint-Jean"},{"_id":2801779,"coord":{"lat":51.033329,"lon":2.86667},"country":"BE","name":"Bloed Putteken"},{"_id":2803447,"coord":{"lat":50.868752,"lon":3.95535},"country":"BE","name":"Arrondissement Aalst"},{"_id":2797639,"coord":{"lat":50.780399,"lon":3.90696},"country":"BE","name":"Geraardsbergen"},{"_id":2789439,"coord":{"lat":50.763821,"lon":3.8637},"country":"BE","name":"Overboelare"},{"_id":2785336,"coord":{"lat":50.700001,"lon":5.65},"country":"BE","name":"Tournay"},{"_id":2783386,"coord":{"lat":50.327492,"lon":4.88111},"country":"BE","name":"Yvoir"},{"_id":2797470,"coord":{"lat":50.348091,"lon":4.87364},"country":"BE","name":"Godinne"},{"_id":2790757,"coord":{"lat":50.63422,"lon":4.61134},"country":"BE","name":"Mont-Saint-Guibert"},{"_id":2790756,"coord":{"lat":50.63427,"lon":4.61061},"country":"BE","name":"Mont-Saint-Guibert"},{"_id":2789014,"coord":{"lat":50.19619,"lon":4.54225},"country":"BE","name":"Arrondissement de Philippeville"},{"_id":2798277,"coord":{"lat":50.25,"lon":4.6},"country":"BE","name":"Florennes"},{"_id":2798276,"coord":{"lat":50.25127,"lon":4.60636},"country":"BE","name":"Florennes"},{"_id":2801290,"coord":{"lat":50.471931,"lon":4.89218},"country":"BE","name":"Bouge"},{"_id":2797615,"coord":{"lat":50.247189,"lon":4.42586},"country":"BE","name":"Gerlimpont"},{"_id":2785930,"coord":{"lat":50.801899,"lon":4.11162},"country":"BE","name":"Stuivenberg"},{"_id":2803019,"coord":{"lat":50.369339,"lon":5.02058},"country":"BE","name":"Assesse"},{"_id":2803018,"coord":{"lat":50.369339,"lon":5.02204},"country":"BE","name":"Assesse"},{"_id":2801153,"coord":{"lat":50.680721,"lon":4.2871},"country":"BE","name":"Braine-le-Château"},{"_id":2801152,"coord":{"lat":50.679901,"lon":4.27385},"country":"BE","name":"Braine-le-Chateau"},{"_id":2787949,"coord":{"lat":50.162601,"lon":5.21936},"country":"BE","name":"Rochefort"},{"_id":2787948,"coord":{"lat":50.163101,"lon":5.2216},"country":"BE","name":"Rochefort"},{"_id":2793212,"coord":{"lat":50.505402,"lon":4.33873},"country":"BE","name":"L'Aulnois"},{"_id":2803247,"coord":{"lat":50.54845,"lon":5.3088},"country":"BE","name":"Amay"},{"_id":2803246,"coord":{"lat":50.54829,"lon":5.30974},"country":"BE","name":"Amay"},{"_id":2793167,"coord":{"lat":50.666672,"lon":5.46667},"country":"BE","name":"La Ville"},{"_id":2800395,"coord":{"lat":50.612,"lon":5.6141},"country":"BE","name":"Chênée"},{"_id":2798230,"coord":{"lat":50.433331,"lon":4.78333},"country":"BE","name":"Fond de Malonne"},{"_id":2792778,"coord":{"lat":50.568192,"lon":5.53865},"country":"BE","name":"Le Sart Haguet"},{"_id":2802788,"coord":{"lat":50.631329,"lon":5.97188},"country":"BE","name":"Baelen"},{"_id":2802787,"coord":{"lat":50.63131,"lon":5.97433},"country":"BE","name":"Baelen"},{"_id":2785563,"coord":{"lat":50.655121,"lon":5.86713},"country":"BE","name":"Thimister-Clermont"},{"_id":7732060,"coord":{"lat":50.653709,"lon":5.8643},"country":"BE","name":"Thimister-Clermont"},{"_id":2793552,"coord":{"lat":50.700001,"lon":3.25},"country":"BE","name":"La Horne"},{"_id":2789367,"coord":{"lat":50.73333,"lon":3.68333},"country":"BE","name":"Padraye"},{"_id":2792852,"coord":{"lat":50.600288,"lon":4.4553},"country":"BE","name":"Le Panier"},{"_id":2791616,"coord":{"lat":50.532089,"lon":3.94032},"country":"BE","name":"Masnuy-Saint-Jean"},{"_id":2789133,"coord":{"lat":50.684978,"lon":5.23507},"country":"BE","name":"Petit Axhe"},{"_id":2789636,"coord":{"lat":50.717602,"lon":5.35043},"country":"BE","name":"Oreye"},{"_id":2789583,"coord":{"lat":50.736019,"lon":5.37858},"country":"BE","name":"Otrange"},{"_id":2798358,"coord":{"lat":50.665291,"lon":5.4009},"country":"BE","name":"Fexhe-le-Haut-Clocher"},{"_id":2798357,"coord":{"lat":50.665401,"lon":5.39978},"country":"BE","name":"Fexhe-le-Haut-Clocher"},{"_id":2799318,"coord":{"lat":50.64674,"lon":5.32176},"country":"BE","name":"Donceel"},{"_id":2799317,"coord":{"lat":50.64827,"lon":5.32},"country":"BE","name":"Donceel"},{"_id":2792518,"coord":{"lat":50.61882,"lon":4.99651},"country":"BE","name":"Le Tilleul"},{"_id":2799998,"coord":{"lat":50.716671,"lon":5.4},"country":"BE","name":"Crisnée"},{"_id":2799997,"coord":{"lat":50.71703,"lon":5.39802},"country":"BE","name":"Crisnee"},{"_id":2798728,"coord":{"lat":50.65094,"lon":5.53568},"country":"BE","name":"En Sterre"},{"_id":2802607,"coord":{"lat":50.75948,"lon":5.60921},"country":"BE","name":"Bassenge"},{"_id":2802606,"coord":{"lat":50.758831,"lon":5.60989},"country":"BE","name":"Bassenge"},{"_id":2803009,"coord":{"lat":50.638889,"lon":3.74816},"country":"BE","name":"Arrondissement d'Ath"},{"_id":2800329,"coord":{"lat":50.588032,"lon":3.80831},"country":"BE","name":"Chièvres"},{"_id":2800328,"coord":{"lat":50.587872,"lon":3.80711},"country":"BE","name":"Chievres"},{"_id":2803200,"coord":{"lat":50.407261,"lon":4.26982},"country":"BE","name":"Anderlues"},{"_id":2803199,"coord":{"lat":50.40704,"lon":4.27136},"country":"BE","name":"Anderlues"},{"_id":2785285,"coord":{"lat":50.583328,"lon":4.53333},"country":"BE","name":"Tribotte"},{"_id":2784776,"coord":{"lat":50.283329,"lon":5.91667},"country":"BE","name":"Vielsalm"},{"_id":2784775,"coord":{"lat":50.284069,"lon":5.91502},"country":"BE","name":"Vielsalm"},{"_id":2798131,"coord":{"lat":50.333328,"lon":4.88333},"country":"BE","name":"Forge d'en Haut"},{"_id":2791743,"coord":{"lat":50.23333,"lon":5.33333},"country":"BE","name":"Arrondissement de Marche-en-Famenne"},{"_id":2790452,"coord":{"lat":50.116669,"lon":5.38333},"country":"BE","name":"Nassogne"},{"_id":2790451,"coord":{"lat":50.12849,"lon":5.34274},"country":"BE","name":"Nassogne"},{"_id":2793497,"coord":{"lat":50.332699,"lon":4.27933},"country":"BE","name":"La Maladrie"},{"_id":2802511,"coord":{"lat":50.236832,"lon":4.23969},"country":"BE","name":"Beaumont"},{"_id":2802510,"coord":{"lat":50.236992,"lon":4.23926},"country":"BE","name":"Beaumont"},{"_id":2784995,"coord":{"lat":50.581718,"lon":5.74},"country":"BE","name":"Vaux sous Olne"},{"_id":2784615,"coord":{"lat":50.711239,"lon":5.53891},"country":"BE","name":"Villers-Saint-Siméon"},{"_id":2798471,"coord":{"lat":50.42963,"lon":4.5437},"country":"BE","name":"Farciennes"},{"_id":2798470,"coord":{"lat":50.430061,"lon":4.54152},"country":"BE","name":"Farciennes"},{"_id":2792333,"coord":{"lat":50.71233,"lon":5.03878},"country":"BE","name":"Lincent"},{"_id":2792332,"coord":{"lat":50.712219,"lon":5.03654},"country":"BE","name":"Lincent"},{"_id":2790809,"coord":{"lat":50.4217,"lon":5.80769},"country":"BE","name":"Monthouet"},{"_id":2783152,"coord":{"lat":50.932098,"lon":3.47295},"country":"BE","name":"Zulte"},{"_id":2783151,"coord":{"lat":50.91954,"lon":3.44859},"country":"BE","name":"Zulte"},{"_id":2786230,"coord":{"lat":51.33083,"lon":4.37462},"country":"BE","name":"Stabroek"},{"_id":2786229,"coord":{"lat":51.33189,"lon":4.37127},"country":"BE","name":"Stabroek"},{"_id":2800501,"coord":{"lat":50.464279,"lon":4.28492},"country":"BE","name":"Chapelle-lez-Herlaimont"},{"_id":2800500,"coord":{"lat":50.471298,"lon":4.28227},"country":"BE","name":"Chapelle-lez-Herlaimont"},{"_id":2798637,"coord":{"lat":50.533329,"lon":5.56667},"country":"BE","name":"Esneux"},{"_id":2798636,"coord":{"lat":50.535961,"lon":5.56775},"country":"BE","name":"Esneux"},{"_id":2790468,"coord":{"lat":50.507858,"lon":5.42132},"country":"BE","name":"Nandrin"},{"_id":2790467,"coord":{"lat":50.506741,"lon":5.41905},"country":"BE","name":"Nandrin"},{"_id":2803175,"coord":{"lat":50.310059,"lon":4.87887},"country":"BE","name":"Anhée"},{"_id":2803174,"coord":{"lat":50.31039,"lon":4.87827},"country":"BE","name":"Anhee"},{"_id":2802796,"coord":{"lat":50.08617,"lon":5.53385},"country":"BE","name":"Baconfoy"},{"_id":2792441,"coord":{"lat":49.984501,"lon":5.2543},"country":"BE","name":"Libin Haut"},{"_id":2792986,"coord":{"lat":49.816669,"lon":5.55},"country":"BE","name":"Léglise"},{"_id":2792985,"coord":{"lat":49.79985,"lon":5.53652},"country":"BE","name":"Leglise"},{"_id":2802713,"coord":{"lat":50.01667,"lon":5.11667},"country":"BE","name":"Banet Sarts"},{"_id":2785794,"coord":{"lat":50.083328,"lon":5.21667},"country":"BE","name":"Tellin"},{"_id":2785793,"coord":{"lat":50.080379,"lon":5.21638},"country":"BE","name":"Tellin"},{"_id":2787417,"coord":{"lat":50.448318,"lon":3.82007},"country":"BE","name":"Saint-Ghislain"},{"_id":2787416,"coord":{"lat":50.448158,"lon":3.81886},"country":"BE","name":"Saint-Ghislain"},{"_id":2796056,"coord":{"lat":50.432629,"lon":3.68411},"country":"BE","name":"Hensies"},{"_id":6957776,"coord":{"lat":50.51667,"lon":3.6},"country":"BE","name":"Outre l'Eau"},{"_id":2787964,"coord":{"lat":50.548512,"lon":3.70909},"country":"BE","name":"Robertsart"},{"_id":2800688,"coord":{"lat":50.599998,"lon":5.31667},"country":"BE","name":"Cacqhus"},{"_id":2785444,"coord":{"lat":50.48333,"lon":5.36667},"country":"BE","name":"Tillesse"},{"_id":2785423,"coord":{"lat":49.683331,"lon":5.51667},"country":"BE","name":"Tintigny"},{"_id":2785422,"coord":{"lat":49.683262,"lon":5.51349},"country":"BE","name":"Tintigny"},{"_id":2783863,"coord":{"lat":50.066669,"lon":5.11667},"country":"BE","name":"Wellin"},{"_id":2783862,"coord":{"lat":50.081329,"lon":5.11413},"country":"BE","name":"Wellin"},{"_id":2800560,"coord":{"lat":49.916672,"lon":5.58333},"country":"BE","name":"Champ Blandais"},{"_id":2787380,"coord":{"lat":49.616669,"lon":5.65},"country":"BE","name":"Saint-Léger"},{"_id":2787378,"coord":{"lat":49.611961,"lon":5.65688},"country":"BE","name":"Saint-Leger"},{"_id":2786409,"coord":{"lat":50.26667,"lon":5.45},"country":"BE","name":"Solhez"},{"_id":2796810,"coord":{"lat":49.73103,"lon":5.61745},"country":"BE","name":"Habay"},{"_id":8199019,"coord":{"lat":49.730141,"lon":5.61676},"country":"BE","name":"Habay"},{"_id":2795239,"coord":{"lat":50.18586,"lon":5.00968},"country":"BE","name":"Houyet"},{"_id":2795238,"coord":{"lat":50.186192,"lon":5.00762},"country":"BE","name":"Houyet"},{"_id":2802136,"coord":{"lat":50.47411,"lon":3.65004},"country":"BE","name":"Bernissart"},{"_id":2802135,"coord":{"lat":50.474602,"lon":3.64961},"country":"BE","name":"Bernissart"},{"_id":2798667,"coord":{"lat":50.307209,"lon":4.11232},"country":"BE","name":"Erquelinnes"},{"_id":2786399,"coord":{"lat":50.30809,"lon":4.15429},"country":"BE","name":"Solre-sur-Sambre"},{"_id":2788766,"coord":{"lat":50.505291,"lon":4.36363},"country":"BE","name":"Pont-à-Celles"},{"_id":2784742,"coord":{"lat":50.490879,"lon":4.40852},"country":"BE","name":"Viesville"},{"_id":6957761,"coord":{"lat":50.549999,"lon":3.9},"country":"BE","name":"Rivage"},{"_id":2802922,"coord":{"lat":50.599998,"lon":4.13333},"country":"BE","name":"Au Pont"},{"_id":2798460,"coord":{"lat":50.633331,"lon":3.78333},"country":"BE","name":"Faubourg de Bruxelles"},{"_id":2796630,"coord":{"lat":50.426998,"lon":5.53462},"country":"BE","name":"Hamoir"},{"_id":2796629,"coord":{"lat":50.42675,"lon":5.53304},"country":"BE","name":"Hamoir"},{"_id":2784003,"coord":{"lat":50.650002,"lon":3.91667},"country":"BE","name":"Wastinelle"},{"_id":2797283,"coord":{"lat":50.299999,"lon":5.66667},"country":"BE","name":"Grande Fonderie"},{"_id":2799750,"coord":{"lat":50.347778,"lon":6.13861},"country":"BE","name":"Deidenberg"},{"_id":2796267,"coord":{"lat":50.5,"lon":5.86667},"country":"BE","name":"Heid de Spa"},{"_id":2801285,"coord":{"lat":50.616669,"lon":5.68333},"country":"BE","name":"Bouillenne"},{"_id":2798486,"coord":{"lat":50.349998,"lon":5.46667},"country":"BE","name":"Famenne"},{"_id":2789473,"coord":{"lat":50.333328,"lon":5.13333},"country":"BE","name":"Ounes"},{"_id":2802789,"coord":{"lat":50.63026,"lon":5.1424},"country":"BE","name":"Baegnée"},{"_id":2800449,"coord":{"lat":50.403049,"lon":4.5298},"country":"BE","name":"Châtelet"},{"_id":2800448,"coord":{"lat":50.403381,"lon":4.52826},"country":"BE","name":"Chatelet"},{"_id":2802997,"coord":{"lat":49.75116,"lon":5.78525},"country":"BE","name":"Attert"},{"_id":2798367,"coord":{"lat":50.401409,"lon":5.60955},"country":"BE","name":"Ferrières"},{"_id":2798365,"coord":{"lat":50.401569,"lon":5.61092},"country":"BE","name":"Ferrieres"},{"_id":2802107,"coord":{"lat":49.849998,"lon":5.25},"country":"BE","name":"Bertrix"},{"_id":2802106,"coord":{"lat":49.855961,"lon":5.25539},"country":"BE","name":"Bertrix"},{"_id":2801227,"coord":{"lat":50.43438,"lon":3.79578},"country":"BE","name":"Boussu"},{"_id":2801226,"coord":{"lat":50.43417,"lon":3.7944},"country":"BE","name":"Boussu"},{"_id":2791642,"coord":{"lat":49.831951,"lon":5.73655},"country":"BE","name":"Martelange"},{"_id":2787261,"coord":{"lat":50.371632,"lon":3.8744},"country":"BE","name":"Sars-la-Bruyère"},{"_id":2788731,"coord":{"lat":50.373501,"lon":3.87114},"country":"BE","name":"Pont Troué"},{"_id":2799226,"coord":{"lat":50.395828,"lon":3.77792},"country":"BE","name":"Dour"},{"_id":2789080,"coord":{"lat":50.400002,"lon":3.78333},"country":"BE","name":"Petit Hainin"},{"_id":2798593,"coord":{"lat":49.676399,"lon":5.60201},"country":"BE","name":"Etalle"},{"_id":2798439,"coord":{"lat":49.849998,"lon":5.66667},"country":"BE","name":"Fauvillers"},{"_id":2798438,"coord":{"lat":49.851158,"lon":5.66405},"country":"BE","name":"Fauvillers"},{"_id":2800458,"coord":{"lat":50.600891,"lon":4.62988},"country":"BE","name":"Chastre"},{"_id":7648268,"coord":{"lat":50.60067,"lon":4.634},"country":"BE","name":"Chastre"},{"_id":2785746,"coord":{"lat":50.083328,"lon":5.48333},"country":"BE","name":"Tenneville"},{"_id":2785745,"coord":{"lat":50.095009,"lon":5.52894},"country":"BE","name":"Tenneville"},{"_id":2797964,"coord":{"lat":50.383331,"lon":4.86667},"country":"BE","name":"Frênes"},{"_id":2789785,"coord":{"lat":51.183922,"lon":2.94958},"country":"BE","name":"Arrondissement Oostende"},{"_id":2789788,"coord":{"lat":51.211899,"lon":2.92711},"country":"BE","name":"Oostende"},{"_id":2789786,"coord":{"lat":51.223389,"lon":2.91185},"country":"BE","name":"Oostende"},{"_id":2799329,"coord":{"lat":50.135208,"lon":4.7418},"country":"BE","name":"Doische"},{"_id":2799328,"coord":{"lat":50.13356,"lon":4.73545},"country":"BE","name":"Doische"},{"_id":2785873,"coord":{"lat":50.437931,"lon":5.13128},"country":"BE","name":"Sur le Try"},{"_id":2802502,"coord":{"lat":50.109192,"lon":4.95595},"country":"BE","name":"Beauraing"},{"_id":2802501,"coord":{"lat":50.11042,"lon":4.95554},"country":"BE","name":"Beauraing"},{"_id":2794990,"coord":{"lat":50.559799,"lon":5.96841},"country":"BE","name":"Jalhay"},{"_id":2794989,"coord":{"lat":50.558762,"lon":5.96764},"country":"BE","name":"Jalhay"},{"_id":2800205,"coord":{"lat":50.475529,"lon":5.57865},"country":"BE","name":"Comblain-au-Pont"},{"_id":2800204,"coord":{"lat":50.47488,"lon":5.57711},"country":"BE","name":"Comblain-au-Pont"},{"_id":2800955,"coord":{"lat":50.695221,"lon":4.78921},"country":"BE","name":"Brombais"},{"_id":2785543,"coord":{"lat":50.799999,"lon":3.96667},"country":"BE","name":"'t Hoeksken"},{"_id":2797961,"coord":{"lat":50.73333,"lon":3.73333},"country":"BE","name":"Frenoit"},{"_id":2785383,"coord":{"lat":50.511089,"lon":4.60775},"country":"BE","name":"Tongrenelle"},{"_id":2795114,"coord":{"lat":50.51976,"lon":5.23155},"country":"BE","name":"Huy"},{"_id":2795113,"coord":{"lat":50.51894,"lon":5.23284},"country":"BE","name":"Huy"},{"_id":2787304,"coord":{"lat":50.599998,"lon":4.9},"country":"BE","name":"Saiwiat"},{"_id":2792652,"coord":{"lat":50.381618,"lon":4.44692},"country":"BE","name":"Les Haies"},{"_id":2797599,"coord":{"lat":50.33746,"lon":4.53049},"country":"BE","name":"Gerpinnes"},{"_id":2797598,"coord":{"lat":50.337891,"lon":4.52731},"country":"BE","name":"Gerpinnes"},{"_id":2783185,"coord":{"lat":50.872768,"lon":2.98768},"country":"BE","name":"Zonnebeke"},{"_id":2783184,"coord":{"lat":50.872601,"lon":2.98725},"country":"BE","name":"Zonnebeke"},{"_id":2791284,"coord":{"lat":50.765808,"lon":2.89764},"country":"BE","name":"Messines"},{"_id":2796483,"coord":{"lat":50.216671,"lon":4.81667},"country":"BE","name":"Hastière"},{"_id":2796480,"coord":{"lat":50.214951,"lon":4.82948},"country":"BE","name":"Hastière-par-delà"},{"_id":2792401,"coord":{"lat":50.28616,"lon":5.79065},"country":"BE","name":"Lierneux"},{"_id":2792400,"coord":{"lat":50.284771,"lon":5.79236},"country":"BE","name":"Lierneux"},{"_id":2789355,"coord":{"lat":49.900002,"lon":5.13333},"country":"BE","name":"Paliseul"},{"_id":2789354,"coord":{"lat":49.90395,"lon":5.13537},"country":"BE","name":"Paliseul"},{"_id":2799879,"coord":{"lat":50.50555,"lon":5.67784},"country":"BE","name":"Damré"},{"_id":2795760,"coord":{"lat":50.381569,"lon":5.23443},"country":"BE","name":"Hietinne"},{"_id":2785667,"coord":{"lat":49.783329,"lon":5.23333},"country":"BE","name":"Terme"},{"_id":2800712,"coord":{"lat":50.427441,"lon":6.20556},"country":"BE","name":"Butgenbach"},{"_id":2800711,"coord":{"lat":50.426891,"lon":6.20504},"country":"BE","name":"Butgenbach"},{"_id":2791734,"coord":{"lat":50.466518,"lon":5.24426},"country":"BE","name":"Marchin"},{"_id":2791733,"coord":{"lat":50.467072,"lon":5.2428},"country":"BE","name":"Marchin"},{"_id":2791262,"coord":{"lat":50.321678,"lon":4.6588},"country":"BE","name":"Mettet"},{"_id":2791261,"coord":{"lat":50.32119,"lon":4.66232},"country":"BE","name":"Mettet"},{"_id":2793295,"coord":{"lat":50.166672,"lon":4.41667},"country":"BE","name":"La Redoute"},{"_id":2793092,"coord":{"lat":50.566669,"lon":3.45},"country":"BE","name":"Le Coucou"},{"_id":2799992,"coord":{"lat":50.549999,"lon":3.3},"country":"BE","name":"Croisette"},{"_id":2785594,"coord":{"lat":50.534328,"lon":5.81237},"country":"BE","name":"Theux"},{"_id":2785593,"coord":{"lat":50.53323,"lon":5.81245},"country":"BE","name":"Theux"},{"_id":2792344,"coord":{"lat":50.185532,"lon":5.94034},"country":"BE","name":"Gouvy"},{"_id":2797346,"coord":{"lat":50.186001,"lon":5.93918},"country":"BE","name":"Gouvy"},{"_id":2792661,"coord":{"lat":50.566669,"lon":5.81667},"country":"BE","name":"Les Golettes"},{"_id":2797582,"coord":{"lat":50.401619,"lon":5.07345},"country":"BE","name":"Gesves"},{"_id":2797581,"coord":{"lat":50.401459,"lon":5.07457},"country":"BE","name":"Gesves"},{"_id":2800762,"coord":{"lat":50.58226,"lon":5.0756},"country":"BE","name":"Burdinne"},{"_id":2800761,"coord":{"lat":50.584541,"lon":5.07663},"country":"BE","name":"Burdinne"},{"_id":2802144,"coord":{"lat":50.699341,"lon":5.2137},"country":"BE","name":"Berloz"},{"_id":2802143,"coord":{"lat":50.698292,"lon":5.21236},"country":"BE","name":"Berloz"},{"_id":2801155,"coord":{"lat":50.675129,"lon":4.35984},"country":"BE","name":"Braine-l'Alleud"},{"_id":2801154,"coord":{"lat":50.683632,"lon":4.36784},"country":"BE","name":"Braine-lAlleud"},{"_id":2800025,"coord":{"lat":50.052841,"lon":4.49495},"country":"BE","name":"Couvin"},{"_id":2789480,"coord":{"lat":50.43903,"lon":5.46896},"country":"BE","name":"Ouffet"},{"_id":2789479,"coord":{"lat":50.438702,"lon":5.4657},"country":"BE","name":"Ouffet"},{"_id":2798151,"coord":{"lat":50.460548,"lon":4.47228},"country":"BE","name":"Fontery"},{"_id":2798313,"coord":{"lat":50.457939,"lon":4.81047},"country":"BE","name":"Flawinne"},{"_id":2787495,"coord":{"lat":50.283329,"lon":4.58333},"country":"BE","name":"Ry Massart"},{"_id":2789237,"coord":{"lat":50.68504,"lon":3.35672},"country":"BE","name":"Pecq"},{"_id":2789236,"coord":{"lat":50.686192,"lon":3.33789},"country":"BE","name":"Pecq"},{"_id":2788445,"coord":{"lat":50.40715,"lon":3.68505},"country":"BE","name":"Quiévrain"},{"_id":2788444,"coord":{"lat":50.407372,"lon":3.68351},"country":"BE","name":"Quievrain"},{"_id":2800608,"coord":{"lat":50.703838,"lon":3.4483},"country":"BE","name":"Celles"},{"_id":2800605,"coord":{"lat":50.712292,"lon":3.45733},"country":"BE","name":"Celles"},{"_id":2786388,"coord":{"lat":50.333328,"lon":5.36667},"country":"BE","name":"Somme-Leuze"},{"_id":2786387,"coord":{"lat":50.33699,"lon":5.36705},"country":"BE","name":"Somme-Leuze"},{"_id":2798202,"coord":{"lat":50.25,"lon":4.83333},"country":"BE","name":"Fonds de Lavois"},{"_id":2801284,"coord":{"lat":49.79689,"lon":5.06779},"country":"BE","name":"Bouillon"},{"_id":2801283,"coord":{"lat":49.79324,"lon":5.06704},"country":"BE","name":"Bouillon"},{"_id":2795127,"coord":{"lat":50.299999,"lon":4.38333},"country":"BE","name":"Hurlugeai"},{"_id":2785258,"coord":{"lat":50.633331,"lon":3.26667},"country":"BE","name":"Trieu-de-Wazon"},{"_id":2785194,"coord":{"lat":50.133331,"lon":5.78333},"country":"BE","name":"Trou des Nutons"},{"_id":2785080,"coord":{"lat":50.200001,"lon":4.53333},"country":"BE","name":"Vache Fontaine"},{"_id":2803149,"coord":{"lat":50.48333,"lon":5.51667},"country":"BE","name":"Anthisnes"},{"_id":2803148,"coord":{"lat":50.483231,"lon":5.519},"country":"BE","name":"Anthisnes"},{"_id":2800445,"coord":{"lat":50.415001,"lon":4.52016},"country":"BE","name":"Châtelineau"},{"_id":2790749,"coord":{"lat":50.389969,"lon":4.40732},"country":"BE","name":"Mont-sur-Marchienne"},{"_id":2802114,"coord":{"lat":50.083691,"lon":5.668},"country":"BE","name":"Bertogne"},{"_id":2802113,"coord":{"lat":50.083641,"lon":5.66689},"country":"BE","name":"Bertogne"},{"_id":2791735,"coord":{"lat":50.405731,"lon":4.3953},"country":"BE","name":"Marchienne-au-Pont"},{"_id":2797349,"coord":{"lat":50.41333,"lon":4.36226},"country":"BE","name":"Goutroux"},{"_id":2791535,"coord":{"lat":50.966671,"lon":5.7},"country":"BE","name":"Maasmechelen"},{"_id":2791961,"coord":{"lat":50.96545,"lon":5.69452},"country":"BE","name":"Maasmechelen"},{"_id":2788186,"coord":{"lat":50.234219,"lon":5.50414},"country":"BE","name":"Rendeux"},{"_id":2802338,"coord":{"lat":50.416721,"lon":4.31772},"country":"BE","name":"Belle Fontaine"},{"_id":2786337,"coord":{"lat":50.295528,"lon":5.54949},"country":"BE","name":"Sous le Bois"},{"_id":2800540,"coord":{"lat":50.686378,"lon":4.62038},"country":"BE","name":"Champ Laurent"},{"_id":2784870,"coord":{"lat":50.866669,"lon":4.3},"country":"BE","name":"Vergadering"},{"_id":2800357,"coord":{"lat":50.683331,"lon":5.66667},"country":"BE","name":"Chertal"},{"_id":2784626,"coord":{"lat":50.532089,"lon":4.4335},"country":"BE","name":"Les Bons Villers"},{"_id":2791376,"coord":{"lat":50.50573,"lon":4.47856},"country":"BE","name":"Mellet"},{"_id":2791133,"coord":{"lat":50.446629,"lon":5.29575},"country":"BE","name":"Modave"},{"_id":2791132,"coord":{"lat":50.44614,"lon":5.29532},"country":"BE","name":"Modave"},{"_id":2793741,"coord":{"lat":50.421009,"lon":4.361},"country":"BE","name":"La Bretagne"},{"_id":2791677,"coord":{"lat":50.583328,"lon":5.9},"country":"BE","name":"Mariomont"},{"_id":2786492,"coord":{"lat":50.954899,"lon":3.65527},"country":"BE","name":"Sluis"},{"_id":2793280,"coord":{"lat":50.183331,"lon":5.6},"country":"BE","name":"La Roche-en-Ardenne"},{"_id":2793279,"coord":{"lat":50.183609,"lon":5.57547},"country":"BE","name":"La Roche-en-Ardenne"},{"_id":2800326,"coord":{"lat":50.048649,"lon":4.32106},"country":"BE","name":"Chimay"},{"_id":2800325,"coord":{"lat":50.048561,"lon":4.31712},"country":"BE","name":"Chimay"},{"_id":2801950,"coord":{"lat":49.94001,"lon":5.01646},"country":"BE","name":"Bièvre"},{"_id":2801949,"coord":{"lat":49.940861,"lon":5.01592},"country":"BE","name":"Bievre"},{"_id":2797664,"coord":{"lat":49.567581,"lon":5.69991},"country":"BE","name":"Gennevaux"},{"_id":2798666,"coord":{"lat":50.306881,"lon":4.11129},"country":"BE","name":"Erquelinnes"},{"_id":2800613,"coord":{"lat":49.5942,"lon":5.48603},"country":"BE","name":"Cawette"},{"_id":2789622,"coord":{"lat":50.682541,"lon":4.94436},"country":"BE","name":"Orp-Jauche"},{"_id":2789621,"coord":{"lat":50.703308,"lon":4.9891},"country":"BE","name":"Orp-le-Grand"},{"_id":2787316,"coord":{"lat":50.284069,"lon":6.12728},"country":"BE","name":"Saint-Vith"},{"_id":2787315,"coord":{"lat":50.28146,"lon":6.12724},"country":"BE","name":"Saint-Vith"},{"_id":2799898,"coord":{"lat":50.71315,"lon":5.72602},"country":"BE","name":"Dalhem"},{"_id":2799897,"coord":{"lat":50.71315,"lon":5.72774},"country":"BE","name":"Dalhem"},{"_id":2800220,"coord":{"lat":50.414101,"lon":3.85569},"country":"BE","name":"Colfontaine"},{"_id":2802247,"coord":{"lat":50.865669,"lon":4.29557},"country":"BE","name":"Berchem-Sainte-Agathe"},{"_id":2794073,"coord":{"lat":50.900429,"lon":5.05096},"country":"BE","name":"Kortenaken"},{"_id":2794516,"coord":{"lat":50.885441,"lon":4.99578},"country":"BE","name":"Kersbeek-Miskom"},{"_id":2790907,"coord":{"lat":50.02721,"lon":4.16648},"country":"BE","name":"Momignies"},{"_id":2790906,"coord":{"lat":50.0271,"lon":4.16519},"country":"BE","name":"Momignies"},{"_id":2793723,"coord":{"lat":50.71891,"lon":6.01313},"country":"BE","name":"La Calamine"},{"_id":2793722,"coord":{"lat":50.71809,"lon":6.01107},"country":"BE","name":"La Calamine"},{"_id":2801691,"coord":{"lat":50.73333,"lon":5.95},"country":"BE","name":"Boffereth"},{"_id":2793124,"coord":{"lat":50.65778,"lon":3.58905},"country":"BE","name":"Le But"},{"_id":7647765,"coord":{"lat":50.667141,"lon":4.55023},"country":"BE","name":"Ottignies-Louvain-la-Neuve"},{"_id":2802419,"coord":{"lat":50.468601,"lon":4.91175},"country":"BE","name":"Beez"},{"_id":2800461,"coord":{"lat":50.428421,"lon":3.95001},"country":"BE","name":"Chasse Royale"},{"_id":2789070,"coord":{"lat":50.519531,"lon":3.38476},"country":"BE","name":"Petit Howardries"},{"_id":2797484,"coord":{"lat":50.666672,"lon":4.13333},"country":"BE","name":"Gobard"},{"_id":2797454,"coord":{"lat":50.34119,"lon":3.94169},"country":"BE","name":"Goegnies-Chaussée"},{"_id":2784070,"coord":{"lat":50.346722,"lon":3.95207},"country":"BE","name":"Waréchaix"},{"_id":2784312,"coord":{"lat":49.86742,"lon":4.9375},"country":"BE","name":"Vresse-sur-Semois"},{"_id":2784311,"coord":{"lat":49.866669,"lon":4.93333},"country":"BE","name":"Vresse-sur-Semois"},{"_id":2785456,"coord":{"lat":50.529739,"lon":5.26176},"country":"BE","name":"Tihange"},{"_id":2791389,"coord":{"lat":50.843021,"lon":5.03826},"country":"BE","name":"Linter"},{"_id":2789615,"coord":{"lat":50.805279,"lon":5.06178},"country":"BE","name":"Orsmaal-Gussenhoven"},{"_id":2793464,"coord":{"lat":49.533329,"lon":5.48333},"country":"BE","name":"Rouvroy"},{"_id":2796520,"coord":{"lat":49.536179,"lon":5.49877},"country":"BE","name":"Harnoncourt"},{"_id":2802359,"coord":{"lat":50.471378,"lon":4.82935},"country":"BE","name":"Belgrade"},{"_id":2798361,"coord":{"lat":50.73333,"lon":3.23333},"country":"BE","name":"Festingue"},{"_id":2793660,"coord":{"lat":50.422352,"lon":4.40629},"country":"BE","name":"La Docherie"},{"_id":2790805,"coord":{"lat":50.380058,"lon":4.37754},"country":"BE","name":"Montigny-le-Tilleul"},{"_id":2790804,"coord":{"lat":50.380562,"lon":4.37582},"country":"BE","name":"Montigny-le-Tilleul"},{"_id":2789837,"coord":{"lat":50.603352,"lon":5.45802},"country":"BE","name":"Oneux"},{"_id":2787968,"coord":{"lat":50.62756,"lon":5.60578},"country":"BE","name":"Robermont"},{"_id":2795074,"coord":{"lat":50.73333,"lon":6.05},"country":"BE","name":"Im Grünenthal"},{"_id":2795913,"coord":{"lat":50.641129,"lon":5.79606},"country":"BE","name":"Herve"},{"_id":2800575,"coord":{"lat":50.631828,"lon":5.83478},"country":"BE","name":"Chaineux"},{"_id":2793323,"coord":{"lat":50.30912,"lon":3.72981},"country":"BE","name":"La Perche Rompue"},{"_id":2798674,"coord":{"lat":50.45116,"lon":4.90557},"country":"BE","name":"Erpent"},{"_id":2800223,"coord":{"lat":50.618629,"lon":5.5567},"country":"BE","name":"Cointe"},{"_id":2793748,"coord":{"lat":49.966591,"lon":4.36067},"country":"BE","name":"La Bouverie"},{"_id":2791745,"coord":{"lat":50.200001,"lon":5.33333},"country":"BE","name":"Marche-en-Famenne"},{"_id":2784211,"coord":{"lat":50.209148,"lon":5.34174},"country":"BE","name":"Waha"},{"_id":2800825,"coord":{"lat":50.666672,"lon":3.23333},"country":"BE","name":"Bucquoi"},{"_id":6957760,"coord":{"lat":50.349998,"lon":4.11667},"country":"BE","name":"Rivreulle"},{"_id":2800377,"coord":{"lat":49.558262,"lon":5.54988},"country":"BE","name":"Chenois"},{"_id":2788449,"coord":{"lat":50.716671,"lon":3.26667},"country":"BE","name":"Quevaucamps"},{"_id":2800866,"coord":{"lat":50.850449,"lon":4.34878},"country":"BE","name":"Brussels"},{"_id":2797714,"coord":{"lat":50.561001,"lon":4.697},"country":"BE","name":"Gembloux"},{"_id":2797233,"coord":{"lat":50.556961,"lon":4.67528},"country":"BE","name":"Grand-Manil"},{"_id":2792552,"coord":{"lat":50.42786,"lon":5.01211},"country":"BE","name":"Les Tombes"},{"_id":2796305,"coord":{"lat":50.163681,"lon":4.83205},"country":"BE","name":"Heer"},{"_id":2796025,"coord":{"lat":50.400002,"lon":4.23333},"country":"BE","name":"Herchies"},{"_id":2789528,"coord":{"lat":50.83263,"lon":3.65335},"country":"BE","name":"Arrondissement Oudenaarde"},{"_id":2790540,"coord":{"lat":50.883331,"lon":3.73333},"country":"BE","name":"Zwalm"},{"_id":2790399,"coord":{"lat":50.883331,"lon":3.68333},"country":"BE","name":"Nederzwalm-Hermelgem"},{"_id":2798565,"coord":{"lat":50.646469,"lon":5.70783},"country":"BE","name":"Évegnée-Tignée"},{"_id":2787939,"coord":{"lat":50.756882,"lon":5.59444},"country":"BE","name":"Roclenge-sur-Geer"},{"_id":2803195,"coord":{"lat":50.435249,"lon":4.92669},"country":"BE","name":"Andoy"},{"_id":2785189,"coord":{"lat":50.62841,"lon":4.39305},"country":"BE","name":"Trou du Bois"},{"_id":2802253,"coord":{"lat":50.653221,"lon":3.624},"country":"BE","name":"Berceau"},{"_id":2798310,"coord":{"lat":50.602421,"lon":5.44321},"country":"BE","name":"Flémalle"},{"_id":7729847,"coord":{"lat":50.60223,"lon":5.44355},"country":"BE","name":"Flémalle"},{"_id":2788705,"coord":{"lat":50.800209,"lon":3.14664},"country":"BE","name":"Posthoornhoek"},{"_id":2801484,"coord":{"lat":50.97961,"lon":4.5728},"country":"BE","name":"Boortmeerbeek"},{"_id":2801483,"coord":{"lat":50.97929,"lon":4.57443},"country":"BE","name":"Boortmeerbeek"},{"_id":2788305,"coord":{"lat":51.205799,"lon":2.862},"country":"BE","name":"Raversijde"},{"_id":2787297,"coord":{"lat":50.833328,"lon":3.2},"country":"BE","name":"Salinus"},{"_id":2786125,"coord":{"lat":50.918781,"lon":4.51143},"country":"BE","name":"Steenokkerzeel"},{"_id":2791368,"coord":{"lat":50.915588,"lon":4.47985},"country":"BE","name":"Melsbroek"},{"_id":2784234,"coord":{"lat":51.183331,"lon":4.45},"country":"BE","name":"Waasdonk"},{"_id":2783081,"coord":{"lat":51.219791,"lon":4.32664},"country":"BE","name":"Zwijndrecht"},{"_id":2783089,"coord":{"lat":50.812679,"lon":3.33848},"country":"BE","name":"Zwevegem"},{"_id":2783175,"coord":{"lat":50.86956,"lon":3.81052},"country":"BE","name":"Zottegem"},{"_id":2783188,"coord":{"lat":50.990639,"lon":5.36819},"country":"BE","name":"Zonhoven"},{"_id":2783204,"coord":{"lat":51.26825,"lon":4.71296},"country":"BE","name":"Zoersel"},{"_id":2783274,"coord":{"lat":50.983181,"lon":4.46079},"country":"BE","name":"Zemst"},{"_id":2783293,"coord":{"lat":51.065659,"lon":4.0403},"country":"BE","name":"Zele"},{"_id":2783308,"coord":{"lat":51.142361,"lon":3.1368},"country":"BE","name":"Zedelgem"},{"_id":2783416,"coord":{"lat":51.392139,"lon":4.59546},"country":"BE","name":"Wuustwezel"},{"_id":2783632,"coord":{"lat":51.06041,"lon":4.36019},"country":"BE","name":"Willebroek"},{"_id":2783759,"coord":{"lat":50.799999,"lon":3.16667},"country":"BE","name":"Wevelgem"},{"_id":2783763,"coord":{"lat":51.00526,"lon":3.88341},"country":"BE","name":"Wetteren"},{"_id":2783820,"coord":{"lat":50.780689,"lon":3.03854},"country":"BE","name":"Wervik"},{"_id":2783941,"coord":{"lat":50.717171,"lon":4.60138},"country":"BE","name":"Wavre"},{"_id":2783985,"coord":{"lat":50.712551,"lon":4.4014},"country":"BE","name":"Waterloo"},{"_id":2784068,"coord":{"lat":50.888981,"lon":3.42756},"country":"BE","name":"Waregem"},{"_id":2785169,"coord":{"lat":50.69059,"lon":4.2009},"country":"BE","name":"Tubize"},{"_id":2785364,"coord":{"lat":51.065601,"lon":3.10085},"country":"BE","name":"Torhout"},{"_id":2785470,"coord":{"lat":50.807442,"lon":4.9378},"country":"BE","name":"Tienen"},{"_id":2785476,"coord":{"lat":50.99931,"lon":3.32707},"country":"BE","name":"Tielt"},{"_id":2785612,"coord":{"lat":51.065128,"lon":5.08856},"country":"BE","name":"Tessenderlo"},{"_id":2785778,"coord":{"lat":51.127941,"lon":4.21372},"country":"BE","name":"Temse"},{"_id":2786087,"coord":{"lat":51.2099,"lon":4.0365},"country":"BE","name":"Stekene"},{"_id":2786344,"coord":{"lat":50.61385,"lon":5.74679},"country":"BE","name":"Soumagne"},{"_id":2786545,"coord":{"lat":50.816792,"lon":5.18647},"country":"BE","name":"Sint-Truiden"},{"_id":2786559,"coord":{"lat":50.779259,"lon":4.24355},"country":"BE","name":"Sint-Pieters-Leeuw"},{"_id":2786578,"coord":{"lat":51.165089,"lon":4.1437},"country":"BE","name":"Sint-Niklaas"},{"_id":2786641,"coord":{"lat":51.06691,"lon":4.53469},"country":"BE","name":"Sint-Katelijne-Waver"},{"_id":2786694,"coord":{"lat":51.219139,"lon":4.12374},"country":"BE","name":"Sint-Gillis-Waas"},{"_id":2786700,"coord":{"lat":50.746449,"lon":4.35754},"country":"BE","name":"Sint-Genesius-Rode"},{"_id":2786824,"coord":{"lat":50.583618,"lon":5.50115},"country":"BE","name":"Seraing"},{"_id":2786963,"coord":{"lat":51.25251,"lon":4.50268},"country":"BE","name":"Schoten"},{"_id":2787048,"coord":{"lat":51.24107,"lon":4.58336},"country":"BE","name":"Schilde"},{"_id":2787356,"coord":{"lat":50.628368,"lon":5.53243},"country":"BE","name":"Saint-Nicolas"},{"_id":2787662,"coord":{"lat":50.953018,"lon":4.71665},"country":"BE","name":"Rotselaar"},{"_id":2787889,"coord":{"lat":50.946529,"lon":3.12269},"country":"BE","name":"Roeselare"},{"_id":2788088,"coord":{"lat":50.809952,"lon":5.60131},"country":"BE","name":"Riemst"},{"_id":2788348,"coord":{"lat":51.189831,"lon":4.56533},"country":"BE","name":"Ranst"},{"_id":2788506,"coord":{"lat":51.074089,"lon":4.28844},"country":"BE","name":"Puurs"},{"_id":2788521,"coord":{"lat":51.053371,"lon":4.63263},"country":"BE","name":"Putte"},{"_id":2788726,"coord":{"lat":50.853859,"lon":2.72659},"country":"BE","name":"Poperinge"},{"_id":2788765,"coord":{"lat":50.50518,"lon":4.36887},"country":"BE","name":"Pont-a-Celles"},{"_id":2789232,"coord":{"lat":51.130299,"lon":5.45952},"country":"BE","name":"Peer"},{"_id":2789413,"coord":{"lat":50.774361,"lon":4.53461},"country":"BE","name":"Overijse"},{"_id":2789471,"coord":{"lat":50.711842,"lon":5.6468},"country":"BE","name":"Oupeye"},{"_id":2789529,"coord":{"lat":50.851681,"lon":3.60891},"country":"BE","name":"Oudenaarde"},{"_id":2789751,"coord":{"lat":51.15432,"lon":3.23128},"country":"BE","name":"Oostkamp"},{"_id":2790114,"coord":{"lat":50.827759,"lon":4.02657},"country":"BE","name":"Ninove"},{"_id":2790135,"coord":{"lat":51.160961,"lon":4.67008},"country":"BE","name":"Nijlen"},{"_id":2790357,"coord":{"lat":51.228069,"lon":5.4427},"country":"BE","name":"Neerpelt"},{"_id":2790595,"coord":{"lat":50.744968,"lon":3.20639},"country":"BE","name":"Mouscron"},{"_id":2790676,"coord":{"lat":51.166969,"lon":4.45127},"country":"BE","name":"Mortsel"},{"_id":2790869,"coord":{"lat":50.454128,"lon":3.95229},"country":"BE","name":"Mons"},{"_id":2791067,"coord":{"lat":51.191879,"lon":5.11662},"country":"BE","name":"Mol"},{"_id":2791194,"coord":{"lat":51.185322,"lon":2.82077},"country":"BE","name":"Middelkerke"},{"_id":2791424,"coord":{"lat":50.939339,"lon":4.32655},"country":"BE","name":"Meise"},{"_id":2791537,"coord":{"lat":51.025742,"lon":4.47762},"country":"BE","name":"Mechelen"},{"_id":2791857,"coord":{"lat":51.207371,"lon":3.44511},"country":"BE","name":"Maldegem"},{"_id":2791964,"coord":{"lat":51.098019,"lon":5.78379},"country":"BE","name":"Maaseik"},{"_id":2792073,"coord":{"lat":50.668289,"lon":4.61443},"country":"BE","name":"Louvain-la-Neuve"},{"_id":2792179,"coord":{"lat":51.23074,"lon":5.31349},"country":"BE","name":"Lommel"},{"_id":2792196,"coord":{"lat":51.103642,"lon":3.99339},"country":"BE","name":"Lokeren"},{"_id":2792235,"coord":{"lat":51.096439,"lon":3.83194},"country":"BE","name":"Lochristi"},{"_id":2792360,"coord":{"lat":51.24197,"lon":4.82312},"country":"BE","name":"Lille"},{"_id":2792397,"coord":{"lat":51.131279,"lon":4.57042},"country":"BE","name":"Lier"},{"_id":2793077,"coord":{"lat":50.966259,"lon":3.98594},"country":"BE","name":"Lede"},{"_id":2793144,"coord":{"lat":51.004639,"lon":4.13457},"country":"BE","name":"Lebbeke"},{"_id":2793446,"coord":{"lat":50.893181,"lon":5.6468},"country":"BE","name":"Lanaken"},{"_id":2793508,"coord":{"lat":50.486568,"lon":4.18785},"country":"BE","name":"La Louviere"},{"_id":2794070,"coord":{"lat":50.88982,"lon":4.54353},"country":"BE","name":"Kortenberg"},{"_id":2794117,"coord":{"lat":51.13213,"lon":4.44706},"country":"BE","name":"Kontich"},{"_id":2794166,"coord":{"lat":51.116421,"lon":2.63772},"country":"BE","name":"Koksijde"},{"_id":2794210,"coord":{"lat":51.349998,"lon":3.26667},"country":"BE","name":"Knokke-Heist"},{"_id":2794663,"coord":{"lat":51.24118,"lon":4.96651},"country":"BE","name":"Kasterlee"},{"_id":2794730,"coord":{"lat":51.31377,"lon":4.43539},"country":"BE","name":"Kapellen"},{"_id":2794788,"coord":{"lat":51.384418,"lon":4.47556},"country":"BE","name":"Kalmthout"},{"_id":2795009,"coord":{"lat":50.91396,"lon":3.21378},"country":"BE","name":"Izegem"},{"_id":2795100,"coord":{"lat":50.851139,"lon":2.88569},"country":"BE","name":"Ieper"},{"_id":2795261,"coord":{"lat":51.034271,"lon":5.37429},"country":"BE","name":"Houthalen"},{"_id":2795398,"coord":{"lat":51.400291,"lon":4.76034},"country":"BE","name":"Hoogstraten"},{"_id":2795730,"coord":{"lat":51.176109,"lon":4.34844},"country":"BE","name":"Hoboken"},{"_id":2795800,"coord":{"lat":51.03664,"lon":5.28013},"country":"BE","name":"Heusden"},{"_id":2795908,"coord":{"lat":50.88681,"lon":3.89014},"country":"BE","name":"Herzele"},{"_id":2795912,"coord":{"lat":50.640831,"lon":5.79353},"country":"BE","name":"Herve"},{"_id":2796009,"coord":{"lat":51.176552,"lon":4.83248},"country":"BE","name":"Herentals"},{"_id":2796012,"coord":{"lat":50.908611,"lon":4.67056},"country":"BE","name":"Herent"},{"_id":2796132,"coord":{"lat":51.055908,"lon":5.38244},"country":"BE","name":"Helchteren"},{"_id":2796153,"coord":{"lat":51.075371,"lon":4.72827},"country":"BE","name":"Heist-op-den-Berg"},{"_id":2796542,"coord":{"lat":50.853432,"lon":3.30935},"country":"BE","name":"Harelbeke"},{"_id":2796637,"coord":{"lat":51.098221,"lon":4.13705},"country":"BE","name":"Hamme"},{"_id":2796833,"coord":{"lat":50.906342,"lon":4.00093},"country":"BE","name":"Haaltert"},{"_id":2797114,"coord":{"lat":50.93409,"lon":4.37213},"country":"BE","name":"Grimbergen"},{"_id":2797638,"coord":{"lat":50.77343,"lon":3.88223},"country":"BE","name":"Geraardsbergen"},{"_id":2797713,"coord":{"lat":50.561489,"lon":4.69889},"country":"BE","name":"Gembloux"},{"_id":2797779,"coord":{"lat":51.165569,"lon":4.98917},"country":"BE","name":"Geel"},{"_id":2798297,"coord":{"lat":50.483509,"lon":4.55006},"country":"BE","name":"Fleurus"},{"_id":2798301,"coord":{"lat":50.615162,"lon":5.68062},"country":"BE","name":"Fleron"},{"_id":2798551,"coord":{"lat":51.105301,"lon":3.704},"country":"BE","name":"Evergem"},{"_id":2798573,"coord":{"lat":50.627899,"lon":6.03647},"country":"BE","name":"Eupen"},{"_id":2798615,"coord":{"lat":51.462719,"lon":4.45393},"country":"BE","name":"Essen"},{"_id":2799007,"coord":{"lat":51.15662,"lon":4.44504},"country":"BE","name":"Edegem"},{"_id":2799090,"coord":{"lat":51.095539,"lon":4.50903},"country":"BE","name":"Duffel"},{"_id":2799365,"coord":{"lat":50.847988,"lon":4.25972},"country":"BE","name":"Dilbeek"},{"_id":2799369,"coord":{"lat":51.032478,"lon":2.86384},"country":"BE","name":"Diksmuide"},{"_id":2799397,"coord":{"lat":50.989231,"lon":5.05062},"country":"BE","name":"Diest"},{"_id":2799412,"coord":{"lat":50.907688,"lon":5.41875},"country":"BE","name":"Diepenbeek"},{"_id":2799496,"coord":{"lat":51.059521,"lon":3.79899},"country":"BE","name":"Destelbergen"},{"_id":2799645,"coord":{"lat":51.02869,"lon":4.10106},"country":"BE","name":"Dendermonde"},{"_id":2799647,"coord":{"lat":50.885059,"lon":4.07601},"country":"BE","name":"Denderleeuw"},{"_id":2800481,"coord":{"lat":50.411362,"lon":4.44448},"country":"BE","name":"Charleroi"},{"_id":2801106,"coord":{"lat":51.350239,"lon":4.63829},"country":"BE","name":"Brecht"},{"_id":2801117,"coord":{"lat":51.291199,"lon":4.49182},"country":"BE","name":"Brasschaat"},{"_id":2801150,"coord":{"lat":50.609791,"lon":4.14658},"country":"BE","name":"Braine-le-Comte"},{"_id":2801447,"coord":{"lat":51.09716,"lon":4.24364},"country":"BE","name":"Bornem"},{"_id":2801494,"coord":{"lat":51.092419,"lon":4.3717},"country":"BE","name":"Boom"},{"_id":2802031,"coord":{"lat":51.211868,"lon":4.25633},"country":"BE","name":"Beveren"},{"_id":2802170,"coord":{"lat":51.049541,"lon":5.22606},"country":"BE","name":"Beringen"},{"_id":2802435,"coord":{"lat":51.319271,"lon":4.85304},"country":"BE","name":"Beerse"},{"_id":2802743,"coord":{"lat":51.168369,"lon":5.17027},"country":"BE","name":"Balen"},{"_id":2803010,"coord":{"lat":50.629372,"lon":3.77801},"country":"BE","name":"Ath"},{"_id":2803160,"coord":{"lat":50.6623,"lon":5.52029},"country":"BE","name":"Ans"},{"_id":2803448,"coord":{"lat":50.936039,"lon":4.0355},"country":"BE","name":"Aalst"},{"_id":2783144,"coord":{"lat":50.932522,"lon":5.57273},"country":"BE","name":"Zutendaal"},{"_id":2783143,"coord":{"lat":50.93306,"lon":5.5753},"country":"BE","name":"Zutendaal"},{"_id":2783154,"coord":{"lat":51.25248,"lon":3.13613},"country":"BE","name":"Zuienkerke"},{"_id":2783153,"coord":{"lat":51.26511,"lon":3.15506},"country":"BE","name":"Zuienkerke"},{"_id":2783196,"coord":{"lat":51.127682,"lon":3.55534},"country":"BE","name":"Zomergem"},{"_id":2783195,"coord":{"lat":51.119942,"lon":3.56496},"country":"BE","name":"Zomergem"},{"_id":2783216,"coord":{"lat":50.910671,"lon":3.62253},"country":"BE","name":"Zingem"},{"_id":2783215,"coord":{"lat":50.904091,"lon":3.65305},"country":"BE","name":"Zingem"},{"_id":2783279,"coord":{"lat":51.198872,"lon":3.81056},"country":"BE","name":"Zelzate"},{"_id":2783307,"coord":{"lat":51.329021,"lon":3.18188},"country":"BE","name":"Zeebrugge"},{"_id":2783348,"coord":{"lat":51.216991,"lon":4.66438},"country":"BE","name":"Zandhoven"},{"_id":2783347,"coord":{"lat":51.214882,"lon":4.66164},"country":"BE","name":"Zandhoven"},{"_id":2783385,"coord":{"lat":50.3279,"lon":4.88059},"country":"BE","name":"Yvoir"},{"_id":2783463,"coord":{"lat":51.2043,"lon":4.52431},"country":"BE","name":"Wommelgem"},{"_id":2783462,"coord":{"lat":51.204521,"lon":4.5225},"country":"BE","name":"Wommelgem"},{"_id":2783587,"coord":{"lat":51.056789,"lon":3.25259},"country":"BE","name":"Wingene"},{"_id":2783586,"coord":{"lat":51.057819,"lon":3.27359},"country":"BE","name":"Wingene"},{"_id":2783685,"coord":{"lat":51.22871,"lon":4.51607},"country":"BE","name":"Wijnegem"},{"_id":2783684,"coord":{"lat":51.227871,"lon":4.51895},"country":"BE","name":"Wijnegem"},{"_id":2783718,"coord":{"lat":50.916351,"lon":3.37132},"country":"BE","name":"Wielsbeke"},{"_id":2783729,"coord":{"lat":50.997601,"lon":3.95236},"country":"BE","name":"Wichelen"},{"_id":2783728,"coord":{"lat":51.00526,"lon":3.97683},"country":"BE","name":"Wichelen"},{"_id":2783855,"coord":{"lat":51.272011,"lon":3.04287},"country":"BE","name":"De Haan"},{"_id":2783854,"coord":{"lat":51.298302,"lon":3.08213},"country":"BE","name":"Wenduine"},{"_id":2783865,"coord":{"lat":50.842049,"lon":5.33644},"country":"BE","name":"Wellen"},{"_id":2783864,"coord":{"lat":50.840961,"lon":5.33867},"country":"BE","name":"Wellen"},{"_id":2783871,"coord":{"lat":50.662739,"lon":5.9733},"country":"BE","name":"Welkenraedt"},{"_id":2783870,"coord":{"lat":50.6605,"lon":5.97034},"country":"BE","name":"Welkenraedt"},{"_id":2784011,"coord":{"lat":50.623661,"lon":5.00616},"country":"BE","name":"Wasseiges"},{"_id":2784010,"coord":{"lat":50.621861,"lon":5.00528},"country":"BE","name":"Wasseiges"},{"_id":2797322,"coord":{"lat":50.697929,"lon":5.25601},"country":"BE","name":"Waremme"},{"_id":2784066,"coord":{"lat":50.697601,"lon":5.25524},"country":"BE","name":"Waremme"},{"_id":2784093,"coord":{"lat":50.539509,"lon":5.20924},"country":"BE","name":"Wanze"},{"_id":2784092,"coord":{"lat":50.53907,"lon":5.20846},"country":"BE","name":"Wanze"},{"_id":2784168,"coord":{"lat":50.62627,"lon":4.69837},"country":"BE","name":"Walhain-Saint-Paul"},{"_id":2784228,"coord":{"lat":51.17881,"lon":3.87247},"country":"BE","name":"Wachtebeke"},{"_id":2784227,"coord":{"lat":51.168522,"lon":3.87183},"country":"BE","name":"Wachtebeke"},{"_id":2784232,"coord":{"lat":51.118839,"lon":4.07734},"country":"BE","name":"Waasmunster"},{"_id":2784231,"coord":{"lat":51.105721,"lon":4.08573},"country":"BE","name":"Waasmunster"},{"_id":2784238,"coord":{"lat":51.15329,"lon":3.60726},"country":"BE","name":"Waarschoot"},{"_id":2784237,"coord":{"lat":51.1525,"lon":3.605},"country":"BE","name":"Waarschoot"},{"_id":2784371,"coord":{"lat":51.20285,"lon":4.7709},"country":"BE","name":"Vorselaar"},{"_id":2784370,"coord":{"lat":51.202431,"lon":4.77259},"country":"BE","name":"Vorselaar"},{"_id":2784642,"coord":{"lat":50.583328,"lon":4.53333},"country":"BE","name":"Villers-la-Ville"},{"_id":2784641,"coord":{"lat":50.566669,"lon":4.51667},"country":"BE","name":"Villers-la-Ville"},{"_id":2784859,"coord":{"lat":50.607479,"lon":5.31893},"country":"BE","name":"Verlaine"},{"_id":2784856,"coord":{"lat":50.60743,"lon":5.3174},"country":"BE","name":"Verlaine"},{"_id":2784999,"coord":{"lat":49.911549,"lon":5.57436},"country":"BE","name":"Vaux-sur-Sûre"},{"_id":2784994,"coord":{"lat":49.910999,"lon":5.57848},"country":"BE","name":"Vaux-sur-Sure"},{"_id":2798035,"coord":{"lat":50.570259,"lon":5.69384},"country":"BE","name":"Trooz"},{"_id":2785208,"coord":{"lat":50.570259,"lon":5.69521},"country":"BE","name":"Trooz"},{"_id":2784103,"coord":{"lat":50.372211,"lon":5.87159},"country":"BE","name":"Trois-Ponts"},{"_id":2785223,"coord":{"lat":50.371281,"lon":5.87146},"country":"BE","name":"Trois-Ponts"},{"_id":2785294,"coord":{"lat":50.992371,"lon":4.70618},"country":"BE","name":"Tremelo"},{"_id":2785293,"coord":{"lat":50.99231,"lon":4.70807},"country":"BE","name":"Tremelo"},{"_id":2786426,"coord":{"lat":50.475151,"lon":5.37841},"country":"BE","name":"Tinlot"},{"_id":2785427,"coord":{"lat":50.47493,"lon":5.37755},"country":"BE","name":"Tinlot"},{"_id":2785518,"coord":{"lat":50.339489,"lon":4.28484},"country":"BE","name":"Thuin"},{"_id":2785517,"coord":{"lat":50.339329,"lon":4.28604},"country":"BE","name":"Thuin"},{"_id":2785656,"coord":{"lat":50.866669,"lon":4.18333},"country":"BE","name":"Ternat"},{"_id":2785654,"coord":{"lat":50.866539,"lon":4.16682},"country":"BE","name":"Ternat"},{"_id":2785990,"coord":{"lat":50.409061,"lon":5.80868},"country":"BE","name":"Stoumont"},{"_id":2785989,"coord":{"lat":50.40667,"lon":5.80838},"country":"BE","name":"Stoumont"},{"_id":2786124,"coord":{"lat":50.91851,"lon":4.50989},"country":"BE","name":"Steenokkerzeel"},{"_id":2786186,"coord":{"lat":50.392979,"lon":5.93433},"country":"BE","name":"Stavelot"},{"_id":2786185,"coord":{"lat":50.395,"lon":5.93124},"country":"BE","name":"Stavelot"},{"_id":2786227,"coord":{"lat":50.950439,"lon":3.01828},"country":"BE","name":"Staden"},{"_id":2786226,"coord":{"lat":50.97456,"lon":3.01468},"country":"BE","name":"Staden"},{"_id":2786244,"coord":{"lat":50.507969,"lon":5.65993},"country":"BE","name":"Sprimont"},{"_id":2786242,"coord":{"lat":50.50922,"lon":5.6595},"country":"BE","name":"Sprimont"},{"_id":2786319,"coord":{"lat":50.485909,"lon":5.86464},"country":"BE","name":"Spa"},{"_id":2786318,"coord":{"lat":50.483749,"lon":5.86674},"country":"BE","name":"Spa"},{"_id":2786390,"coord":{"lat":50.528648,"lon":4.60087},"country":"BE","name":"Sombreffe"},{"_id":2786592,"coord":{"lat":51.008381,"lon":3.62266},"country":"BE","name":"Sint-Martens-Latem"},{"_id":2786591,"coord":{"lat":51.014591,"lon":3.63779},