{"countryCode":"BE","countryName":"Belgium","countryFilePath":"BE.json","countryCityList":[{"_id":2784549,"name":"Visé","country":"BE","coord":{"lon":5.7019,"lat":50.738628}},{"_id":2793079,"name":"Lede","country":"BE","coord":{"lon":3.94544,"lat":50.962582}},{"_id":2795101,"name":"Ieper","country":"BE","coord":{"lon":2.86733,"lat":50.85704}},{"_id":2787891,"name":"Roeselare","country":"BE","coord":{"lon":3.13333,"lat":50.950001}},{"_id":2788507,"name":"Puurs","country":"BE","coord":{"lon":4.28999,"lat":51.075001}},{"_id":2787814,"name":"Rommelaar","country":"BE","coord":{"lon":4.89558,"lat":50.98872}},{"_id":2784199,"name":"Waimes","country":"BE","coord":{"lon":6.11207,"lat":50.414879}},{"_id":2784107,"name":"Wangenies","country":"BE","coord":{"lon":4.52019,"lat":50.480228}},{"_id":2785110,"name":"Uilenhoek","country":"BE","coord":{"lon":3.96667,"lat":50.966671}},{"_id":2801423,"name":"Bos","country":"BE","coord":{"lon":4.71667,"lat":51.066669}},{"_id":2788313,"name":"Ravels","country":"BE","coord":{"lon":4.99037,"lat":51.37199}},{"_id":2786459,"name":"Smoorken","country":"BE","coord":{"lon":3.41667,"lat":50.883331}},{"_id":2800482,"name":"Charleroi","country":"BE","coord":{"lon":4.44654,"lat":50.412998}},{"_id":2786421,"name":"Soignies","country":"BE","coord":{"lon":4.04431,"lat":50.56358}},{"_id":2784803,"name":"Arrondissement Veurne","country":"BE","coord":{"lon":2.6706,"lat":51.05558}},{"_id":2784805,"name":"Veurne","country":"BE","coord":{"lon":2.67484,"lat":51.052021}},{"_id":2784804,"name":"Veurne","country":"BE","coord":{"lon":2.66238,"lat":51.072311}},{"_id":2792412,"name":"Arrondissement de Liège","country":"BE","coord":{"lon":5.56509,"lat":50.633781}},{"_id":2792414,"name":"Liège","country":"BE","coord":{"lon":5.56667,"lat":50.633331}},{"_id":2793643,"name":"La Ferté","country":"BE","coord":{"lon":4.41667,"lat":50.466671}},{"_id":2800930,"name":"Arrondissement Brugge","country":"BE","coord":{"lon":3.21667,"lat":51.200001}},{"_id":2800935,"name":"Brugge","country":"BE","coord":{"lon":3.21667,"lat":51.25}},{"_id":2803444,"name":"Aalter","country":"BE","coord":{"lon":3.43333,"lat":51.083328}},{"_id":2791316,"name":"Merelbeke","country":"BE","coord":{"lon":3.74366,"lat":50.972641}},{"_id":2790100,"name":"Arrondissement de Nivelles","country":"BE","coord":{"lon":4.31667,"lat":50.599998}},{"_id":2790102,"name":"Nivelles","country":"BE","coord":{"lon":4.32733,"lat":50.59877}},{"_id":2797671,"name":"Genk","country":"BE","coord":{"lon":5.5,"lat":50.966671}},{"_id":2789200,"name":"Pennepoel","country":"BE","coord":{"lon":4.47549,"lat":51.037788}},{"_id":2784975,"name":"Veeweide","country":"BE","coord":{"lon":4.3,"lat":50.833328}},{"_id":2794017,"name":"Kraainem","country":"BE","coord":{"lon":4.47178,"lat":50.861992}},{"_id":2794016,"name":"Kraainem","country":"BE","coord":{"lon":4.46946,"lat":50.861549}},{"_id":2784822,"name":"Verviers","country":"BE","coord":{"lon":5.86667,"lat":50.583328}},{"_id":2789738,"name":"Oostrozebeke","country":"BE","coord":{"lon":3.34003,"lat":50.929611}},{"_id":2803421,"name":"Aartselaar","country":"BE","coord":{"lon":4.38269,"lat":51.135422}},{"_id":2800782,"name":"Bullange","country":"BE","coord":{"lon":6.25749,"lat":50.40731}},{"_id":2795011,"name":"Ixelles","country":"BE","coord":{"lon":4.36667,"lat":50.833328}},{"_id":2793442,"name":"Lanceaumont","country":"BE","coord":{"lon":5.96455,"lat":50.654629}},{"_id":2785623,"name":"Tervuren","country":"BE","coord":{"lon":4.51667,"lat":50.816669}},{"_id":2803074,"name":"Arlon","country":"BE","coord":{"lon":5.81667,"lat":49.683331}},{"_id":2787498,"name":"Ruyff","country":"BE","coord":{"lon":5.93333,"lat":50.616669}},{"_id":2795931,"name":"Herstal","country":"BE","coord":{"lon":5.62569,"lat":50.664478}},{"_id":2803183,"name":"Angleur","country":"BE","coord":{"lon":5.59942,"lat":50.611301}},{"_id":2786548,"name":"Sint-Stevens-Woluwe","country":"BE","coord":{"lon":4.45195,"lat":50.868382}},{"_id":2783737,"name":"Wezembeek-Oppem","country":"BE","coord":{"lon":4.49427,"lat":50.8395}},{"_id":2792008,"name":"Lummen","country":"BE","coord":{"lon":5.1943,"lat":50.988041}},{"_id":2783856,"name":"Wemmel","country":"BE","coord":{"lon":4.30613,"lat":50.908119}},{"_id":2783213,"name":"Zittaard","country":"BE","coord":{"lon":5.10742,"lat":50.944801}},{"_id":2802584,"name":"Bastogne","country":"BE","coord":{"lon":5.71667,"lat":50.0}},{"_id":2792119,"name":"Lontzen","country":"BE","coord":{"lon":6.00712,"lat":50.681259}},{"_id":2802627,"name":"Basse Awirs","country":"BE","coord":{"lon":5.41524,"lat":50.58654}},{"_id":2802051,"name":"Bever","country":"BE","coord":{"lon":4.31667,"lat":50.916672}},{"_id":2792135,"name":"Longtain","country":"BE","coord":{"lon":4.2,"lat":50.48333}},{"_id":2790793,"name":"Montils","country":"BE","coord":{"lon":3.85,"lat":50.599998}},{"_id":2785879,"name":"Sur le Stockeu","country":"BE","coord":{"lon":5.93338,"lat":50.38982}},{"_id":2784373,"name":"Voroux-lez-Liers","country":"BE","coord":{"lon":5.5544,"lat":50.68745}},{"_id":2795818,"name":"Heulen","country":"BE","coord":{"lon":4.25969,"lat":50.342159}},{"_id":2796057,"name":"Hensies","country":"BE","coord":{"lon":3.68566,"lat":50.433182}},{"_id":2790015,"name":"Nothomb","country":"BE","coord":{"lon":5.78773,"lat":49.771561}},{"_id":2791643,"name":"Martelange","country":"BE","coord":{"lon":5.73881,"lat":49.83234}},{"_id":2798594,"name":"Étalle","country":"BE","coord":{"lon":5.61667,"lat":49.666672}},{"_id":2800026,"name":"Couvin","country":"BE","coord":{"lon":4.49306,"lat":50.052898}},{"_id":2788187,"name":"Rendeux","country":"BE","coord":{"lon":5.5,"lat":50.23333}},{"_id":2802248,"name":"Sint-Agatha-Berchem","country":"BE","coord":{"lon":4.28333,"lat":50.866669}},{"_id":2787601,"name":"Royère","country":"BE","coord":{"lon":3.26667,"lat":50.683331}},{"_id":6957848,"name":"Courtil Gras","country":"BE","coord":{"lon":3.76667,"lat":50.583328}},{"_id":2784548,"name":"Vise","country":"BE","coord":{"lon":5.69907,"lat":50.737598}},{"_id":2785779,"name":"Temse","country":"BE","coord":{"lon":4.2085,"lat":51.134541}},{"_id":2787769,"name":"Ronse","country":"BE","coord":{"lon":3.6005,"lat":50.745739}},{"_id":2788499,"name":"Quaregnon","country":"BE","coord":{"lon":3.8653,"lat":50.44067}},{"_id":2789162,"name":"Peruwelz","country":"BE","coord":{"lon":3.59373,"lat":50.50819}},{"_id":2789530,"name":"Oudenaarde","country":"BE","coord":{"lon":3.62474,"lat":50.856701}},{"_id":2791814,"name":"Manage","country":"BE","coord":{"lon":4.23589,"lat":50.50312}},{"_id":2783278,"name":"Zelzate","country":"BE","coord":{"lon":3.80777,"lat":51.189629}},{"_id":2783717,"name":"Wielsbeke","country":"BE","coord":{"lon":3.36667,"lat":50.900002}},{"_id":2784350,"name":"Vosselaar","country":"BE","coord":{"lon":4.88806,"lat":51.307442}},{"_id":2784349,"name":"Vosselaar","country":"BE","coord":{"lon":4.8896,"lat":51.308559}},{"_id":2786588,"name":"Lennik","country":"BE","coord":{"lon":4.16313,"lat":50.808922}},{"_id":2786587,"name":"Sint-Martens-Lennik","country":"BE","coord":{"lon":4.16965,"lat":50.811581}},{"_id":2789167,"name":"Perre","country":"BE","coord":{"lon":3.86098,"lat":50.889141}},{"_id":2790179,"name":"Nieuwerkerken","country":"BE","coord":{"lon":5.19467,"lat":50.8638}},{"_id":2792423,"name":"Liedekerke","country":"BE","coord":{"lon":4.08743,"lat":50.868919}},{"_id":2793733,"name":"La Bruyere","country":"BE","coord":{"lon":4.61444,"lat":50.394779}},{"_id":2796085,"name":"Hemiksem","country":"BE","coord":{"lon":4.33874,"lat":51.14484}},{"_id":2797771,"name":"Geer","country":"BE","coord":{"lon":5.17465,"lat":50.669861}},{"_id":2799511,"name":"Dessel","country":"BE","coord":{"lon":5.11448,"lat":51.238548}},{"_id":2799798,"name":"Deerlijk","country":"BE","coord":{"lon":3.3651,"lat":50.842621}},{"_id":2800591,"name":"Cerfontaine","country":"BE","coord":{"lon":4.41028,"lat":50.170471}},{"_id":2801438,"name":"Borsbeek","country":"BE","coord":{"lon":4.48543,"lat":51.196609}},{"_id":2801539,"name":"Bonheiden","country":"BE","coord":{"lon":4.54714,"lat":51.02261}},{"_id":2802681,"name":"Blégny","country":"BE","coord":{"lon":5.72396,"lat":50.672798}},{"_id":2802849,"name":"Awans","country":"BE","coord":{"lon":5.46329,"lat":50.66774}},{"_id":2803323,"name":"Aiseau","country":"BE","coord":{"lon":4.58671,"lat":50.411579}},{"_id":7667505,"name":"Laakdal","country":"BE","coord":{"lon":5.00556,"lat":51.080669}},{"_id":2796157,"name":"Heist","country":"BE","coord":{"lon":3.23882,"lat":51.338669}},{"_id":2801958,"name":"Biest","country":"BE","coord":{"lon":4.82351,"lat":50.947128}},{"_id":2785140,"name":"Arrondissement Turnhout","country":"BE","coord":{"lon":4.94007,"lat":51.32439}},{"_id":2798863,"name":"Ekstergoor","country":"BE","coord":{"lon":4.78333,"lat":51.333328}},{"_id":2802399,"name":"Begijnhof 's Wijk","country":"BE","coord":{"lon":3.75,"lat":51.049999}},{"_id":2799925,"name":"Cureghem","country":"BE","coord":{"lon":4.33333,"lat":50.833328}},{"_id":2786419,"name":"Arrondissement de Soignies","country":"BE","coord":{"lon":4.00401,"lat":50.62851}},{"_id":2783311,"name":"Zaventem","country":"BE","coord":{"lon":4.47504,"lat":50.883221}},{"_id":2784897,"name":"Venitiaanseheide","country":"BE","coord":{"lon":4.45856,"lat":51.46246}},{"_id":2800558,"name":"Champ de Mai","country":"BE","coord":{"lon":4.38582,"lat":50.712978}},{"_id":2784605,"name":"Vilvoorde","country":"BE","coord":{"lon":4.4323,"lat":50.928902}},{"_id":2789787,"name":"Oostende","country":"BE","coord":{"lon":3.46667,"lat":50.76667}},{"_id":2785142,"name":"Turnhout","country":"BE","coord":{"lon":4.94831,"lat":51.323101}},{"_id":2785321,"name":"Trahison","country":"BE","coord":{"lon":4.01667,"lat":50.633331}},{"_id":2796467,"name":"Haureux","country":"BE","coord":{"lon":3.21667,"lat":50.73333}},{"_id":2792432,"name":"Lichtenberg","country":"BE","coord":{"lon":5.20017,"lat":50.80534}},{"_id":2794860,"name":"Jumet","country":"BE","coord":{"lon":4.43745,"lat":50.4422}},{"_id":2796492,"name":"Hasselt","country":"BE","coord":{"lon":5.33266,"lat":50.93182}},{"_id":2793107,"name":"Le Chenia","country":"BE","coord":{"lon":4.25,"lat":50.51667}},{"_id":2794056,"name":"Kortrijk","country":"BE","coord":{"lon":3.26459,"lat":50.82811}},{"_id":2789882,"name":"Oliehoek","country":"BE","coord":{"lon":3.6,"lat":50.849998}},{"_id":2790472,"name":"Namur","country":"BE","coord":{"lon":4.86729,"lat":50.468208}},{"_id":2800783,"name":"Bullange","country":"BE","coord":{"lon":6.25929,"lat":50.40781}},{"_id":2795012,"name":"Elsene","country":"BE","coord":{"lon":4.36667,"lat":50.833328}},{"_id":2783160,"name":"Zuidhoek","country":"BE","coord":{"lon":3.13333,"lat":50.950001}},{"_id":2785662,"name":"Termeulen","country":"BE","coord":{"lon":4.35,"lat":50.75}},{"_id":2803072,"name":"Arrondissement d'Arlon","country":"BE","coord":{"lon":5.81778,"lat":49.68351}},{"_id":2791825,"name":"Malplaqués","country":"BE","coord":{"lon":4.68333,"lat":50.566669}},{"_id":2785762,"name":"Tenderlo","country":"BE","coord":{"lon":5.15,"lat":51.166672}},{"_id":2786031,"name":"Stockem","country":"BE","coord":{"lon":6.02961,"lat":50.63155}},{"_id":2783738,"name":"Wezembeek-Oppem","country":"BE","coord":{"lon":4.5,"lat":50.833328}},{"_id":2787990,"name":"Rixensart","country":"BE","coord":{"lon":4.53333,"lat":50.716671}},{"_id":2783857,"name":"Wemmel","country":"BE","coord":{"lon":4.3,"lat":50.916672}},{"_id":2802582,"name":"Arrondissement de Bastogne","country":"BE","coord":{"lon":5.71667,"lat":50.0}},{"_id":2792120,"name":"Lontzen","country":"BE","coord":{"lon":6.00729,"lat":50.681561}},{"_id":2801925,"name":"Bilzen","country":"BE","coord":{"lon":5.51625,"lat":50.872978}},{"_id":2798204,"name":"Fond Saint-Roch","country":"BE","coord":{"lon":5.38333,"lat":50.01667}},{"_id":2800936,"name":"Brugelette","country":"BE","coord":{"lon":3.85363,"lat":50.595772}},{"_id":2790914,"name":"Molsveld","country":"BE","coord":{"lon":5.10066,"lat":51.185749}},{"_id":2803003,"name":"Atrin","country":"BE","coord":{"lon":5.37258,"lat":50.417198}},{"_id":2802251,"name":"Berchem","country":"BE","coord":{"lon":3.51317,"lat":50.790169}},{"_id":2793529,"name":"L'aisette","country":"BE","coord":{"lon":3.86684,"lat":50.395931}},{"_id":2797926,"name":"Froidmanteau","country":"BE","coord":{"lon":3.53861,"lat":50.610371}},{"_id":2797481,"name":"Goberwelz","country":"BE","coord":{"lon":3.77183,"lat":50.6549}},{"_id":2783090,"name":"Zwevegem","country":"BE","coord":{"lon":3.37671,"lat":50.78297}},{"_id":2783176,"name":"Zottegem","country":"BE","coord":{"lon":3.80897,"lat":50.866219}},{"_id":2783189,"name":"Zonhoven","country":"BE","coord":{"lon":5.37094,"lat":50.99139}},{"_id":2783205,"name":"Zoersel","country":"BE","coord":{"lon":4.71262,"lat":51.267502}},{"_id":2783275,"name":"Zemst","country":"BE","coord":{"lon":4.45882,"lat":50.983452}},{"_id":2783294,"name":"Zele","country":"BE","coord":{"lon":4.03492,"lat":51.067009}},{"_id":2783309,"name":"Zedelgem","country":"BE","coord":{"lon":3.13719,"lat":51.12616}},{"_id":2783417,"name":"Wuustwezel","country":"BE","coord":{"lon":4.59392,"lat":51.391918}},{"_id":2783633,"name":"Willebroek","country":"BE","coord":{"lon":4.36466,"lat":51.060822}},{"_id":2783760,"name":"Wevelgem","country":"BE","coord":{"lon":3.17178,"lat":50.832458}},{"_id":2783764,"name":"Wetteren","country":"BE","coord":{"lon":3.87212,"lat":50.99342}},{"_id":2783821,"name":"Wervik","country":"BE","coord":{"lon":3.05762,"lat":50.80798}},{"_id":2783942,"name":"Wavre","country":"BE","coord":{"lon":4.6,"lat":50.73333}},{"_id":2783986,"name":"Waterloo","country":"BE","coord":{"lon":4.40446,"lat":50.709438}},{"_id":2784069,"name":"Waregem","country":"BE","coord":{"lon":3.40259,"lat":50.881062}},{"_id":2784190,"name":"Walcourt","country":"BE","coord":{"lon":4.43521,"lat":50.253899}},{"_id":2784189,"name":"Walcourt","country":"BE","coord":{"lon":4.43796,"lat":50.254009}},{"_id":2785170,"name":"Tubize","country":"BE","coord":{"lon":4.20691,"lat":50.690369}},{"_id":2785365,"name":"Torhout","country":"BE","coord":{"lon":3.09841,"lat":51.06065}},{"_id":2785471,"name":"Tienen","country":"BE","coord":{"lon":4.94179,"lat":50.807671}},{"_id":2785478,"name":"Tielt","country":"BE","coord":{"lon":3.36718,"lat":51.00375}},{"_id":2785613,"name":"Tessenderlo","country":"BE","coord":{"lon":5.08667,"lat":51.06546}},{"_id":2786577,"name":"Arrondissement Sint-Niklaas","country":"BE","coord":{"lon":4.13447,"lat":51.199581}},{"_id":2786088,"name":"Stekene","country":"BE","coord":{"lon":4.03347,"lat":51.21476}},{"_id":2786345,"name":"Soumagne","country":"BE","coord":{"lon":5.74825,"lat":50.615162}},{"_id":2786546,"name":"Sint-Truiden","country":"BE","coord":{"lon":5.184,"lat":50.815369}},{"_id":2786560,"name":"Sint-Pieters-Leeuw","country":"BE","coord":{"lon":4.24752,"lat":50.789581}},{"_id":2786579,"name":"Sint-Niklaas","country":"BE","coord":{"lon":4.10893,"lat":51.159969}},{"_id":2786695,"name":"Sint-Gillis-Waas","country":"BE","coord":{"lon":4.12064,"lat":51.228001}},{"_id":2786701,"name":"Sint-Genesius-Rode","country":"BE","coord":{"lon":4.375,"lat":50.745499}},{"_id":2786825,"name":"Seraing","country":"BE","coord":{"lon":5.5,"lat":50.583328}},{"_id":2786964,"name":"Schoten","country":"BE","coord":{"lon":4.50354,"lat":51.253639}},{"_id":2787049,"name":"Schilde","country":"BE","coord":{"lon":4.5813,"lat":51.24107}},{"_id":2787357,"name":"Saint-Nicolas","country":"BE","coord":{"lon":5.53179,"lat":50.62867}},{"_id":2787663,"name":"Rotselaar","country":"BE","coord":{"lon":4.71889,"lat":50.952641}},{"_id":2787770,"name":"Ronse","country":"BE","coord":{"lon":3.60488,"lat":50.75045}},{"_id":2787888,"name":"Arrondissement Roeselare","country":"BE","coord":{"lon":3.13333,"lat":50.950001}},{"_id":2788089,"name":"Riemst","country":"BE","coord":{"lon":5.6044,"lat":50.809841}},{"_id":2788349,"name":"Ranst","country":"BE","coord":{"lon":4.56774,"lat":51.190048}},{"_id":2788500,"name":"Quaregnon","country":"BE","coord":{"lon":3.86702,"lat":50.441711}},{"_id":2788523,"name":"Putte","country":"BE","coord":{"lon":4.62988,"lat":51.054878}},{"_id":2788727,"name":"Poperinge","country":"BE","coord":{"lon":2.6875,"lat":50.854881}},{"_id":2789163,"name":"Péruwelz","country":"BE","coord":{"lon":3.59184,"lat":50.50819}},{"_id":2789233,"name":"Peer","country":"BE","coord":{"lon":5.45677,"lat":51.131748}},{"_id":2789414,"name":"Overijse","country":"BE","coord":{"lon":4.53718,"lat":50.77512}},{"_id":2789472,"name":"Oupeye","country":"BE","coord":{"lon":5.64491,"lat":50.709991}},{"_id":2789752,"name":"Oostkamp","country":"BE","coord":{"lon":3.23095,"lat":51.11879}},{"_id":2790115,"name":"Ninove","country":"BE","coord":{"lon":4.00465,"lat":50.828449}},{"_id":2790136,"name":"Nijlen","country":"BE","coord":{"lon":4.67091,"lat":51.162708}},{"_id":2790358,"name":"Neerpelt","country":"BE","coord":{"lon":5.44201,"lat":51.228069}},{"_id":2790596,"name":"Arrondissement de Mouscron","country":"BE","coord":{"lon":3.2,"lat":50.73333}},{"_id":2795937,"name":"Mouscron","country":"BE","coord":{"lon":3.21667,"lat":50.73333}},{"_id":2790677,"name":"Mortsel","country":"BE","coord":{"lon":4.45,"lat":51.166672}},{"_id":2790871,"name":"Mons","country":"BE","coord":{"lon":3.95164,"lat":50.453838}},{"_id":2791068,"name":"Mol","country":"BE","coord":{"lon":5.11448,"lat":51.192039}},{"_id":2791195,"name":"Middelkerke","country":"BE","coord":{"lon":2.84175,"lat":51.15583}},{"_id":2791425,"name":"Meise","country":"BE","coord":{"lon":4.32947,"lat":50.939831}},{"_id":2791538,"name":"Mechelen","country":"BE","coord":{"lon":4.48071,"lat":51.02758}},{"_id":2791744,"name":"Marche-en-Famenne","country":"BE","coord":{"lon":5.34416,"lat":50.22678}},{"_id":2791815,"name":"Manage","country":"BE","coord":{"lon":4.24062,"lat":50.493301}},{"_id":2791858,"name":"Maldegem","country":"BE","coord":{"lon":3.44716,"lat":51.201462}},{"_id":2791965,"name":"Maaseik","country":"BE","coord":{"lon":5.78333,"lat":51.099998}},{"_id":2792180,"name":"Lommel","country":"BE","coord":{"lon":5.31103,"lat":51.23172}},{"_id":2792197,"name":"Lokeren","country":"BE","coord":{"lon":3.96304,"lat":51.11544}},{"_id":2792236,"name":"Lochristi","country":"BE","coord":{"lon":3.8566,"lat":51.106468}},{"_id":2792361,"name":"Lille","country":"BE","coord":{"lon":4.8,"lat":51.23333}},{"_id":2792406,"name":"Lier","country":"BE","coord":{"lon":4.56667,"lat":51.133331}},{"_id":2793145,"name":"Lebbeke","country":"BE","coord":{"lon":4.12246,"lat":50.991032}},{"_id":2793447,"name":"Lanaken","country":"BE","coord":{"lon":5.65006,"lat":50.89426}},{"_id":2793509,"name":"La Louvière","country":"BE","coord":{"lon":4.15632,"lat":50.47348}},{"_id":2794071,"name":"Kortenberg","country":"BE","coord":{"lon":4.53976,"lat":50.887009}},{"_id":2794118,"name":"Kontich","country":"BE","coord":{"lon":4.44878,"lat":51.132019}},{"_id":2794167,"name":"Koksijde","country":"BE","coord":{"lon":2.68519,"lat":51.111691}},{"_id":2794216,"name":"Knokke-Heist","country":"BE","coord":{"lon":3.33333,"lat":51.333328}},{"_id":2794664,"name":"Kasterlee","country":"BE","coord":{"lon":4.96994,"lat":51.24258}},{"_id":2794733,"name":"Kapellen","country":"BE","coord":{"lon":4.4383,"lat":51.314629}},{"_id":2794789,"name":"Kalmthout","country":"BE","coord":{"lon":4.47418,"lat":51.38464}},{"_id":2795010,"name":"Izegem","country":"BE","coord":{"lon":3.20863,"lat":50.91996}},{"_id":2795262,"name":"Houthalen-Helchteren","country":"BE","coord":{"lon":5.37755,"lat":51.032001}},{"_id":2795399,"name":"Hoogstraten","country":"BE","coord":{"lon":4.7618,"lat":51.402149}},{"_id":2795802,"name":"Heusden-Zolder","country":"BE","coord":{"lon":5.29919,"lat":51.03751}},{"_id":2795909,"name":"Herzele","country":"BE","coord":{"lon":3.8931,"lat":50.869709}},{"_id":2796010,"name":"Herentals","country":"BE","coord":{"lon":4.82763,"lat":51.176441}},{"_id":2796013,"name":"Herent","country":"BE","coord":{"lon":4.66833,"lat":50.90823}},{"_id":2796154,"name":"Heist-op-den-Berg","country":"BE","coord":{"lon":4.72446,"lat":51.076141}},{"_id":2796543,"name":"Harelbeke","country":"BE","coord":{"lon":3.31078,"lat":50.864849}},{"_id":2796640,"name":"Hamme","country":"BE","coord":{"lon":4.13538,"lat":51.08445}},{"_id":2796834,"name":"Haaltert","country":"BE","coord":{"lon":3.99092,"lat":50.88525}},{"_id":2797115,"name":"Grimbergen","country":"BE","coord":{"lon":4.36667,"lat":50.933331}},{"_id":2797780,"name":"Geel","country":"BE","coord":{"lon":4.99191,"lat":51.1661}},{"_id":2798302,"name":"Fléron","country":"BE","coord":{"lon":5.68139,"lat":50.615108}},{"_id":2798307,"name":"Flemalle-Haute","country":"BE","coord":{"lon":5.44471,"lat":50.599941}},{"_id":2798553,"name":"Evergem","country":"BE","coord":{"lon":3.7118,"lat":51.145519}},{"_id":2798574,"name":"Eupen","country":"BE","coord":{"lon":6.03819,"lat":50.629539}},{"_id":2798616,"name":"Essen","country":"BE","coord":{"lon":4.45633,"lat":51.462238}},{"_id":2799008,"name":"Edegem","country":"BE","coord":{"lon":4.44654,"lat":51.1562}},{"_id":2799091,"name":"Duffel","country":"BE","coord":{"lon":4.51178,"lat":51.09576}},{"_id":2799366,"name":"Dilbeek","country":"BE","coord":{"lon":4.26667,"lat":50.849998}},{"_id":2799368,"name":"Arrondissement Diksmuide","country":"BE","coord":{"lon":2.86667,"lat":51.033329}},{"_id":2799370,"name":"Diksmuide","country":"BE","coord":{"lon":2.86667,"lat":51.033329}},{"_id":2799398,"name":"Diest","country":"BE","coord":{"lon":5.05,"lat":50.98333}},{"_id":2799413,"name":"Diepenbeek","country":"BE","coord":{"lon":5.4221,"lat":50.907799}},{"_id":2799497,"name":"Destelbergen","country":"BE","coord":{"lon":3.81058,"lat":51.040218}},{"_id":2799648,"name":"Denderleeuw","country":"BE","coord":{"lon":4.05929,"lat":50.887531}},{"_id":2801107,"name":"Brecht","country":"BE","coord":{"lon":4.63333,"lat":51.349998}},{"_id":2801118,"name":"Brasschaat","country":"BE","coord":{"lon":4.49495,"lat":51.291451}},{"_id":2801151,"name":"Braine-le-Comte","country":"BE","coord":{"lon":4.14344,"lat":50.60817}},{"_id":2801448,"name":"Bornem","country":"BE","coord":{"lon":4.24192,"lat":51.09705}},{"_id":2801495,"name":"Boom","country":"BE","coord":{"lon":4.37153,"lat":51.093281}},{"_id":2802035,"name":"Beveren","country":"BE","coord":{"lon":4.23708,"lat":51.255939}},{"_id":2802172,"name":"Beringen","country":"BE","coord":{"lon":5.2216,"lat":51.050678}},{"_id":2802436,"name":"Beerse","country":"BE","coord":{"lon":4.85596,"lat":51.320641}},{"_id":2802744,"name":"Balen","country":"BE","coord":{"lon":5.17173,"lat":51.168419}},{"_id":2803011,"name":"Ath","country":"BE","coord":{"lon":3.77938,"lat":50.628288}},{"_id":2803161,"name":"Ans","country":"BE","coord":{"lon":5.51908,"lat":50.662361}},{"_id":2803451,"name":"Aalst","country":"BE","coord":{"lon":4.07351,"lat":50.943321}},{"_id":2786391,"name":"Sombreffe","country":"BE","coord":{"lon":4.59838,"lat":50.528648}},{"_id":2787313,"name":"Saint-Yvon","country":"BE","coord":{"lon":2.90992,"lat":50.743351}},{"_id":2790225,"name":"Niel","country":"BE","coord":{"lon":4.33428,"lat":51.110958}},{"_id":2793070,"name":"Ledeberg","country":"BE","coord":{"lon":3.74458,"lat":51.038589}},{"_id":2793072,"name":"Ledeberg","country":"BE","coord":{"lon":4.09112,"lat":50.843559}},{"_id":2799512,"name":"Dessel","country":"BE","coord":{"lon":5.11448,"lat":51.240162}},{"_id":2800883,"name":"Brunehault","country":"BE","coord":{"lon":4.43209,"lat":50.505241}},{"_id":2802610,"name":"Basse Lasne","country":"BE","coord":{"lon":4.49218,"lat":50.69503}},{"_id":2802851,"name":"Awans","country":"BE","coord":{"lon":5.46667,"lat":50.666672}},{"_id":2803286,"name":"Alken","country":"BE","coord":{"lon":5.30708,"lat":50.875092}},{"_id":2803285,"name":"Alken","country":"BE","coord":{"lon":5.30558,"lat":50.875519}},{"_id":2802361,"name":"Kingdom of Belgium","country":"BE","coord":{"lon":4.0,"lat":50.833328}},{"_id":3337387,"name":"Walloon Region","country":"BE","coord":{"lon":4.75,"lat":50.5}},{"_id":2791993,"name":"Province du Luxembourg","country":"BE","coord":{"lon":5.5,"lat":50.0}},{"_id":2800038,"name":"Coutelle","country":"BE","coord":{"lon":5.23333,"lat":50.01667}},{"_id":2796741,"name":"Province du Hainaut","country":"BE","coord":{"lon":3.83333,"lat":50.5}},{"_id":2792460,"name":"Le Walestru Septentrional","country":"BE","coord":{"lon":4.36667,"lat":50.116669}},{"_id":2792411,"name":"Province de Liège","country":"BE","coord":{"lon":5.56543,"lat":50.63427}},{"_id":2792103,"name":"Lorentswaldchen","country":"BE","coord":{"lon":6.11667,"lat":50.283329}},{"_id":2801791,"name":"Blier","country":"BE","coord":{"lon":5.54809,"lat":50.277321}},{"_id":2790469,"name":"Province de Namur","country":"BE","coord":{"lon":4.83333,"lat":50.333328}},{"_id":2799421,"name":"Diarbois","country":"BE","coord":{"lon":4.45426,"lat":50.454102}},{"_id":2790470,"name":"Arrondissement de Namur","country":"BE","coord":{"lon":4.86591,"lat":50.468651}},{"_id":2802903,"name":"Sambreville","country":"BE","coord":{"lon":4.63383,"lat":50.434662}},{"_id":2794480,"name":"Keumiée","country":"BE","coord":{"lon":4.58233,"lat":50.461769}},{"_id":2784730,"name":"Vieux Tauve","country":"BE","coord":{"lon":5.11667,"lat":50.466671}},{"_id":2784820,"name":"Arrondissement de Verviers","country":"BE","coord":{"lon":5.86481,"lat":50.583889}},{"_id":2784200,"name":"Waimes","country":"BE","coord":{"lon":6.11667,"lat":50.416672}},{"_id":2786340,"name":"Sourbrodt","country":"BE","coord":{"lon":6.11166,"lat":50.479191}},{"_id":2787803,"name":"Ronce","country":"BE","coord":{"lon":4.30321,"lat":50.534771}},{"_id":2801652,"name":"Bois de Nauwe","country":"BE","coord":{"lon":4.3059,"lat":50.52457}},{"_id":6957847,"name":"Crèvecoeur","country":"BE","coord":{"lon":3.43333,"lat":50.549999}},{"_id":2791291,"name":"Merlin","country":"BE","coord":{"lon":3.40121,"lat":50.553928}},{"_id":2785908,"name":"Cortil","country":"BE","coord":{"lon":5.59659,"lat":50.56329}},{"_id":2799866,"name":"Daublain","country":"BE","coord":{"lon":4.23333,"lat":50.566669}},{"_id":3337388,"name":"Flemish Region","country":"BE","coord":{"lon":4.5,"lat":51.0}},{"_id":2783770,"name":"Provincie West-Vlaanderen","country":"BE","coord":{"lon":3.0,"lat":51.0}},{"_id":2788695,"name":"Potegem","country":"BE","coord":{"lon":3.43606,"lat":50.864361}},{"_id":2799867,"name":"Dassenaarde","country":"BE","coord":{"lon":5.04691,"lat":51.016338}},{"_id":2792347,"name":"Provincie Limburg","country":"BE","coord":{"lon":5.5,"lat":51.0}},{"_id":2797778,"name":"Geelberg","country":"BE","coord":{"lon":5.33013,"lat":51.008549}},{"_id":2789889,"name":"Okselaar","country":"BE","coord":{"lon":5.01183,"lat":51.034489}},{"_id":2796818,"name":"Haaselbeekstraat","country":"BE","coord":{"lon":3.16667,"lat":51.083328}},{"_id":2796488,"name":"Arrondissement Hasselt","country":"BE","coord":{"lon":5.33438,"lat":50.93095}},{"_id":2792857,"name":"Leopoldsburg","country":"BE","coord":{"lon":5.25,"lat":51.116669}},{"_id":2792856,"name":"Leopoldsburg","country":"BE","coord":{"lon":5.25,"lat":51.116669}},{"_id":2797686,"name":"Genenbemd","country":"BE","coord":{"lon":5.14128,"lat":51.103699}},{"_id":2789733,"name":"Provincie Oost-Vlaanderen","country":"BE","coord":{"lon":3.75,"lat":51.0}},{"_id":2784323,"name":"Vrechem","country":"BE","coord":{"lon":3.48119,"lat":51.119438}},{"_id":2798648,"name":"Es","country":"BE","coord":{"lon":4.29444,"lat":51.190239}},{"_id":2803136,"name":"Provincie Antwerpen","country":"BE","coord":{"lon":4.83333,"lat":51.166672}},{"_id":2785670,"name":"Terlo","country":"BE","coord":{"lon":5.0,"lat":51.25}},{"_id":2792243,"name":"L'Obélisque","country":"BE","coord":{"lon":5.28333,"lat":50.383331}},{"_id":2791836,"name":"Malmaison","country":"BE","coord":{"lon":5.69962,"lat":49.897228}},{"_id":2794054,"name":"Arrondissement Kortrijk","country":"BE","coord":{"lon":3.30993,"lat":50.82098}},{"_id":2783082,"name":"Zwijndrecht","country":"BE","coord":{"lon":4.3257,"lat":51.221939}},{"_id":2790212,"name":"Nieuwdak","country":"BE","coord":{"lon":5.48132,"lat":50.960701}},{"_id":2794634,"name":"Kaulen","country":"BE","coord":{"lon":5.99244,"lat":50.654789}},{"_id":2800480,"name":"Arrondissement de Charleroi","country":"BE","coord":{"lon":4.44534,"lat":50.413658}},{"_id":2798298,"name":"Fleurus","country":"BE","coord":{"lon":4.55177,"lat":50.484268}},{"_id":2801463,"name":"Borgt Driesen","country":"BE","coord":{"lon":4.78333,"lat":51.26667}},{"_id":2795774,"name":"Heisel","country":"BE","coord":{"lon":4.33333,"lat":50.883331}},{"_id":2802872,"name":"Avelgem","country":"BE","coord":{"lon":3.46012,"lat":50.7812}},{"_id":2801348,"name":"Bossuit","country":"BE","coord":{"lon":3.40822,"lat":50.748508}},{"_id":2789429,"name":"Over den Demer","country":"BE","coord":{"lon":5.31667,"lat":50.950001}},{"_id":2793861,"name":"Kutsegem","country":"BE","coord":{"lon":4.52978,"lat":50.928581}},{"_id":2802464,"name":"Beekhoek","country":"BE","coord":{"lon":4.48355,"lat":51.137501}},{"_id":2799644,"name":"Arrondissement Dendermonde","country":"BE","coord":{"lon":4.08333,"lat":51.033329}},{"_id":2800817,"name":"Buggenhout","country":"BE","coord":{"lon":4.19943,"lat":51.012691}},{"_id":2800816,"name":"Buggenhout","country":"BE","coord":{"lon":4.20173,"lat":51.0159}},{"_id":3333250,"name":"Provincie Vlaams-Brabant","country":"BE","coord":{"lon":4.58333,"lat":50.916672}},{"_id":2784398,"name":"Voorheide","country":"BE","coord":{"lon":5.09509,"lat":51.334881}},{"_id":2788724,"name":"Poppel","country":"BE","coord":{"lon":5.0433,"lat":51.445648}},{"_id":2789594,"name":"Oster","country":"BE","coord":{"lon":5.65672,"lat":50.2738}},{"_id":2791536,"name":"Arrondissement Mechelen","country":"BE","coord":{"lon":4.48259,"lat":51.028332}},{"_id":2786642,"name":"Sint-Katelijne-Waver","country":"BE","coord":{"lon":4.53333,"lat":51.066669}},{"_id":2789821,"name":"Onze-Lieve-Vrouw-Waver","country":"BE","coord":{"lon":4.57941,"lat":51.062649}},{"_id":2792481,"name":"Arrondissement Leuven","country":"BE","coord":{"lon":4.70472,"lat":50.880291}},{"_id":2783612,"name":"Wilsele","country":"BE","coord":{"lon":4.69769,"lat":50.89188}},{"_id":2800867,"name":"Bruxelles-Capitale","country":"BE","coord":{"lon":4.35144,"lat":50.853321}},{"_id":6693370,"name":"(Bruxelles-Capitale)","country":"BE","coord":{"lon":4.34664,"lat":50.84877}},{"_id":2794723,"name":"Kapelleveld","country":"BE","coord":{"lon":4.45088,"lat":50.845921}},{"_id":2793880,"name":"Kruisweg","country":"BE","coord":{"lon":4.48333,"lat":51.083328}},{"_id":2789223,"name":"Peerstalle","country":"BE","coord":{"lon":3.27798,"lat":51.077911}},{"_id":2799324,"name":"Dolhain","country":"BE","coord":{"lon":5.94944,"lat":50.614399}},{"_id":2791495,"name":"Meerhout","country":"BE","coord":{"lon":5.08333,"lat":51.133331}},{"_id":2791494,"name":"Meerhout","country":"BE","coord":{"lon":5.07842,"lat":51.132099}},{"_id":2803137,"name":"Arrondissement Antwerpen","country":"BE","coord":{"lon":4.41667,"lat":51.216671}},{"_id":2803139,"name":"Antwerpen","country":"BE","coord":{"lon":4.41667,"lat":51.216671}},{"_id":2798873,"name":"Ekeren","country":"BE","coord":{"lon":4.41813,"lat":51.280869}},{"_id":2795099,"name":"Arrondissement Ieper","country":"BE","coord":{"lon":2.86667,"lat":50.849998}},{"_id":2791285,"name":"Mesen","country":"BE","coord":{"lon":2.90057,"lat":50.759972}},{"_id":2792198,"name":"Loker","country":"BE","coord":{"lon":2.77234,"lat":50.781658}},{"_id":2796698,"name":"Arrondissement Halle-Vilvoorde","country":"BE","coord":{"lon":4.23333,"lat":50.73333}},{"_id":2792166,"name":"Londerzeel","country":"BE","coord":{"lon":4.30304,"lat":51.008251}},{"_id":2792165,"name":"Londerzeel","country":"BE","coord":{"lon":4.30304,"lat":51.004681}},{"_id":2789244,"name":"Pauwstraat","country":"BE","coord":{"lon":4.28333,"lat":51.216671}},{"_id":2795474,"name":"Honien Platz","country":"BE","coord":{"lon":6.13333,"lat":50.683331}},{"_id":2792483,"name":"Leuven","country":"BE","coord":{"lon":4.70078,"lat":50.879669}},{"_id":2792482,"name":"Leuven","country":"BE","coord":{"lon":4.70093,"lat":50.879589}},{"_id":2799880,"name":"Dampremy","country":"BE","coord":{"lon":4.43092,"lat":50.417049}},{"_id":2784877,"name":"Verbrandendijk","country":"BE","coord":{"lon":4.33333,"lat":51.216671}},{"_id":2797655,"name":"Arrondissement Gent","country":"BE","coord":{"lon":3.6884,"lat":51.049091}},{"_id":2797657,"name":"Gent","country":"BE","coord":{"lon":3.73664,"lat":51.07304}},{"_id":2797656,"name":"Gent","country":"BE","coord":{"lon":3.71667,"lat":51.049999}},{"_id":2786420,"name":"Soignies","country":"BE","coord":{"lon":4.07129,"lat":50.579041}},{"_id":2783310,"name":"Zaventem","country":"BE","coord":{"lon":4.47298,"lat":50.883652}},{"_id":2803138,"name":"Antwerpen","country":"BE","coord":{"lon":4.40346,"lat":51.219891}},{"_id":3333251,"name":"Province du Brabant Wallon","country":"BE","coord":{"lon":4.58333,"lat":50.75}},{"_id":2792413,"name":"Liege","country":"BE","coord":{"lon":5.56749,"lat":50.633732}},{"_id":2800865,"name":"Arrondissement Brussel","country":"BE","coord":{"lon":4.35,"lat":50.849998}},{"_id":2798555,"name":"Evere","country":"BE","coord":{"lon":4.4,"lat":50.866669}},{"_id":2798554,"name":"Evere","country":"BE","coord":{"lon":4.39905,"lat":50.874409}},{"_id":2786661,"name":"Sint-Job","country":"BE","coord":{"lon":4.02939,"lat":50.932789}},{"_id":6957825,"name":"Grands Prés","country":"BE","coord":{"lon":3.91667,"lat":50.450001}},{"_id":2792568,"name":"Lessines","country":"BE","coord":{"lon":3.83231,"lat":50.714279}},{"_id":2792567,"name":"Lessines","country":"BE","coord":{"lon":3.83579,"lat":50.71104}},{"_id":2784604,"name":"Vilvoorde","country":"BE","coord":{"lon":4.42938,"lat":50.928139}},{"_id":2800931,"name":"Brugge","country":"BE","coord":{"lon":3.22424,"lat":51.20892}},{"_id":2785141,"name":"Turnhout","country":"BE","coord":{"lon":4.94471,"lat":51.32254}},{"_id":2803443,"name":"Aalter","country":"BE","coord":{"lon":3.44693,"lat":51.090172}},{"_id":2791315,"name":"Merelbeke","country":"BE","coord":{"lon":3.74621,"lat":50.994469}},{"_id":2790101,"name":"Nivelles","country":"BE","coord":{"lon":4.32848,"lat":50.598331}},{"_id":2797670,"name":"Genk","country":"BE","coord":{"lon":5.50082,"lat":50.965}},{"_id":2796491,"name":"Hasselt","country":"BE","coord":{"lon":5.33781,"lat":50.931061}},{"_id":2784935,"name":"Veldkant","country":"BE","coord":{"lon":4.38509,"lat":50.93869}},{"_id":2787025,"name":"Schoenstraat","country":"BE","coord":{"lon":4.21667,"lat":51.133331}},{"_id":2803430,"name":"Aarschot","country":"BE","coord":{"lon":4.8333,"lat":50.987499}},{"_id":2803429,"name":"Aarschot","country":"BE","coord":{"lon":4.83695,"lat":50.987148}},{"_id":2794055,"name":"Kortrijk","country":"BE","coord":{"lon":3.26487,"lat":50.82803}},{"_id":2784821,"name":"Verviers","country":"BE","coord":{"lon":5.86241,"lat":50.589069}},{"_id":2785475,"name":"Arrondissement Tielt","country":"BE","coord":{"lon":3.31667,"lat":51.0}},{"_id":2789737,"name":"Oostrozebeke","country":"BE","coord":{"lon":3.33799,"lat":50.920929}},{"_id":2790471,"name":"Namur","country":"BE","coord":{"lon":4.86746,"lat":50.4669}},{"_id":2803420,"name":"Aartselaar","country":"BE","coord":{"lon":4.38678,"lat":51.134121}},{"_id":2793549,"name":"La Hulpe","country":"BE","coord":{"lon":4.48191,"lat":50.731781}},{"_id":2793548,"name":"La Hulpe","country":"BE","coord":{"lon":4.48577,"lat":50.730911}},{"_id":2796697,"name":"Halle","country":"BE","coord":{"lon":4.64636,"lat":51.24118}},{"_id":2796696,"name":"Halle","country":"BE","coord":{"lon":4.23454,"lat":50.733849}},{"_id":2792907,"name":"Le Many","country":"BE","coord":{"lon":5.49188,"lat":50.600842}},{"_id":2797862,"name":"Galgendries","country":"BE","coord":{"lon":4.04485,"lat":50.706989}},{"_id":2800439,"name":"Chaudfontaine","country":"BE","coord":{"lon":5.63333,"lat":50.583328}},{"_id":2800438,"name":"Chaudfontaine","country":"BE","coord":{"lon":5.6341,"lat":50.582802}},{"_id":2791062,"name":"Moleken","country":"BE","coord":{"lon":4.13333,"lat":51.166672}},{"_id":2798986,"name":"Arrondissement Eeklo","country":"BE","coord":{"lon":3.60952,"lat":51.23106}},{"_id":2798988,"name":"Eeklo","country":"BE","coord":{"lon":3.56383,"lat":51.19389}},{"_id":2798987,"name":"Eeklo","country":"BE","coord":{"lon":3.55654,"lat":51.187031}},{"_id":2794086,"name":"Korentje","country":"BE","coord":{"lon":3.0,"lat":50.76667}},{"_id":2786259,"name":"Spleet","country":"BE","coord":{"lon":3.58799,"lat":50.973701}},{"_id":2785340,"name":"Arrondissement de Tournai","country":"BE","coord":{"lon":3.44815,"lat":50.62463}},{"_id":2785342,"name":"Tournai","country":"BE","coord":{"lon":3.41943,"lat":50.618389}},{"_id":2785341,"name":"Tournai","country":"BE","coord":{"lon":3.38932,"lat":50.607151}},{"_id":2785622,"name":"Tervuren","country":"BE","coord":{"lon":4.51418,"lat":50.823719}},{"_id":2803073,"name":"Arlon","country":"BE","coord":{"lon":5.81667,"lat":49.683331}},{"_id":2794479,"name":"Keur","country":"BE","coord":{"lon":4.1129,"lat":51.033161}},{"_id":2788124,"name":"Reutenbeek","country":"BE","coord":{"lon":4.53135,"lat":50.759369}},{"_id":2790506,"name":"Naarmonts","country":"BE","coord":{"lon":4.2,"lat":50.683331}},{"_id":2799747,"name":"Deinze","country":"BE","coord":{"lon":3.51462,"lat":50.999111}},{"_id":2799746,"name":"Deinze","country":"BE","coord":{"lon":3.53096,"lat":50.98175}},{"_id":2795930,"name":"Herstal","country":"BE","coord":{"lon":5.62346,"lat":50.66415}},{"_id":2799367,"name":"Diksmuidsepoort","country":"BE","coord":{"lon":2.88333,"lat":50.849998}},{"_id":2791344,"name":"Menen","country":"BE","coord":{"lon":3.15482,"lat":50.78944}},{"_id":2791343,"name":"Menen","country":"BE","coord":{"lon":3.12245,"lat":50.797218}},{"_id":2790817,"name":"Mont Falize","country":"BE","coord":{"lon":5.21667,"lat":50.533329}},{"_id":2783802,"name":"Westerlo","country":"BE","coord":{"lon":4.9157,"lat":51.08778}},{"_id":2783801,"name":"Westerlo","country":"BE","coord":{"lon":4.91544,"lat":51.090488}},{"_id":2792007,"name":"Lummen","country":"BE","coord":{"lon":5.19121,"lat":50.98772}},{"_id":2785388,"name":"Arrondissement Tongeren","country":"BE","coord":{"lon":5.4657,"lat":50.782822}},{"_id":2785390,"name":"Tongeren","country":"BE","coord":{"lon":5.46227,"lat":50.780651}},{"_id":2785389,"name":"Tongeren","country":"BE","coord":{"lon":5.46484,"lat":50.78054}},{"_id":2787989,"name":"Rixensart","country":"BE","coord":{"lon":4.52529,"lat":50.712292}},{"_id":2797109,"name":"Grimde","country":"BE","coord":{"lon":4.95672,"lat":50.803108}},{"_id":2784720,"name":"Vijfhoek","country":"BE","coord":{"lon":4.08333,"lat":50.866669}},{"_id":2803084,"name":"Arendonk","country":"BE","coord":{"lon":5.07826,"lat":51.322239}},{"_id":2803083,"name":"Arendonk","country":"BE","coord":{"lon":5.08289,"lat":51.32267}},{"_id":2800431,"name":"Chaumont-Gistoux","country":"BE","coord":{"lon":4.71667,"lat":50.683331}},{"_id":2800430,"name":"Chaumont-Gistoux","country":"BE","coord":{"lon":4.7212,"lat":50.677528}},{"_id":2802961,"name":"Oudergem","country":"BE","coord":{"lon":4.43333,"lat":50.816669}},{"_id":2802960,"name":"Auderghem","country":"BE","coord":{"lon":4.43333,"lat":50.816669}},{"_id":2794022,"name":"Kraaienbroek","country":"BE","coord":{"lon":4.26667,"lat":50.849998}},{"_id":2792189,"name":"L'Olive","country":"BE","coord":{"lon":4.24868,"lat":50.468391}},{"_id":2783755,"name":"Weverstraat","country":"BE","coord":{"lon":4.13333,"lat":51.0}},{"_id":2795446,"name":"Hoogbutsel","country":"BE","coord":{"lon":4.84458,"lat":50.846909}},{"_id":2787629,"name":"Roussy","country":"BE","coord":{"lon":5.33333,"lat":49.73333}},{"_id":2803319,"name":"Aisémont","country":"BE","coord":{"lon":4.61667,"lat":50.716671}},{"_id":2787093,"name":"Scheiltjenseinde","country":"BE","coord":{"lon":4.86667,"lat":51.316669}},{"_id":2803315,"name":"Aix-sur-Cloix","country":"BE","coord":{"lon":5.78122,"lat":49.57616}},{"_id":2794896,"name":"Jodoigne","country":"BE","coord":{"lon":4.87226,"lat":50.72765}},{"_id":2794895,"name":"Jodoigne","country":"BE","coord":{"lon":4.86914,"lat":50.723572}},{"_id":6957813,"name":"La Courbette","country":"BE","coord":{"lon":3.85,"lat":50.433331}},{"_id":2803035,"name":"Asse","country":"BE","coord":{"lon":4.2,"lat":50.916672}},{"_id":2803033,"name":"Asse","country":"BE","coord":{"lon":4.19836,"lat":50.91011}},{"_id":2802583,"name":"Bastogne","country":"BE","coord":{"lon":5.71844,"lat":50.003471}},{"_id":2793087,"name":"Le Crouzet","country":"BE","coord":{"lon":3.30757,"lat":50.659458}},{"_id":2784554,"name":"Arrondissement de Virton","country":"BE","coord":{"lon":5.51667,"lat":49.566669}},{"_id":2798273,"name":"Florenville","country":"BE","coord":{"lon":5.31667,"lat":49.683331}},{"_id":2798272,"name":"Florenville","country":"BE","coord":{"lon":5.3074,"lat":49.699829}},{"_id":2796800,"name":"Hacboister","country":"BE","coord":{"lon":5.74266,"lat":50.666828}},{"_id":2799115,"name":"Drogenbos","country":"BE","coord":{"lon":4.30906,"lat":50.794121}},{"_id":2799114,"name":"Drogenbos","country":"BE","coord":{"lon":4.31471,"lat":50.787331}},{"_id":2786264,"name":"Spinoy","country":"BE","coord":{"lon":4.41667,"lat":50.433331}},{"_id":2795520,"name":"Hollogne","country":"BE","coord":{"lon":5.35793,"lat":50.214279}},{"_id":2790796,"name":"Montignies-sur-Sambre","country":"BE","coord":{"lon":4.49109,"lat":50.410809}},{"_id":2785479,"name":"Tielt-Winge","country":"BE","coord":{"lon":4.8848,"lat":50.917751}},{"_id":2791521,"name":"Meensel-Kiezegem","country":"BE","coord":{"lon":4.92496,"lat":50.89621}},{"_id":2787388,"name":"Saint-Josse-ten-Noode","country":"BE","coord":{"lon":4.37428,"lat":50.856682}},{"_id":2787387,"name":"Saint-Josse-ten-Noode","country":"BE","coord":{"lon":4.37282,"lat":50.853802}},{"_id":2799525,"name":"Derrière Spai","country":"BE","coord":{"lon":5.86667,"lat":50.366669}},{"_id":2786210,"name":"Stalle","country":"BE","coord":{"lon":4.32531,"lat":50.797741}},{"_id":2800064,"name":"Courcelles","country":"BE","coord":{"lon":4.37359,"lat":50.46373}},{"_id":2800063,"name":"Courcelles","country":"BE","coord":{"lon":4.3747,"lat":50.463791}},{"_id":2799137,"name":"Driesch","country":"BE","coord":{"lon":6.11075,"lat":50.675739}},{"_id":2792302,"name":"Linkebeek","country":"BE","coord":{"lon":4.34457,"lat":50.76757}},{"_id":2792301,"name":"Linkebeek","country":"BE","coord":{"lon":4.33688,"lat":50.767811}},{"_id":2798730,"name":"Ensival","country":"BE","coord":{"lon":5.84927,"lat":50.580528}},{"_id":2794719,"name":"Kapelplaats","country":"BE","coord":{"lon":3.63333,"lat":51.01667}},{"_id":2789571,"name":"Ottignies-Louvain-la-Neuve","country":"BE","coord":{"lon":4.53333,"lat":50.666672}},{"_id":2789570,"name":"Ottignies","country":"BE","coord":{"lon":4.56679,"lat":50.665352}},{"_id":2795112,"name":"Arrondissement de Huy","country":"BE","coord":{"lon":5.23378,"lat":50.51981}},{"_id":2795950,"name":"Héron","country":"BE","coord":{"lon":5.0992,"lat":50.547359}},{"_id":2795949,"name":"Heron","country":"BE","coord":{"lon":5.09774,"lat":50.54731}},{"_id":2792035,"name":"Lubbeek","country":"BE","coord":{"lon":4.83333,"lat":50.883331}},{"_id":2792034,"name":"Lubbeek","country":"BE","coord":{"lon":4.83896,"lat":50.882778}},{"_id":2784065,"name":"Arrondissement de Waremme","country":"BE","coord":{"lon":5.25481,"lat":50.6982}},{"_id":2800609,"name":"Faimes","country":"BE","coord":{"lon":5.25902,"lat":50.662682}},{"_id":2798512,"name":"Faimes","country":"BE","coord":{"lon":5.26005,"lat":50.662521}},{"_id":2787931,"name":"Rodebeek","country":"BE","coord":{"lon":4.41749,"lat":50.84581}},{"_id":2789424,"name":"Overeindeveld","country":"BE","coord":{"lon":5.588,"lat":51.011589}},{"_id":2798800,"name":"Elvaux","country":"BE","coord":{"lon":5.79864,"lat":50.631599}},{"_id":2791963,"name":"Arrondissement Maaseik","country":"BE","coord":{"lon":5.78333,"lat":51.099998}},{"_id":2801094,"name":"Bree","country":"BE","coord":{"lon":5.59891,"lat":51.141819}},{"_id":2801093,"name":"Bree","country":"BE","coord":{"lon":5.5969,"lat":51.141521}},{"_id":2799356,"name":"Arrondissement de Dinant","country":"BE","coord":{"lon":4.90986,"lat":50.258289}},{"_id":2800299,"name":"Ciney","country":"BE","coord":{"lon":5.101,"lat":50.296471}},{"_id":2800298,"name":"Ciney","country":"BE","coord":{"lon":5.10015,"lat":50.294491}},{"_id":2802434,"name":"Beersel","country":"BE","coord":{"lon":4.30029,"lat":50.76339}},{"_id":2802433,"name":"Beersel","country":"BE","coord":{"lon":4.3002,"lat":50.765888}},{"_id":2801924,"name":"Bilzen","country":"BE","coord":{"lon":5.5184,"lat":50.873249}},{"_id":2795085,"name":"IJzerhand","country":"BE","coord":{"lon":4.25,"lat":51.216671}},{"_id":2788212,"name":"Remicourt","country":"BE","coord":{"lon":5.32837,"lat":50.681011}},{"_id":2788211,"name":"Remicourt","country":"BE","coord":{"lon":5.32785,"lat":50.680691}},{"_id":2802815,"name":"Baarleveld","country":"BE","coord":{"lon":3.60624,"lat":51.04525}},{"_id":2803205,"name":"Andenne","country":"BE","coord":{"lon":5.09834,"lat":50.48951}},{"_id":2803204,"name":"Andenne","country":"BE","coord":{"lon":5.09513,"lat":50.48941}},{"_id":2799690,"name":"De Meren","country":"BE","coord":{"lon":4.75854,"lat":51.024651}},{"_id":2793992,"name":"Krekelberg","country":"BE","coord":{"lon":3.6,"lat":50.75}},{"_id":2783171,"name":"Zoutleeuw","country":"BE","coord":{"lon":5.10109,"lat":50.834999}},{"_id":2783170,"name":"Zoutleeuw","country":"BE","coord":{"lon":5.10376,"lat":50.83316}},{"_id":2801490,"name":"Boonmerkt","country":"BE","coord":{"lon":4.71602,"lat":51.086281}},{"_id":2799646,"name":"Dendermonde","country":"BE","coord":{"lon":4.08333,"lat":51.033329}},{"_id":2786697,"name":"Sint-Gillis-bij-Dendermonde","country":"BE","coord":{"lon":4.11146,"lat":51.019051}},{"_id":2784169,"name":"Walhain","country":"BE","coord":{"lon":4.7,"lat":50.616669}},{"_id":7648367,"name":"Walhain","country":"BE","coord":{"lon":4.69477,"lat":50.616798}},{"_id":2801619,"name":"Bois Robert","country":"BE","coord":{"lon":4.21667,"lat":50.5}},{"_id":2789564,"name":"Oude Baan","country":"BE","coord":{"lon":4.63333,"lat":50.866669}},{"_id":2801553,"name":"Bonance","country":"BE","coord":{"lon":5.38802,"lat":49.921822}},{"_id":2802484,"name":"Beauvechain","country":"BE","coord":{"lon":4.76667,"lat":50.783329}},{"_id":2802483,"name":"Beauvechain","country":"BE","coord":{"lon":4.7718,"lat":50.781952}},{"_id":2793004,"name":"Leffe","country":"BE","coord":{"lon":4.90776,"lat":50.266842}},{"_id":2802986,"name":"Aubel","country":"BE","coord":{"lon":5.85872,"lat":50.703201}},{"_id":2802985,"name":"Aubel","country":"BE","coord":{"lon":5.85812,"lat":50.701889}},{"_id":2792884,"name":"Le Mont","country":"BE","coord":{"lon":4.80892,"lat":50.617828}},{"_id":2798895,"name":"Eindhoven","country":"BE","coord":{"lon":4.63496,"lat":51.33429}},{"_id":2794191,"name":"Koekelberg","country":"BE","coord":{"lon":4.06667,"lat":50.76667}},{"_id":2785274,"name":"Triest","country":"BE","coord":{"lon":4.36458,"lat":51.02314}},{"_id":2798579,"name":"Etterbeek","country":"BE","coord":{"lon":4.39024,"lat":50.83316}},{"_id":2798578,"name":"Etterbeek","country":"BE","coord":{"lon":4.38835,"lat":50.832722}},{"_id":2795018,"name":"Ittre","country":"BE","coord":{"lon":4.26201,"lat":50.64674}},{"_id":2795017,"name":"Ittre","country":"BE","coord":{"lon":4.26476,"lat":50.643959}},{"_id":2789493,"name":"Oud-Heverlee","country":"BE","coord":{"lon":4.66164,"lat":50.835651}},{"_id":2789492,"name":"Oud-Heverlee","country":"BE","coord":{"lon":4.66421,"lat":50.83522}},{"_id":2791726,"name":"Marcinelle","country":"BE","coord":{"lon":4.44388,"lat":50.392159}},{"_id":2797672,"name":"Genistreux","country":"BE","coord":{"lon":5.7,"lat":50.73333}},{"_id":2785516,"name":"Arrondissement de Thuin","country":"BE","coord":{"lon":4.26018,"lat":50.235489}},{"_id":2790698,"name":"Morlanwelz","country":"BE","coord":{"lon":4.23333,"lat":50.450001}},{"_id":2790697,"name":"Morlanwelz-Mariemont","country":"BE","coord":{"lon":4.24519,"lat":50.455021}},{"_id":2788347,"name":"Ransy","country":"BE","coord":{"lon":5.63333,"lat":50.616669}},{"_id":2794192,"name":"Koekelberg","country":"BE","coord":{"lon":4.33333,"lat":50.866669}},{"_id":2794190,"name":"Koekelberg","country":"BE","coord":{"lon":4.33136,"lat":50.861172}},{"_id":2802646,"name":"Bas Bois","country":"BE","coord":{"lon":5.75,"lat":50.616669}},{"_id":2801612,"name":"Bosvoorde","country":"BE","coord":{"lon":4.4,"lat":50.799999}},{"_id":2798101,"name":"Fosses-la-Ville","country":"BE","coord":{"lon":4.69751,"lat":50.395828}},{"_id":2798099,"name":"Fosses-la-Ville","country":"BE","coord":{"lon":4.69623,"lat":50.395168}},{"_id":2797129,"name":"Grez-Doiceau","country":"BE","coord":{"lon":4.68333,"lat":50.716671}},{"_id":2797128,"name":"Grez-Doiceau","country":"BE","coord":{"lon":4.69829,"lat":50.73901}},{"_id":2803027,"name":"Assenede","country":"BE","coord":{"lon":3.71517,"lat":51.228001}},{"_id":2803026,"name":"Assenede","country":"BE","coord":{"lon":3.75085,"lat":51.225979}},{"_id":3337389,"name":"City of Brussels","country":"BE","coord":{"lon":4.34526,"lat":50.851151}},{"_id":2793656,"name":"Laeken","country":"BE","coord":{"lon":4.34844,"lat":50.875851}},{"_id":2791835,"name":"Malmédy","country":"BE","coord":{"lon":6.03029,"lat":50.426128}},{"_id":2791834,"name":"Malmedy","country":"BE","coord":{"lon":6.02794,"lat":50.426861}},{"_id":2802838,"name":"Aywaille","country":"BE","coord":{"lon":5.67976,"lat":50.473789}},{"_id":2802837,"name":"Aywaille","country":"BE","coord":{"lon":5.67684,"lat":50.47411}},{"_id":2790866,"name":"Arrondissement de Mons","country":"BE","coord":{"lon":3.86341,"lat":50.448181}},{"_id":2798024,"name":"Frameries","country":"BE","coord":{"lon":3.89594,"lat":50.405338}},{"_id":2798023,"name":"Frameries","country":"BE","coord":{"lon":3.89603,"lat":50.405781}},{"_id":2801201,"name":"Bouvy","country":"BE","coord":{"lon":4.17959,"lat":50.469479}},{"_id":2791273,"name":"Messancy","country":"BE","coord":{"lon":5.81667,"lat":49.599998}},{"_id":2791272,"name":"Messancy","country":"BE","coord":{"lon":5.81878,"lat":49.591999}},{"_id":2796631,"name":"Hammeveer","country":"BE","coord":{"lon":4.13333,"lat":51.099998}},{"_id":2786180,"name":"Steeghoven","country":"BE","coord":{"lon":4.63333,"lat":51.349998}},{"_id":2801507,"name":"Bonvoisin","country":"BE","coord":{"lon":5.84661,"lat":50.61467}},{"_id":2791852,"name":"Malegem","country":"BE","coord":{"lon":4.06667,"lat":50.883331}},{"_id":2789309,"name":"Paradijs","country":"BE","coord":{"lon":5.30691,"lat":50.865131}},{"_id":2801008,"name":"Broek","country":"BE","coord":{"lon":4.28333,"lat":50.833328}},{"_id":2790283,"name":"Arrondissement de Neufchâteau","country":"BE","coord":{"lon":5.41667,"lat":49.833328}},{"_id":2790288,"name":"Neufchâteau","country":"BE","coord":{"lon":5.41667,"lat":49.833328}},{"_id":2790286,"name":"Neufchateau","country":"BE","coord":{"lon":5.43535,"lat":49.84074}},{"_id":2793061,"name":"Le Dossay","country":"BE","coord":{"lon":5.65298,"lat":50.666222}},{"_id":2801859,"name":"Blankenberge","country":"BE","coord":{"lon":3.14175,"lat":51.301231}},{"_id":2801858,"name":"Blankenberge","country":"BE","coord":{"lon":3.13227,"lat":51.313061}},{"_id":2784640,"name":"Villers-le-Bouillet","country":"BE","coord":{"lon":5.26134,"lat":50.577679}},{"_id":2784639,"name":"Villers-le-Bouillet","country":"BE","coord":{"lon":5.25945,"lat":50.57708}},{"_id":2784556,"name":"Virton","country":"BE","coord":{"lon":5.53333,"lat":49.599998}},{"_id":2784555,"name":"Virton","country":"BE","coord":{"lon":5.53259,"lat":49.568241}},{"_id":2802275,"name":"Bemel","country":"BE","coord":{"lon":4.41747,"lat":50.830959}},{"_id":2791664,"name":"Marloie","country":"BE","coord":{"lon":5.32141,"lat":50.198441}},{"_id":2797782,"name":"Gedinne","country":"BE","coord":{"lon":4.93835,"lat":49.98048}},{"_id":2797781,"name":"Gedinne","country":"BE","coord":{"lon":4.93674,"lat":49.98037}},{"_id":2793512,"name":"La Lonhienne","country":"BE","coord":{"lon":5.67873,"lat":50.567268}},{"_id":2788768,"name":"Ponsin","country":"BE","coord":{"lon":5.16667,"lat":50.666672}},{"_id":2799754,"name":"De Hulst","country":"BE","coord":{"lon":4.96819,"lat":50.95039}},{"_id":2791587,"name":"Mathysart","country":"BE","coord":{"lon":5.6,"lat":50.599998}},{"_id":2801923,"name":"Binche","country":"BE","coord":{"lon":4.16587,"lat":50.416229}},{"_id":2801922,"name":"Binche","country":"BE","coord":{"lon":4.16469,"lat":50.411549}},{"_id":2794855,"name":"Juprelle","country":"BE","coord":{"lon":5.53368,"lat":50.70771}},{"_id":2796584,"name":"Hannut","country":"BE","coord":{"lon":5.07603,"lat":50.67231}},{"_id":2796583,"name":"Hannut","country":"BE","coord":{"lon":5.07898,"lat":50.671421}},{"_id":2791019,"name":"Sint-Jans-Molenbeek","country":"BE","coord":{"lon":4.31667,"lat":50.849998}},{"_id":2791018,"name":"Molenbeek-Saint-Jean","country":"BE","coord":{"lon":4.31248,"lat":50.849899}},{"_id":2801779,"name":"Bloed Putteken","country":"BE","coord":{"lon":2.86667,"lat":51.033329}},{"_id":2803447,"name":"Arrondissement Aalst","country":"BE","coord":{"lon":3.95535,"lat":50.868752}},{"_id":2797639,"name":"Geraardsbergen","country":"BE","coord":{"lon":3.90696,"lat":50.780399}},{"_id":2789439,"name":"Overboelare","country":"BE","coord":{"lon":3.8637,"lat":50.763821}},{"_id":2785336,"name":"Tournay","country":"BE","coord":{"lon":5.65,"lat":50.700001}},{"_id":2783386,"name":"Yvoir","country":"BE","coord":{"lon":4.88111,"lat":50.327492}},{"_id":2797470,"name":"Godinne","country":"BE","coord":{"lon":4.87364,"lat":50.348091}},{"_id":2790757,"name":"Mont-Saint-Guibert","country":"BE","coord":{"lon":4.61134,"lat":50.63422}},{"_id":2790756,"name":"Mont-Saint-Guibert","country":"BE","coord":{"lon":4.61061,"lat":50.63427}},{"_id":2789014,"name":"Arrondissement de Philippeville","country":"BE","coord":{"lon":4.54225,"lat":50.19619}},{"_id":2798277,"name":"Florennes","country":"BE","coord":{"lon":4.6,"lat":50.25}},{"_id":2798276,"name":"Florennes","country":"BE","coord":{"lon":4.60636,"lat":50.25127}},{"_id":2801290,"name":"Bouge","country":"BE","coord":{"lon":4.89218,"lat":50.471931}},{"_id":2797615,"name":"Gerlimpont","country":"BE","coord":{"lon":4.42586,"lat":50.247189}},{"_id":2785930,"name":"Stuivenberg","country":"BE","coord":{"lon":4.11162,"lat":50.801899}},{"_id":2803019,"name":"Assesse","country":"BE","coord":{"lon":5.02058,"lat":50.369339}},{"_id":2803018,"name":"Assesse","country":"BE","coord":{"lon":5.02204,"lat":50.369339}},{"_id":2801153,"name":"Braine-le-Château","country":"BE","coord":{"lon":4.2871,"lat":50.680721}},{"_id":2801152,"name":"Braine-le-Chateau","country":"BE","coord":{"lon":4.27385,"lat":50.679901}},{"_id":2787949,"name":"Rochefort","country":"BE","coord":{"lon":5.21936,"lat":50.162601}},{"_id":2787948,"name":"Rochefort","country":"BE","coord":{"lon":5.2216,"lat":50.163101}},{"_id":2793212,"name":"L'Aulnois","country":"BE","coord":{"lon":4.33873,"lat":50.505402}},{"_id":2803247,"name":"Amay","country":"BE","coord":{"lon":5.3088,"lat":50.54845}},{"_id":2803246,"name":"Amay","country":"BE","coord":{"lon":5.30974,"lat":50.54829}},{"_id":2793167,"name":"La Ville","country":"BE","coord":{"lon":5.46667,"lat":50.666672}},{"_id":2800395,"name":"Chênée","country":"BE","coord":{"lon":5.6141,"lat":50.612}},{"_id":2798230,"name":"Fond de Malonne","country":"BE","coord":{"lon":4.78333,"lat":50.433331}},{"_id":2792778,"name":"Le Sart Haguet","country":"BE","coord":{"lon":5.53865,"lat":50.568192}},{"_id":2802788,"name":"Baelen","country":"BE","coord":{"lon":5.97188,"lat":50.631329}},{"_id":2802787,"name":"Baelen","country":"BE","coord":{"lon":5.97433,"lat":50.63131}},{"_id":2785563,"name":"Thimister-Clermont","country":"BE","coord":{"lon":5.86713,"lat":50.655121}},{"_id":7732060,"name":"Thimister-Clermont","country":"BE","coord":{"lon":5.8643,"lat":50.653709}},{"_id":2793552,"name":"La Horne","country":"BE","coord":{"lon":3.25,"lat":50.700001}},{"_id":2789367,"name":"Padraye","country":"BE","coord":{"lon":3.68333,"lat":50.73333}},{"_id":2792852,"name":"Le Panier","country":"BE","coord":{"lon":4.4553,"lat":50.600288}},{"_id":2791616,"name":"Masnuy-Saint-Jean","country":"BE","coord":{"lon":3.94032,"lat":50.532089}},{"_id":2789133,"name":"Petit Axhe","country":"BE","coord":{"lon":5.23507,"lat":50.684978}},{"_id":2789636,"name":"Oreye","country":"BE","coord":{"lon":5.35043,"lat":50.717602}},{"_id":2789583,"name":"Otrange","country":"BE","coord":{"lon":5.37858,"lat":50.736019}},{"_id":2798358,"name":"Fexhe-le-Haut-Clocher","country":"BE","coord":{"lon":5.4009,"lat":50.665291}},{"_id":2798357,"name":"Fexhe-le-Haut-Clocher","country":"BE","coord":{"lon":5.39978,"lat":50.665401}},{"_id":2799318,"name":"Donceel","country":"BE","coord":{"lon":5.32176,"lat":50.64674}},{"_id":2799317,"name":"Donceel","country":"BE","coord":{"lon":5.32,"lat":50.64827}},{"_id":2792518,"name":"Le Tilleul","country":"BE","coord":{"lon":4.99651,"lat":50.61882}},{"_id":2799998,"name":"Crisnée","country":"BE","coord":{"lon":5.4,"lat":50.716671}},{"_id":2799997,"name":"Crisnee","country":"BE","coord":{"lon":5.39802,"lat":50.71703}},{"_id":2798728,"name":"En Sterre","country":"BE","coord":{"lon":5.53568,"lat":50.65094}},{"_id":2802607,"name":"Bassenge","country":"BE","coord":{"lon":5.60921,"lat":50.75948}},{"_id":2802606,"name":"Bassenge","country":"BE","coord":{"lon":5.60989,"lat":50.758831}},{"_id":2803009,"name":"Arrondissement d'Ath","country":"BE","coord":{"lon":3.74816,"lat":50.638889}},{"_id":2800329,"name":"Chièvres","country":"BE","coord":{"lon":3.80831,"lat":50.588032}},{"_id":2800328,"name":"Chievres","country":"BE","coord":{"lon":3.80711,"lat":50.587872}},{"_id":2803200,"name":"Anderlues","country":"BE","coord":{"lon":4.26982,"lat":50.407261}},{"_id":2803199,"name":"Anderlues","country":"BE","coord":{"lon":4.27136,"lat":50.40704}},{"_id":2785285,"name":"Tribotte","country":"BE","coord":{"lon":4.53333,"lat":50.583328}},{"_id":2784776,"name":"Vielsalm","country":"BE","coord":{"lon":5.91667,"lat":50.283329}},{"_id":2784775,"name":"Vielsalm","country":"BE","coord":{"lon":5.91502,"lat":50.284069}},{"_id":2798131,"name":"Forge d'en Haut","country":"BE","coord":{"lon":4.88333,"lat":50.333328}},{"_id":2791743,"name":"Arrondissement de Marche-en-Famenne","country":"BE","coord":{"lon":5.33333,"lat":50.23333}},{"_id":2790452,"name":"Nassogne","country":"BE","coord":{"lon":5.38333,"lat":50.116669}},{"_id":2790451,"name":"Nassogne","country":"BE","coord":{"lon":5.34274,"lat":50.12849}},{"_id":2793497,"name":"La Maladrie","country":"BE","coord":{"lon":4.27933,"lat":50.332699}},{"_id":2802511,"name":"Beaumont","country":"BE","coord":{"lon":4.23969,"lat":50.236832}},{"_id":2802510,"name":"Beaumont","country":"BE","coord":{"lon":4.23926,"lat":50.236992}},{"_id":2784995,"name":"Vaux sous Olne","country":"BE","coord":{"lon":5.74,"lat":50.581718}},{"_id":2784615,"name":"Villers-Saint-Siméon","country":"BE","coord":{"lon":5.53891,"lat":50.711239}},{"_id":2798471,"name":"Farciennes","country":"BE","coord":{"lon":4.5437,"lat":50.42963}},{"_id":2798470,"name":"Farciennes","country":"BE","coord":{"lon":4.54152,"lat":50.430061}},{"_id":2792333,"name":"Lincent","country":"BE","coord":{"lon":5.03878,"lat":50.71233}},{"_id":2792332,"name":"Lincent","country":"BE","coord":{"lon":5.03654,"lat":50.712219}},{"_id":2790809,"name":"Monthouet","country":"BE","coord":{"lon":5.80769,"lat":50.4217}},{"_id":2783152,"name":"Zulte","country":"BE","coord":{"lon":3.47295,"lat":50.932098}},{"_id":2783151,"name":"Zulte","country":"BE","coord":{"lon":3.44859,"lat":50.91954}},{"_id":2786230,"name":"Stabroek","country":"BE","coord":{"lon":4.37462,"lat":51.33083}},{"_id":2786229,"name":"Stabroek","country":"BE","coord":{"lon":4.37127,"lat":51.33189}},{"_id":2800501,"name":"Chapelle-lez-Herlaimont","country":"BE","coord":{"lon":4.28492,"lat":50.464279}},{"_id":2800500,"name":"Chapelle-lez-Herlaimont","country":"BE","coord":{"lon":4.28227,"lat":50.471298}},{"_id":2798637,"name":"Esneux","country":"BE","coord":{"lon":5.56667,"lat":50.533329}},{"_id":2798636,"name":"Esneux","country":"BE","coord":{"lon":5.56775,"lat":50.535961}},{"_id":2790468,"name":"Nandrin","country":"BE","coord":{"lon":5.42132,"lat":50.507858}},{"_id":2790467,"name":"Nandrin","country":"BE","coord":{"lon":5.41905,"lat":50.506741}},{"_id":2803175,"name":"Anhée","country":"BE","coord":{"lon":4.87887,"lat":50.310059}},{"_id":2803174,"name":"Anhee","country":"BE","coord":{"lon":4.87827,"lat":50.31039}},{"_id":2802796,"name":"Baconfoy","country":"BE","coord":{"lon":5.53385,"lat":50.08617}},{"_id":2792441,"name":"Libin Haut","country":"BE","coord":{"lon":5.2543,"lat":49.984501}},{"_id":2792986,"name":"Léglise","country":"BE","coord":{"lon":5.55,"lat":49.816669}},{"_id":2792985,"name":"Leglise","country":"BE","coord":{"lon":5.53652,"lat":49.79985}},{"_id":2802713,"name":"Banet Sarts","country":"BE","coord":{"lon":5.11667,"lat":50.01667}},{"_id":2785794,"name":"Tellin","country":"BE","coord":{"lon":5.21667,"lat":50.083328}},{"_id":2785793,"name":"Tellin","country":"BE","coord":{"lon":5.21638,"lat":50.080379}},{"_id":2787417,"name":"Saint-Ghislain","country":"BE","coord":{"lon":3.82007,"lat":50.448318}},{"_id":2787416,"name":"Saint-Ghislain","country":"BE","coord":{"lon":3.81886,"lat":50.448158}},{"_id":2796056,"name":"Hensies","country":"BE","coord":{"lon":3.68411,"lat":50.432629}},{"_id":6957776,"name":"Outre l'Eau","country":"BE","coord":{"lon":3.6,"lat":50.51667}},{"_id":2787964,"name":"Robertsart","country":"BE","coord":{"lon":3.70909,"lat":50.548512}},{"_id":2800688,"name":"Cacqhus","country":"BE","coord":{"lon":5.31667,"lat":50.599998}},{"_id":2785444,"name":"Tillesse","country":"BE","coord":{"lon":5.36667,"lat":50.48333}},{"_id":2785423,"name":"Tintigny","country":"BE","coord":{"lon":5.51667,"lat":49.683331}},{"_id":2785422,"name":"Tintigny","country":"BE","coord":{"lon":5.51349,"lat":49.683262}},{"_id":2783863,"name":"Wellin","country":"BE","coord":{"lon":5.11667,"lat":50.066669}},{"_id":2783862,"name":"Wellin","country":"BE","coord":{"lon":5.11413,"lat":50.081329}},{"_id":2800560,"name":"Champ Blandais","country":"BE","coord":{"lon":5.58333,"lat":49.916672}},{"_id":2787380,"name":"Saint-Léger","country":"BE","coord":{"lon":5.65,"lat":49.616669}},{"_id":2787378,"name":"Saint-Leger","country":"BE","coord":{"lon":5.65688,"lat":49.611961}},{"_id":2786409,"name":"Solhez","country":"BE","coord":{"lon":5.45,"lat":50.26667}},{"_id":2796810,"name":"Habay","country":"BE","coord":{"lon":5.61745,"lat":49.73103}},{"_id":8199019,"name":"Habay","country":"BE","coord":{"lon":5.61676,"lat":49.730141}},{"_id":2795239,"name":"Houyet","country":"BE","coord":{"lon":5.00968,"lat":50.18586}},{"_id":2795238,"name":"Houyet","country":"BE","coord":{"lon":5.00762,"lat":50.186192}},{"_id":2802136,"name":"Bernissart","country":"BE","coord":{"lon":3.65004,"lat":50.47411}},{"_id":2802135,"name":"Bernissart","country":"BE","coord":{"lon":3.64961,"lat":50.474602}},{"_id":2798667,"name":"Erquelinnes","country":"BE","coord":{"lon":4.11232,"lat":50.307209}},{"_id":2786399,"name":"Solre-sur-Sambre","country":"BE","coord":{"lon":4.15429,"lat":50.30809}},{"_id":2788766,"name":"Pont-à-Celles","country":"BE","coord":{"lon":4.36363,"lat":50.505291}},{"_id":2784742,"name":"Viesville","country":"BE","coord":{"lon":4.40852,"lat":50.490879}},{"_id":6957761,"name":"Rivage","country":"BE","coord":{"lon":3.9,"lat":50.549999}},{"_id":2802922,"name":"Au Pont","country":"BE","coord":{"lon":4.13333,"lat":50.599998}},{"_id":2798460,"name":"Faubourg de Bruxelles","country":"BE","coord":{"lon":3.78333,"lat":50.633331}},{"_id":2796630,"name":"Hamoir","country":"BE","coord":{"lon":5.53462,"lat":50.426998}},{"_id":2796629,"name":"Hamoir","country":"BE","coord":{"lon":5.53304,"lat":50.42675}},{"_id":2784003,"name":"Wastinelle","country":"BE","coord":{"lon":3.91667,"lat":50.650002}},{"_id":2797283,"name":"Grande Fonderie","country":"BE","coord":{"lon":5.66667,"lat":50.299999}},{"_id":2799750,"name":"Deidenberg","country":"BE","coord":{"lon":6.13861,"lat":50.347778}},{"_id":2796267,"name":"Heid de Spa","country":"BE","coord":{"lon":5.86667,"lat":50.5}},{"_id":2801285,"name":"Bouillenne","country":"BE","coord":{"lon":5.68333,"lat":50.616669}},{"_id":2798486,"name":"Famenne","country":"BE","coord":{"lon":5.46667,"lat":50.349998}},{"_id":2789473,"name":"Ounes","country":"BE","coord":{"lon":5.13333,"lat":50.333328}},{"_id":2802789,"name":"Baegnée","country":"BE","coord":{"lon":5.1424,"lat":50.63026}},{"_id":2800449,"name":"Châtelet","country":"BE","coord":{"lon":4.5298,"lat":50.403049}},{"_id":2800448,"name":"Chatelet","country":"BE","coord":{"lon":4.52826,"lat":50.403381}},{"_id":2802997,"name":"Attert","country":"BE","coord":{"lon":5.78525,"lat":49.75116}},{"_id":2798367,"name":"Ferrières","country":"BE","coord":{"lon":5.60955,"lat":50.401409}},{"_id":2798365,"name":"Ferrieres","country":"BE","coord":{"lon":5.61092,"lat":50.401569}},{"_id":2802107,"name":"Bertrix","country":"BE","coord":{"lon":5.25,"lat":49.849998}},{"_id":2802106,"name":"Bertrix","country":"BE","coord":{"lon":5.25539,"lat":49.855961}},{"_id":2801227,"name":"Boussu","country":"BE","coord":{"lon":3.79578,"lat":50.43438}},{"_id":2801226,"name":"Boussu","country":"BE","coord":{"lon":3.7944,"lat":50.43417}},{"_id":2791642,"name":"Martelange","country":"BE","coord":{"lon":5.73655,"lat":49.831951}},{"_id":2787261,"name":"Sars-la-Bruyère","country":"BE","coord":{"lon":3.8744,"lat":50.371632}},{"_id":2788731,"name":"Pont Troué","country":"BE","coord":{"lon":3.87114,"lat":50.373501}},{"_id":2799226,"name":"Dour","country":"BE","coord":{"lon":3.77792,"lat":50.395828}},{"_id":2789080,"name":"Petit Hainin","country":"BE","coord":{"lon":3.78333,"lat":50.400002}},{"_id":2798593,"name":"Etalle","country":"BE","coord":{"lon":5.60201,"lat":49.676399}},{"_id":2798439,"name":"Fauvillers","country":"BE","coord":{"lon":5.66667,"lat":49.849998}},{"_id":2798438,"name":"Fauvillers","country":"BE","coord":{"lon":5.66405,"lat":49.851158}},{"_id":2800458,"name":"Chastre","country":"BE","coord":{"lon":4.62988,"lat":50.600891}},{"_id":7648268,"name":"Chastre","country":"BE","coord":{"lon":4.634,"lat":50.60067}},{"_id":2785746,"name":"Tenneville","country":"BE","coord":{"lon":5.48333,"lat":50.083328}},{"_id":2785745,"name":"Tenneville","country":"BE","coord":{"lon":5.52894,"lat":50.095009}},{"_id":2797964,"name":"Frênes","country":"BE","coord":{"lon":4.86667,"lat":50.383331}},{"_id":2789785,"name":"Arrondissement Oostende","country":"BE","coord":{"lon":2.94958,"lat":51.183922}},{"_id":2789788,"name":"Oostende","country":"BE","coord":{"lon":2.92711,"lat":51.211899}},{"_id":2789786,"name":"Oostende","country":"BE","coord":{"lon":2.91185,"lat":51.223389}},{"_id":2799329,"name":"Doische","country":"BE","coord":{"lon":4.7418,"lat":50.135208}},{"_id":2799328,"name":"Doische","country":"BE","coord":{"lon":4.73545,"lat":50.13356}},{"_id":2785873,"name":"Sur le Try","country":"BE","coord":{"lon":5.13128,"lat":50.437931}},{"_id":2802502,"name":"Beauraing","country":"BE","coord":{"lon":4.95595,"lat":50.109192}},{"_id":2802501,"name":"Beauraing","country":"BE","coord":{"lon":4.95554,"lat":50.11042}},{"_id":2794990,"name":"Jalhay","country":"BE","coord":{"lon":5.96841,"lat":50.559799}},{"_id":2794989,"name":"Jalhay","country":"BE","coord":{"lon":5.96764,"lat":50.558762}},{"_id":2800205,"name":"Comblain-au-Pont","country":"BE","coord":{"lon":5.57865,"lat":50.475529}},{"_id":2800204,"name":"Comblain-au-Pont","country":"BE","coord":{"lon":5.57711,"lat":50.47488}},{"_id":2800955,"name":"Brombais","country":"BE","coord":{"lon":4.78921,"lat":50.695221}},{"_id":2785543,"name":"'t Hoeksken","country":"BE","coord":{"lon":3.96667,"lat":50.799999}},{"_id":2797961,"name":"Frenoit","country":"BE","coord":{"lon":3.73333,"lat":50.73333}},{"_id":2785383,"name":"Tongrenelle","country":"BE","coord":{"lon":4.60775,"lat":50.511089}},{"_id":2795114,"name":"Huy","country":"BE","coord":{"lon":5.23155,"lat":50.51976}},{"_id":2795113,"name":"Huy","country":"BE","coord":{"lon":5.23284,"lat":50.51894}},{"_id":2787304,"name":"Saiwiat","country":"BE","coord":{"lon":4.9,"lat":50.599998}},{"_id":2792652,"name":"Les Haies","country":"BE","coord":{"lon":4.44692,"lat":50.381618}},{"_id":2797599,"name":"Gerpinnes","country":"BE","coord":{"lon":4.53049,"lat":50.33746}},{"_id":2797598,"name":"Gerpinnes","country":"BE","coord":{"lon":4.52731,"lat":50.337891}},{"_id":2783185,"name":"Zonnebeke","country":"BE","coord":{"lon":2.98768,"lat":50.872768}},{"_id":2783184,"name":"Zonnebeke","country":"BE","coord":{"lon":2.98725,"lat":50.872601}},{"_id":2791284,"name":"Messines","country":"BE","coord":{"lon":2.89764,"lat":50.765808}},{"_id":2796483,"name":"Hastière","country":"BE","coord":{"lon":4.81667,"lat":50.216671}},{"_id":2796480,"name":"Hastière-par-delà","country":"BE","coord":{"lon":4.82948,"lat":50.214951}},{"_id":2792401,"name":"Lierneux","country":"BE","coord":{"lon":5.79065,"lat":50.28616}},{"_id":2792400,"name":"Lierneux","country":"BE","coord":{"lon":5.79236,"lat":50.284771}},{"_id":2789355,"name":"Paliseul","country":"BE","coord":{"lon":5.13333,"lat":49.900002}},{"_id":2789354,"name":"Paliseul","country":"BE","coord":{"lon":5.13537,"lat":49.90395}},{"_id":2799879,"name":"Damré","country":"BE","coord":{"lon":5.67784,"lat":50.50555}},{"_id":2795760,"name":"Hietinne","country":"BE","coord":{"lon":5.23443,"lat":50.381569}},{"_id":2785667,"name":"Terme","country":"BE","coord":{"lon":5.23333,"lat":49.783329}},{"_id":2800712,"name":"Butgenbach","country":"BE","coord":{"lon":6.20556,"lat":50.427441}},{"_id":2800711,"name":"Butgenbach","country":"BE","coord":{"lon":6.20504,"lat":50.426891}},{"_id":2791734,"name":"Marchin","country":"BE","coord":{"lon":5.24426,"lat":50.466518}},{"_id":2791733,"name":"Marchin","country":"BE","coord":{"lon":5.2428,"lat":50.467072}},{"_id":2791262,"name":"Mettet","country":"BE","coord":{"lon":4.6588,"lat":50.321678}},{"_id":2791261,"name":"Mettet","country":"BE","coord":{"lon":4.66232,"lat":50.32119}},{"_id":2793295,"name":"La Redoute","country":"BE","coord":{"lon":4.41667,"lat":50.166672}},{"_id":2793092,"name":"Le Coucou","country":"BE","coord":{"lon":3.45,"lat":50.566669}},{"_id":2799992,"name":"Croisette","country":"BE","coord":{"lon":3.3,"lat":50.549999}},{"_id":2785594,"name":"Theux","country":"BE","coord":{"lon":5.81237,"lat":50.534328}},{"_id":2785593,"name":"Theux","country":"BE","coord":{"lon":5.81245,"lat":50.53323}},{"_id":2792344,"name":"Gouvy","country":"BE","coord":{"lon":5.94034,"lat":50.185532}},{"_id":2797346,"name":"Gouvy","country":"BE","coord":{"lon":5.93918,"lat":50.186001}},{"_id":2792661,"name":"Les Golettes","country":"BE","coord":{"lon":5.81667,"lat":50.566669}},{"_id":2797582,"name":"Gesves","country":"BE","coord":{"lon":5.07345,"lat":50.401619}},{"_id":2797581,"name":"Gesves","country":"BE","coord":{"lon":5.07457,"lat":50.401459}},{"_id":2800762,"name":"Burdinne","country":"BE","coord":{"lon":5.0756,"lat":50.58226}},{"_id":2800761,"name":"Burdinne","country":"BE","coord":{"lon":5.07663,"lat":50.584541}},{"_id":2802144,"name":"Berloz","country":"BE","coord":{"lon":5.2137,"lat":50.699341}},{"_id":2802143,"name":"Berloz","country":"BE","coord":{"lon":5.21236,"lat":50.698292}},{"_id":2801155,"name":"Braine-l'Alleud","country":"BE","coord":{"lon":4.35984,"lat":50.675129}},{"_id":2801154,"name":"Braine-lAlleud","country":"BE","coord":{"lon":4.36784,"lat":50.683632}},{"_id":2800025,"name":"Couvin","country":"BE","coord":{"lon":4.49495,"lat":50.052841}},{"_id":2789480,"name":"Ouffet","country":"BE","coord":{"lon":5.46896,"lat":50.43903}},{"_id":2789479,"name":"Ouffet","country":"BE","coord":{"lon":5.4657,"lat":50.438702}},{"_id":2798151,"name":"Fontery","country":"BE","coord":{"lon":4.47228,"lat":50.460548}},{"_id":2798313,"name":"Flawinne","country":"BE","coord":{"lon":4.81047,"lat":50.457939}},{"_id":2787495,"name":"Ry Massart","country":"BE","coord":{"lon":4.58333,"lat":50.283329}},{"_id":2789237,"name":"Pecq","country":"BE","coord":{"lon":3.35672,"lat":50.68504}},{"_id":2789236,"name":"Pecq","country":"BE","coord":{"lon":3.33789,"lat":50.686192}},{"_id":2788445,"name":"Quiévrain","country":"BE","coord":{"lon":3.68505,"lat":50.40715}},{"_id":2788444,"name":"Quievrain","country":"BE","coord":{"lon":3.68351,"lat":50.407372}},{"_id":2800608,"name":"Celles","country":"BE","coord":{"lon":3.4483,"lat":50.703838}},{"_id":2800605,"name":"Celles","country":"BE","coord":{"lon":3.45733,"lat":50.712292}},{"_id":2786388,"name":"Somme-Leuze","country":"BE","coord":{"lon":5.36667,"lat":50.333328}},{"_id":2786387,"name":"Somme-Leuze","country":"BE","coord":{"lon":5.36705,"lat":50.33699}},{"_id":2798202,"name":"Fonds de Lavois","country":"BE","coord":{"lon":4.83333,"lat":50.25}},{"_id":2801284,"name":"Bouillon","country":"BE","coord":{"lon":5.06779,"lat":49.79689}},{"_id":2801283,"name":"Bouillon","country":"BE","coord":{"lon":5.06704,"lat":49.79324}},{"_id":2795127,"name":"Hurlugeai","country":"BE","coord":{"lon":4.38333,"lat":50.299999}},{"_id":2785258,"name":"Trieu-de-Wazon","country":"BE","coord":{"lon":3.26667,"lat":50.633331}},{"_id":2785194,"name":"Trou des Nutons","country":"BE","coord":{"lon":5.78333,"lat":50.133331}},{"_id":2785080,"name":"Vache Fontaine","country":"BE","coord":{"lon":4.53333,"lat":50.200001}},{"_id":2803149,"name":"Anthisnes","country":"BE","coord":{"lon":5.51667,"lat":50.48333}},{"_id":2803148,"name":"Anthisnes","country":"BE","coord":{"lon":5.519,"lat":50.483231}},{"_id":2800445,"name":"Châtelineau","country":"BE","coord":{"lon":4.52016,"lat":50.415001}},{"_id":2790749,"name":"Mont-sur-Marchienne","country":"BE","coord":{"lon":4.40732,"lat":50.389969}},{"_id":2802114,"name":"Bertogne","country":"BE","coord":{"lon":5.668,"lat":50.083691}},{"_id":2802113,"name":"Bertogne","country":"BE","coord":{"lon":5.66689,"lat":50.083641}},{"_id":2791735,"name":"Marchienne-au-Pont","country":"BE","coord":{"lon":4.3953,"lat":50.405731}},{"_id":2797349,"name":"Goutroux","country":"BE","coord":{"lon":4.36226,"lat":50.41333}},{"_id":2791535,"name":"Maasmechelen","country":"BE","coord":{"lon":5.7,"lat":50.966671}},{"_id":2791961,"name":"Maasmechelen","country":"BE","coord":{"lon":5.69452,"lat":50.96545}},{"_id":2788186,"name":"Rendeux","country":"BE","coord":{"lon":5.50414,"lat":50.234219}},{"_id":2802338,"name":"Belle Fontaine","country":"BE","coord":{"lon":4.31772,"lat":50.416721}},{"_id":2786337,"name":"Sous le Bois","country":"BE","coord":{"lon":5.54949,"lat":50.295528}},{"_id":2800540,"name":"Champ Laurent","country":"BE","coord":{"lon":4.62038,"lat":50.686378}},{"_id":2784870,"name":"Vergadering","country":"BE","coord":{"lon":4.3,"lat":50.866669}},{"_id":2800357,"name":"Chertal","country":"BE","coord":{"lon":5.66667,"lat":50.683331}},{"_id":2784626,"name":"Les Bons Villers","country":"BE","coord":{"lon":4.4335,"lat":50.532089}},{"_id":2791376,"name":"Mellet","country":"BE","coord":{"lon":4.47856,"lat":50.50573}},{"_id":2791133,"name":"Modave","country":"BE","coord":{"lon":5.29575,"lat":50.446629}},{"_id":2791132,"name":"Modave","country":"BE","coord":{"lon":5.29532,"lat":50.44614}},{"_id":2793741,"name":"La Bretagne","country":"BE","coord":{"lon":4.361,"lat":50.421009}},{"_id":2791677,"name":"Mariomont","country":"BE","coord":{"lon":5.9,"lat":50.583328}},{"_id":2786492,"name":"Sluis","country":"BE","coord":{"lon":3.65527,"lat":50.954899}},{"_id":2793280,"name":"La Roche-en-Ardenne","country":"BE","coord":{"lon":5.6,"lat":50.183331}},{"_id":2793279,"name":"La Roche-en-Ardenne","country":"BE","coord":{"lon":5.57547,"lat":50.183609}},{"_id":2800326,"name":"Chimay","country":"BE","coord":{"lon":4.32106,"lat":50.048649}},{"_id":2800325,"name":"Chimay","country":"BE","coord":{"lon":4.31712,"lat":50.048561}},{"_id":2801950,"name":"Bièvre","country":"BE","coord":{"lon":5.01646,"lat":49.94001}},{"_id":2801949,"name":"Bievre","country":"BE","coord":{"lon":5.01592,"lat":49.940861}},{"_id":2797664,"name":"Gennevaux","country":"BE","coord":{"lon":5.69991,"lat":49.567581}},{"_id":2798666,"name":"Erquelinnes","country":"BE","coord":{"lon":4.11129,"lat":50.306881}},{"_id":2800613,"name":"Cawette","country":"BE","coord":{"lon":5.48603,"lat":49.5942}},{"_id":2789622,"name":"Orp-Jauche","country":"BE","coord":{"lon":4.94436,"lat":50.682541}},{"_id":2789621,"name":"Orp-le-Grand","country":"BE","coord":{"lon":4.9891,"lat":50.703308}},{"_id":2787316,"name":"Saint-Vith","country":"BE","coord":{"lon":6.12728,"lat":50.284069}},{"_id":2787315,"name":"Saint-Vith","country":"BE","coord":{"lon":6.12724,"lat":50.28146}},{"_id":2799898,"name":"Dalhem","country":"BE","coord":{"lon":5.72602,"lat":50.71315}},{"_id":2799897,"name":"Dalhem","country":"BE","coord":{"lon":5.72774,"lat":50.71315}},{"_id":2800220,"name":"Colfontaine","country":"BE","coord":{"lon":3.85569,"lat":50.414101}},{"_id":2802247,"name":"Berchem-Sainte-Agathe","country":"BE","coord":{"lon":4.29557,"lat":50.865669}},{"_id":2794073,"name":"Kortenaken","country":"BE","coord":{"lon":5.05096,"lat":50.900429}},{"_id":2794516,"name":"Kersbeek-Miskom","country":"BE","coord":{"lon":4.99578,"lat":50.885441}},{"_id":2790907,"name":"Momignies","country":"BE","coord":{"lon":4.16648,"lat":50.02721}},{"_id":2790906,"name":"Momignies","country":"BE","coord":{"lon":4.16519,"lat":50.0271}},{"_id":2793723,"name":"La Calamine","country":"BE","coord":{"lon":6.01313,"lat":50.71891}},{"_id":2793722,"name":"La Calamine","country":"BE","coord":{"lon":6.01107,"lat":50.71809}},{"_id":2801691,"name":"Boffereth","country":"BE","coord":{"lon":5.95,"lat":50.73333}},{"_id":2793124,"name":"Le But","country":"BE","coord":{"lon":3.58905,"lat":50.65778}},{"_id":7647765,"name":"Ottignies-Louvain-la-Neuve","country":"BE","coord":{"lon":4.55023,"lat":50.667141}},{"_id":2802419,"name":"Beez","country":"BE","coord":{"lon":4.91175,"lat":50.468601}},{"_id":2800461,"name":"Chasse Royale","country":"BE","coord":{"lon":3.95001,"lat":50.428421}},{"_id":2789070,"name":"Petit Howardries","country":"BE","coord":{"lon":3.38476,"lat":50.519531}},{"_id":2797484,"name":"Gobard","country":"BE","coord":{"lon":4.13333,"lat":50.666672}},{"_id":2797454,"name":"Goegnies-Chaussée","country":"BE","coord":{"lon":3.94169,"lat":50.34119}},{"_id":2784070,"name":"Waréchaix","country":"BE","coord":{"lon":3.95207,"lat":50.346722}},{"_id":2784312,"name":"Vresse-sur-Semois","country":"BE","coord":{"lon":4.9375,"lat":49.86742}},{"_id":2784311,"name":"Vresse-sur-Semois","country":"BE","coord":{"lon":4.93333,"lat":49.866669}},{"_id":2785456,"name":"Tihange","country":"BE","coord":{"lon":5.26176,"lat":50.529739}},{"_id":2791389,"name":"Linter","country":"BE","coord":{"lon":5.03826,"lat":50.843021}},{"_id":2789615,"name":"Orsmaal-Gussenhoven","country":"BE","coord":{"lon":5.06178,"lat":50.805279}},{"_id":2793464,"name":"Rouvroy","country":"BE","coord":{"lon":5.48333,"lat":49.533329}},{"_id":2796520,"name":"Harnoncourt","country":"BE","coord":{"lon":5.49877,"lat":49.536179}},{"_id":2802359,"name":"Belgrade","country":"BE","coord":{"lon":4.82935,"lat":50.471378}},{"_id":2798361,"name":"Festingue","country":"BE","coord":{"lon":3.23333,"lat":50.73333}},{"_id":2793660,"name":"La Docherie","country":"BE","coord":{"lon":4.40629,"lat":50.422352}},{"_id":2790805,"name":"Montigny-le-Tilleul","country":"BE","coord":{"lon":4.37754,"lat":50.380058}},{"_id":2790804,"name":"Montigny-le-Tilleul","country":"BE","coord":{"lon":4.37582,"lat":50.380562}},{"_id":2789837,"name":"Oneux","country":"BE","coord":{"lon":5.45802,"lat":50.603352}},{"_id":2787968,"name":"Robermont","country":"BE","coord":{"lon":5.60578,"lat":50.62756}},{"_id":2795074,"name":"Im Grünenthal","country":"BE","coord":{"lon":6.05,"lat":50.73333}},{"_id":2795913,"name":"Herve","country":"BE","coord":{"lon":5.79606,"lat":50.641129}},{"_id":2800575,"name":"Chaineux","country":"BE","coord":{"lon":5.83478,"lat":50.631828}},{"_id":2793323,"name":"La Perche Rompue","country":"BE","coord":{"lon":3.72981,"lat":50.30912}},{"_id":2798674,"name":"Erpent","country":"BE","coord":{"lon":4.90557,"lat":50.45116}},{"_id":2800223,"name":"Cointe","country":"BE","coord":{"lon":5.5567,"lat":50.618629}},{"_id":2793748,"name":"La Bouverie","country":"BE","coord":{"lon":4.36067,"lat":49.966591}},{"_id":2791745,"name":"Marche-en-Famenne","country":"BE","coord":{"lon":5.33333,"lat":50.200001}},{"_id":2784211,"name":"Waha","country":"BE","coord":{"lon":5.34174,"lat":50.209148}},{"_id":2800825,"name":"Bucquoi","country":"BE","coord":{"lon":3.23333,"lat":50.666672}},{"_id":6957760,"name":"Rivreulle","country":"BE","coord":{"lon":4.11667,"lat":50.349998}},{"_id":2800377,"name":"Chenois","country":"BE","coord":{"lon":5.54988,"lat":49.558262}},{"_id":2788449,"name":"Quevaucamps","country":"BE","coord":{"lon":3.26667,"lat":50.716671}},{"_id":2800866,"name":"Brussels","country":"BE","coord":{"lon":4.34878,"lat":50.850449}},{"_id":2797714,"name":"Gembloux","country":"BE","coord":{"lon":4.697,"lat":50.561001}},{"_id":2797233,"name":"Grand-Manil","country":"BE","coord":{"lon":4.67528,"lat":50.556961}},{"_id":2792552,"name":"Les Tombes","country":"BE","coord":{"lon":5.01211,"lat":50.42786}},{"_id":2796305,"name":"Heer","country":"BE","coord":{"lon":4.83205,"lat":50.163681}},{"_id":2796025,"name":"Herchies","country":"BE","coord":{"lon":4.23333,"lat":50.400002}},{"_id":2789528,"name":"Arrondissement Oudenaarde","country":"BE","coord":{"lon":3.65335,"lat":50.83263}},{"_id":2790540,"name":"Zwalm","country":"BE","coord":{"lon":3.73333,"lat":50.883331}},{"_id":2790399,"name":"Nederzwalm-Hermelgem","country":"BE","coord":{"lon":3.68333,"lat":50.883331}},{"_id":2798565,"name":"Évegnée-Tignée","country":"BE","coord":{"lon":5.70783,"lat":50.646469}},{"_id":2787939,"name":"Roclenge-sur-Geer","country":"BE","coord":{"lon":5.59444,"lat":50.756882}},{"_id":2803195,"name":"Andoy","country":"BE","coord":{"lon":4.92669,"lat":50.435249}},{"_id":2785189,"name":"Trou du Bois","country":"BE","coord":{"lon":4.39305,"lat":50.62841}},{"_id":2802253,"name":"Berceau","country":"BE","coord":{"lon":3.624,"lat":50.653221}},{"_id":2798310,"name":"Flémalle","country":"BE","coord":{"lon":5.44321,"lat":50.602421}},{"_id":7729847,"name":"Flémalle","country":"BE","coord":{"lon":5.44355,"lat":50.60223}},{"_id":2788705,"name":"Posthoornhoek","country":"BE","coord":{"lon":3.14664,"lat":50.800209}},{"_id":2801484,"name":"Boortmeerbeek","country":"BE","coord":{"lon":4.5728,"lat":50.97961}},{"_id":2801483,"name":"Boortmeerbeek","country":"BE","coord":{"lon":4.57443,"lat":50.97929}},{"_id":2788305,"name":"Raversijde","country":"BE","coord":{"lon":2.862,"lat":51.205799}},{"_id":2787297,"name":"Salinus","country":"BE","coord":{"lon":3.2,"lat":50.833328}},{"_id":2786125,"name":"Steenokkerzeel","country":"BE","coord":{"lon":4.51143,"lat":50.918781}},{"_id":2791368,"name":"Melsbroek","country":"BE","coord":{"lon":4.47985,"lat":50.915588}},{"_id":2784234,"name":"Waasdonk","country":"BE","coord":{"lon":4.45,"lat":51.183331}},{"_id":2783081,"name":"Zwijndrecht","country":"BE","coord":{"lon":4.32664,"lat":51.219791}},{"_id":2783089,"name":"Zwevegem","country":"BE","coord":{"lon":3.33848,"lat":50.812679}},{"_id":2783175,"name":"Zottegem","country":"BE","coord":{"lon":3.81052,"lat":50.86956}},{"_id":2783188,"name":"Zonhoven","country":"BE","coord":{"lon":5.36819,"lat":50.990639}},{"_id":2783204,"name":"Zoersel","country":"BE","coord":{"lon":4.71296,"lat":51.26825}},{"_id":2783274,"name":"Zemst","country":"BE","coord":{"lon":4.46079,"lat":50.983181}},{"_id":2783293,"name":"Zele","country":"BE","coord":{"lon":4.0403,"lat":51.065659}},{"_id":2783308,"name":"Zedelgem","country":"BE","coord":{"lon":3.1368,"lat":51.142361}},{"_id":2783416,"name":"Wuustwezel","country":"BE","coord":{"lon":4.59546,"lat":51.392139}},{"_id":2783632,"name":"Willebroek","country":"BE","coord":{"lon":4.36019,"lat":51.06041}},{"_id":2783759,"name":"Wevelgem","country":"BE","coord":{"lon":3.16667,"lat":50.799999}},{"_id":2783763,"name":"Wetteren","country":"BE","coord":{"lon":3.88341,"lat":51.00526}},{"_id":2783820,"name":"Wervik","country":"BE","coord":{"lon":3.03854,"lat":50.780689}},{"_id":2783941,"name":"Wavre","country":"BE","coord":{"lon":4.60138,"lat":50.717171}},{"_id":2783985,"name":"Waterloo","country":"BE","coord":{"lon":4.4014,"lat":50.712551}},{"_id":2784068,"name":"Waregem","country":"BE","coord":{"lon":3.42756,"lat":50.888981}},{"_id":2785169,"name":"Tubize","country":"BE","coord":{"lon":4.2009,"lat":50.69059}},{"_id":2785364,"name":"Torhout","country":"BE","coord":{"lon":3.10085,"lat":51.065601}},{"_id":2785470,"name":"Tienen","country":"BE","coord":{"lon":4.9378,"lat":50.807442}},{"_id":2785476,"name":"Tielt","country":"BE","coord":{"lon":3.32707,"lat":50.99931}},{"_id":2785612,"name":"Tessenderlo","country":"BE","coord":{"lon":5.08856,"lat":51.065128}},{"_id":2785778,"name":"Temse","country":"BE","coord":{"lon":4.21372,"lat":51.127941}},{"_id":2786087,"name":"Stekene","country":"BE","coord":{"lon":4.0365,"lat":51.2099}},{"_id":2786344,"name":"Soumagne","country":"BE","coord":{"lon":5.74679,"lat":50.61385}},{"_id":2786545,"name":"Sint-Truiden","country":"BE","coord":{"lon":5.18647,"lat":50.816792}},{"_id":2786559,"name":"Sint-Pieters-Leeuw","country":"BE","coord":{"lon":4.24355,"lat":50.779259}},{"_id":2786578,"name":"Sint-Niklaas","country":"BE","coord":{"lon":4.1437,"lat":51.165089}},{"_id":2786641,"name":"Sint-Katelijne-Waver","country":"BE","coord":{"lon":4.53469,"lat":51.06691}},{"_id":2786694,"name":"Sint-Gillis-Waas","country":"BE","coord":{"lon":4.12374,"lat":51.219139}},{"_id":2786700,"name":"Sint-Genesius-Rode","country":"BE","coord":{"lon":4.35754,"lat":50.746449}},{"_id":2786824,"name":"Seraing","country":"BE","coord":{"lon":5.50115,"lat":50.583618}},{"_id":2786963,"name":"Schoten","country":"BE","coord":{"lon":4.50268,"lat":51.25251}},{"_id":2787048,"name":"Schilde","country":"BE","coord":{"lon":4.58336,"lat":51.24107}},{"_id":2787356,"name":"Saint-Nicolas","country":"BE","coord":{"lon":5.53243,"lat":50.628368}},{"_id":2787662,"name":"Rotselaar","country":"BE","coord":{"lon":4.71665,"lat":50.953018}},{"_id":2787889,"name":"Roeselare","country":"BE","coord":{"lon":3.12269,"lat":50.946529}},{"_id":2788088,"name":"Riemst","country":"BE","coord":{"lon":5.60131,"lat":50.809952}},{"_id":2788348,"name":"Ranst","country":"BE","coord":{"lon":4.56533,"lat":51.189831}},{"_id":2788506,"name":"Puurs","country":"BE","coord":{"lon":4.28844,"lat":51.074089}},{"_id":2788521,"name":"Putte","country":"BE","coord":{"lon":4.63263,"lat":51.053371}},{"_id":2788726,"name":"Poperinge","country":"BE","coord":{"lon":2.72659,"lat":50.853859}},{"_id":2788765,"name":"Pont-a-Celles","country":"BE","coord":{"lon":4.36887,"lat":50.50518}},{"_id":2789232,"name":"Peer","country":"BE","coord":{"lon":5.45952,"lat":51.130299}},{"_id":2789413,"name":"Overijse","country":"BE","coord":{"lon":4.53461,"lat":50.774361}},{"_id":2789471,"name":"Oupeye","country":"BE","coord":{"lon":5.6468,"lat":50.711842}},{"_id":2789529,"name":"Oudenaarde","country":"BE","coord":{"lon":3.60891,"lat":50.851681}},{"_id":2789751,"name":"Oostkamp","country":"BE","coord":{"lon":3.23128,"lat":51.15432}},{"_id":2790114,"name":"Ninove","country":"BE","coord":{"lon":4.02657,"lat":50.827759}},{"_id":2790135,"name":"Nijlen","country":"BE","coord":{"lon":4.67008,"lat":51.160961}},{"_id":2790357,"name":"Neerpelt","country":"BE","coord":{"lon":5.4427,"lat":51.228069}},{"_id":2790595,"name":"Mouscron","country":"BE","coord":{"lon":3.20639,"lat":50.744968}},{"_id":2790676,"name":"Mortsel","country":"BE","coord":{"lon":4.45127,"lat":51.166969}},{"_id":2790869,"name":"Mons","country":"BE","coord":{"lon":3.95229,"lat":50.454128}},{"_id":2791067,"name":"Mol","country":"BE","coord":{"lon":5.11662,"lat":51.191879}},{"_id":2791194,"name":"Middelkerke","country":"BE","coord":{"lon":2.82077,"lat":51.185322}},{"_id":2791424,"name":"Meise","country":"BE","coord":{"lon":4.32655,"lat":50.939339}},{"_id":2791537,"name":"Mechelen","country":"BE","coord":{"lon":4.47762,"lat":51.025742}},{"_id":2791857,"name":"Maldegem","country":"BE","coord":{"lon":3.44511,"lat":51.207371}},{"_id":2791964,"name":"Maaseik","country":"BE","coord":{"lon":5.78379,"lat":51.098019}},{"_id":2792073,"name":"Louvain-la-Neuve","country":"BE","coord":{"lon":4.61443,"lat":50.668289}},{"_id":2792179,"name":"Lommel","country":"BE","coord":{"lon":5.31349,"lat":51.23074}},{"_id":2792196,"name":"Lokeren","country":"BE","coord":{"lon":3.99339,"lat":51.103642}},{"_id":2792235,"name":"Lochristi","country":"BE","coord":{"lon":3.83194,"lat":51.096439}},{"_id":2792360,"name":"Lille","country":"BE","coord":{"lon":4.82312,"lat":51.24197}},{"_id":2792397,"name":"Lier","country":"BE","coord":{"lon":4.57042,"lat":51.131279}},{"_id":2793077,"name":"Lede","country":"BE","coord":{"lon":3.98594,"lat":50.966259}},{"_id":2793144,"name":"Lebbeke","country":"BE","coord":{"lon":4.13457,"lat":51.004639}},{"_id":2793446,"name":"Lanaken","country":"BE","coord":{"lon":5.6468,"lat":50.893181}},{"_id":2793508,"name":"La Louviere","country":"BE","coord":{"lon":4.18785,"lat":50.486568}},{"_id":2794070,"name":"Kortenberg","country":"BE","coord":{"lon":4.54353,"lat":50.88982}},{"_id":2794117,"name":"Kontich","country":"BE","coord":{"lon":4.44706,"lat":51.13213}},{"_id":2794166,"name":"Koksijde","country":"BE","coord":{"lon":2.63772,"lat":51.116421}},{"_id":2794210,"name":"Knokke-Heist","country":"BE","coord":{"lon":3.26667,"lat":51.349998}},{"_id":2794663,"name":"Kasterlee","country":"BE","coord":{"lon":4.96651,"lat":51.24118}},{"_id":2794730,"name":"Kapellen","country":"BE","coord":{"lon":4.43539,"lat":51.31377}},{"_id":2794788,"name":"Kalmthout","country":"BE","coord":{"lon":4.47556,"lat":51.384418}},{"_id":2795009,"name":"Izegem","country":"BE","coord":{"lon":3.21378,"lat":50.91396}},{"_id":2795100,"name":"Ieper","country":"BE","coord":{"lon":2.88569,"lat":50.851139}},{"_id":2795261,"name":"Houthalen","country":"BE","coord":{"lon":5.37429,"lat":51.034271}},{"_id":2795398,"name":"Hoogstraten","country":"BE","coord":{"lon":4.76034,"lat":51.400291}},{"_id":2795730,"name":"Hoboken","country":"BE","coord":{"lon":4.34844,"lat":51.176109}},{"_id":2795800,"name":"Heusden","country":"BE","coord":{"lon":5.28013,"lat":51.03664}},{"_id":2795908,"name":"Herzele","country":"BE","coord":{"lon":3.89014,"lat":50.88681}},{"_id":2795912,"name":"Herve","country":"BE","coord":{"lon":5.79353,"lat":50.640831}},{"_id":2796009,"name":"Herentals","country":"BE","coord":{"lon":4.83248,"lat":51.176552}},{"_id":2796012,"name":"Herent","country":"BE","coord":{"lon":4.67056,"lat":50.908611}},{"_id":2796132,"name":"Helchteren","country":"BE","coord":{"lon":5.38244,"lat":51.055908}},{"_id":2796153,"name":"Heist-op-den-Berg","country":"BE","coord":{"lon":4.72827,"lat":51.075371}},{"_id":2796542,"name":"Harelbeke","country":"BE","coord":{"lon":3.30935,"lat":50.853432}},{"_id":2796637,"name":"Hamme","country":"BE","coord":{"lon":4.13705,"lat":51.098221}},{"_id":2796833,"name":"Haaltert","country":"BE","coord":{"lon":4.00093,"lat":50.906342}},{"_id":2797114,"name":"Grimbergen","country":"BE","coord":{"lon":4.37213,"lat":50.93409}},{"_id":2797638,"name":"Geraardsbergen","country":"BE","coord":{"lon":3.88223,"lat":50.77343}},{"_id":2797713,"name":"Gembloux","country":"BE","coord":{"lon":4.69889,"lat":50.561489}},{"_id":2797779,"name":"Geel","country":"BE","coord":{"lon":4.98917,"lat":51.165569}},{"_id":2798297,"name":"Fleurus","country":"BE","coord":{"lon":4.55006,"lat":50.483509}},{"_id":2798301,"name":"Fleron","country":"BE","coord":{"lon":5.68062,"lat":50.615162}},{"_id":2798551,"name":"Evergem","country":"BE","coord":{"lon":3.704,"lat":51.105301}},{"_id":2798573,"name":"Eupen","country":"BE","coord":{"lon":6.03647,"lat":50.627899}},{"_id":2798615,"name":"Essen","country":"BE","coord":{"lon":4.45393,"lat":51.462719}},{"_id":2799007,"name":"Edegem","country":"BE","coord":{"lon":4.44504,"lat":51.15662}},{"_id":2799090,"name":"Duffel","country":"BE","coord":{"lon":4.50903,"lat":51.095539}},{"_id":2799365,"name":"Dilbeek","country":"BE","coord":{"lon":4.25972,"lat":50.847988}},{"_id":2799369,"name":"Diksmuide","country":"BE","coord":{"lon":2.86384,"lat":51.032478}},{"_id":2799397,"name":"Diest","country":"BE","coord":{"lon":5.05062,"lat":50.989231}},{"_id":2799412,"name":"Diepenbeek","country":"BE","coord":{"lon":5.41875,"lat":50.907688}},{"_id":2799496,"name":"Destelbergen","country":"BE","coord":{"lon":3.79899,"lat":51.059521}},{"_id":2799645,"name":"Dendermonde","country":"BE","coord":{"lon":4.10106,"lat":51.02869}},{"_id":2799647,"name":"Denderleeuw","country":"BE","coord":{"lon":4.07601,"lat":50.885059}},{"_id":2800481,"name":"Charleroi","country":"BE","coord":{"lon":4.44448,"lat":50.411362}},{"_id":2801106,"name":"Brecht","country":"BE","coord":{"lon":4.63829,"lat":51.350239}},{"_id":2801117,"name":"Brasschaat","country":"BE","coord":{"lon":4.49182,"lat":51.291199}},{"_id":2801150,"name":"Braine-le-Comte","country":"BE","coord":{"lon":4.14658,"lat":50.609791}},{"_id":2801447,"name":"Bornem","country":"BE","coord":{"lon":4.24364,"lat":51.09716}},{"_id":2801494,"name":"Boom","country":"BE","coord":{"lon":4.3717,"lat":51.092419}},{"_id":2802031,"name":"Beveren","country":"BE","coord":{"lon":4.25633,"lat":51.211868}},{"_id":2802170,"name":"Beringen","country":"BE","coord":{"lon":5.22606,"lat":51.049541}},{"_id":2802435,"name":"Beerse","country":"BE","coord":{"lon":4.85304,"lat":51.319271}},{"_id":2802743,"name":"Balen","country":"BE","coord":{"lon":5.17027,"lat":51.168369}},{"_id":2803010,"name":"Ath","country":"BE","coord":{"lon":3.77801,"lat":50.629372}},{"_id":2803160,"name":"Ans","country":"BE","coord":{"lon":5.52029,"lat":50.6623}},{"_id":2803448,"name":"Aalst","country":"BE","coord":{"lon":4.0355,"lat":50.936039}},{"_id":2783144,"name":"Zutendaal","country":"BE","coord":{"lon":5.57273,"lat":50.932522}},{"_id":2783143,"name":"Zutendaal","country":"BE","coord":{"lon":5.5753,"lat":50.93306}},{"_id":2783154,"name":"Zuienkerke","country":"BE","coord":{"lon":3.13613,"lat":51.25248}},{"_id":2783153,"name":"Zuienkerke","country":"BE","coord":{"lon":3.15506,"lat":51.26511}},{"_id":2783196,"name":"Zomergem","country":"BE","coord":{"lon":3.55534,"lat":51.127682}},{"_id":2783195,"name":"Zomergem","country":"BE","coord":{"lon":3.56496,"lat":51.119942}},{"_id":2783216,"name":"Zingem","country":"BE","coord":{"lon":3.62253,"lat":50.910671}},{"_id":2783215,"name":"Zingem","country":"BE","coord":{"lon":3.65305,"lat":50.904091}},{"_id":2783279,"name":"Zelzate","country":"BE","coord":{"lon":3.81056,"lat":51.198872}},{"_id":2783307,"name":"Zeebrugge","country":"BE","coord":{"lon":3.18188,"lat":51.329021}},{"_id":2783348,"name":"Zandhoven","country":"BE","coord":{"lon":4.66438,"lat":51.216991}},{"_id":2783347,"name":"Zandhoven","country":"BE","coord":{"lon":4.66164,"lat":51.214882}},{"_id":2783385,"name":"Yvoir","country":"BE","coord":{"lon":4.88059,"lat":50.3279}},{"_id":2783463,"name":"Wommelgem","country":"BE","coord":{"lon":4.52431,"lat":51.2043}},{"_id":2783462,"name":"Wommelgem","country":"BE","coord":{"lon":4.5225,"lat":51.204521}},{"_id":2783587,"name":"Wingene","country":"BE","coord":{"lon":3.25259,"lat":51.056789}},{"_id":2783586,"name":"Wingene","country":"BE","coord":{"lon":3.27359,"lat":51.057819}},{"_id":2783685,"name":"Wijnegem","country":"BE","coord":{"lon":4.51607,"lat":51.22871}},{"_id":2783684,"name":"Wijnegem","country":"BE","coord":{"lon":4.51895,"lat":51.227871}},{"_id":2783718,"name":"Wielsbeke","country":"BE","coord":{"lon":3.37132,"lat":50.916351}},{"_id":2783729,"name":"Wichelen","country":"BE","coord":{"lon":3.95236,"lat":50.997601}},{"_id":2783728,"name":"Wichelen","country":"BE","coord":{"lon":3.97683,"lat":51.00526}},{"_id":2783855,"name":"De Haan","country":"BE","coord":{"lon":3.04287,"lat":51.272011}},{"_id":2783854,"name":"Wenduine","country":"BE","coord":{"lon":3.08213,"lat":51.298302}},{"_id":2783865,"name":"Wellen","country":"BE","coord":{"lon":5.33644,"lat":50.842049}},{"_id":2783864,"name":"Wellen","country":"BE","coord":{"lon":5.33867,"lat":50.840961}},{"_id":2783871,"name":"Welkenraedt","country":"BE","coord":{"lon":5.9733,"lat":50.662739}},{"_id":2783870,"name":"Welkenraedt","country":"BE","coord":{"lon":5.97034,"lat":50.6605}},{"_id":2784011,"name":"Wasseiges","country":"BE","coord":{"lon":5.00616,"lat":50.623661}},{"_id":2784010,"name":"Wasseiges","country":"BE","coord":{"lon":5.00528,"lat":50.621861}},{"_id":2797322,"name":"Waremme","country":"BE","coord":{"lon":5.25601,"lat":50.697929}},{"_id":2784066,"name":"Waremme","country":"BE","coord":{"lon":5.25524,"lat":50.697601}},{"_id":2784093,"name":"Wanze","country":"BE","coord":{"lon":5.20924,"lat":50.539509}},{"_id":2784092,"name":"Wanze","country":"BE","coord":{"lon":5.20846,"lat":50.53907}},{"_id":2784168,"name":"Walhain-Saint-Paul","country":"BE","coord":{"lon":4.69837,"lat":50.62627}},{"_id":2784228,"name":"Wachtebeke","country":"BE","coord":{"lon":3.87247,"lat":51.17881}},{"_id":2784227,"name":"Wachtebeke","country":"BE","coord":{"lon":3.87183,"lat":51.168522}},{"_id":2784232,"name":"Waasmunster","country":"BE","coord":{"lon":4.07734,"lat":51.118839}},{"_id":2784231,"name":"Waasmunster","country":"BE","coord":{"lon":4.08573,"lat":51.105721}},{"_id":2784238,"name":"Waarschoot","country":"BE","coord":{"lon":3.60726,"lat":51.15329}},{"_id":2784237,"name":"Waarschoot","country":"BE","coord":{"lon":3.605,"lat":51.1525}},{"_id":2784371,"name":"Vorselaar","country":"BE","coord":{"lon":4.7709,"lat":51.20285}},{"_id":2784370,"name":"Vorselaar","country":"BE","coord":{"lon":4.77259,"lat":51.202431}},{"_id":2784642,"name":"Villers-la-Ville","country":"BE","coord":{"lon":4.53333,"lat":50.583328}},{"_id":2784641,"name":"Villers-la-Ville","country":"BE","coord":{"lon":4.51667,"lat":50.566669}},{"_id":2784859,"name":"Verlaine","country":"BE","coord":{"lon":5.31893,"lat":50.607479}},{"_id":2784856,"name":"Verlaine","country":"BE","coord":{"lon":5.3174,"lat":50.60743}},{"_id":2784999,"name":"Vaux-sur-Sûre","country":"BE","coord":{"lon":5.57436,"lat":49.911549}},{"_id":2784994,"name":"Vaux-sur-Sure","country":"BE","coord":{"lon":5.57848,"lat":49.910999}},{"_id":2798035,"name":"Trooz","country":"BE","coord":{"lon":5.69384,"lat":50.570259}},{"_id":2785208,"name":"Trooz","country":"BE","coord":{"lon":5.69521,"lat":50.570259}},{"_id":2784103,"name":"Trois-Ponts","country":"BE","coord":{"lon":5.87159,"lat":50.372211}},{"_id":2785223,"name":"Trois-Ponts","country":"BE","coord":{"lon":5.87146,"lat":50.371281}},{"_id":2785294,"name":"Tremelo","country":"BE","coord":{"lon":4.70618,"lat":50.992371}},{"_id":2785293,"name":"Tremelo","country":"BE","coord":{"lon":4.70807,"lat":50.99231}},{"_id":2786426,"name":"Tinlot","country":"BE","coord":{"lon":5.37841,"lat":50.475151}},{"_id":2785427,"name":"Tinlot","country":"BE","coord":{"lon":5.37755,"lat":50.47493}},{"_id":2785518,"name":"Thuin","country":"BE","coord":{"lon":4.28484,"lat":50.339489}},{"_id":2785517,"name":"Thuin","country":"BE","coord":{"lon":4.28604,"lat":50.339329}},{"_id":2785656,"name":"Ternat","country":"BE","coord":{"lon":4.18333,"lat":50.866669}},{"_id":2785654,"name":"Ternat","country":"BE","coord":{"lon":4.16682,"lat":50.866539}},{"_id":2785990,"name":"Stoumont","country":"BE","coord":{"lon":5.80868,"lat":50.409061}},{"_id":2785989,"name":"Stoumont","country":"BE","coord":{"lon":5.80838,"lat":50.40667}},{"_id":2786124,"name":"Steenokkerzeel","country":"BE","coord":{"lon":4.50989,"lat":50.91851}},{"_id":2786186,"name":"Stavelot","country":"BE","coord":{"lon":5.93433,"lat":50.392979}},{"_id":2786185,"name":"Stavelot","country":"BE","coord":{"lon":5.93124,"lat":50.395}},{"_id":2786227,"name":"Staden","country":"BE","coord":{"lon":3.01828,"lat":50.950439}},{"_id":2786226,"name":"Staden","country":"BE","coord":{"lon":3.01468,"lat":50.97456}},{"_id":2786244,"name":"Sprimont","country":"BE","coord":{"lon":5.65993,"lat":50.507969}},{"_id":2786242,"name":"Sprimont","country":"BE","coord":{"lon":5.6595,"lat":50.50922}},{"_id":2786319,"name":"Spa","country":"BE","coord":{"lon":5.86464,"lat":50.485909}},{"_id":2786318,"name":"Spa","country":"BE","coord":{"lon":5.86674,"lat":50.483749}},{"_id":2786390,"name":"Sombreffe","country":"BE","coord":{"lon":4.60087,"lat":50.528648}},{"_id":2786592,"name":"Sint-Martens-Latem","country":"BE","coord":{"lon":3.62266,"lat":51.008381}},