{"countryCityList":[{"_id":2354349,"coord":{"lat":13.76667,"lon":-2.06667},"country":"BF","name":"Titao"},{"_id":6930703,"coord":{"lat":10.65015,"lon":-4.76292},"country":"BF","name":"Cascades"},{"_id":2353169,"coord":{"lat":11.58333,"lon":-1},"country":"BF","name":"Province du Zoundwéogo"},{"_id":2360615,"coord":{"lat":11.8,"lon":-0.55056},"country":"BF","name":"Garango"},{"_id":2355248,"coord":{"lat":14.33333,"lon":-1.25},"country":"BF","name":"Province du Soum"},{"_id":2354771,"coord":{"lat":12,"lon":1.75},"country":"BF","name":"Province de la Tapoa"},{"_id":2358100,"coord":{"lat":11.66361,"lon":-1.07306},"country":"BF","name":"Manga"},{"_id":2355474,"coord":{"lat":11.33333,"lon":-2.25},"country":"BF","name":"Province de la Sissili"},{"_id":2358382,"coord":{"lat":11.1,"lon":-2.1},"country":"BF","name":"Leo"},{"_id":2358700,"coord":{"lat":12,"lon":-0.16667},"country":"BF","name":"Province du Kouritenga"},{"_id":2358738,"coord":{"lat":12.17944,"lon":-0.35167},"country":"BF","name":"Koupela"},{"_id":2362973,"coord":{"lat":13.5,"lon":-1.66667},"country":"BF","name":"Province du Bam"},{"_id":2359142,"coord":{"lat":13.32583,"lon":-1.53472},"country":"BF","name":"Kongoussi"},{"_id":2362644,"coord":{"lat":11.91667,"lon":-1.5},"country":"BF","name":"Province du Bazèga"},{"_id":2359227,"coord":{"lat":12.06556,"lon":-1.3375},"country":"BF","name":"Kombissiri"},{"_id":2359317,"coord":{"lat":12.18972,"lon":-1.88556},"country":"BF","name":"Kokologo"},{"_id":2355914,"coord":{"lat":13.25,"lon":-1.08333},"country":"BF","name":"Province du Sanmatenga"},{"_id":2359608,"coord":{"lat":13.09167,"lon":-1.08444},"country":"BF","name":"Kaya"},{"_id":2597267,"coord":{"lat":11.41667,"lon":-3.41667},"country":"BF","name":"Province du Tuy"},{"_id":2360073,"coord":{"lat":11.5,"lon":-3.51667},"country":"BF","name":"Hounde"},{"_id":2597270,"coord":{"lat":13.16667,"lon":-2.16667},"country":"BF","name":"Province du Zondoma"},{"_id":2360238,"coord":{"lat":13.21667,"lon":-2.35},"country":"BF","name":"Gourcy"},{"_id":2361177,"coord":{"lat":14.10222,"lon":-1.63056},"country":"BF","name":"Djibo"},{"_id":2361373,"coord":{"lat":12.07083,"lon":1.78889},"country":"BF","name":"Diapaga"},{"_id":2597262,"coord":{"lat":12.58333,"lon":-1.8},"country":"BF","name":"Province du Kourwéogo"},{"_id":2361845,"coord":{"lat":12.66056,"lon":-1.89222},"country":"BF","name":"Bousse"},{"_id":2357611,"coord":{"lat":13.25,"lon":-0.58333},"country":"BF","name":"Province du Namentenga"},{"_id":2361946,"coord":{"lat":12.6675,"lon":-0.57583},"country":"BF","name":"Boulsa"},{"_id":2359209,"coord":{"lat":10.33333,"lon":-4.41667},"country":"BF","name":"Province de la Comoé"},{"_id":2362909,"coord":{"lat":10.63333,"lon":-4.76667},"country":"BF","name":"Banfora"},{"_id":2359569,"coord":{"lat":11.41667,"lon":-5},"country":"BF","name":"Province du Kénédougou"},{"_id":2356410,"coord":{"lat":11.45,"lon":-2.56667},"country":"BF","name":"Poï"},{"_id":2360627,"coord":{"lat":12.33333,"lon":-0.75},"country":"BF","name":"Province du Ganzourgou"},{"_id":2353197,"coord":{"lat":12.24889,"lon":-0.61583},"country":"BF","name":"Zorgho"},{"_id":2597264,"coord":{"lat":13.91667,"lon":-2.16667},"country":"BF","name":"Province du Loroum"},{"_id":6930705,"coord":{"lat":11.78922,"lon":-0.35706},"country":"BF","name":"Centre-Est"},{"_id":2362006,"coord":{"lat":11.5,"lon":-0.5},"country":"BF","name":"Province du Boulgou"},{"_id":2354675,"coord":{"lat":11.78,"lon":-0.36972},"country":"BF","name":"Tenkodogo"},{"_id":2355930,"coord":{"lat":12.16667,"lon":-2.66667},"country":"BF","name":"Province du Sanguié"},{"_id":2356228,"coord":{"lat":12.31667,"lon":-2.46667},"country":"BF","name":"Reo"},{"_id":2357043,"coord":{"lat":13.58278,"lon":-2.42158},"country":"BF","name":"Ouahigouya"},{"_id":2359027,"coord":{"lat":12.91667,"lon":-3.83333},"country":"BF","name":"Province de la Kossi"},{"_id":2357163,"coord":{"lat":12.73333,"lon":-3.86667},"country":"BF","name":"Nouna"},{"_id":6930706,"coord":{"lat":13.09829,"lon":-1.0855},"country":"BF","name":"Centre-Nord"},{"_id":2361082,"coord":{"lat":14.0354,"lon":-0.0345},"country":"BF","name":"Dori"},{"_id":2577164,"coord":{"lat":10.94917,"lon":-4.93417},"country":"BF","name":"Orodara"},{"_id":2360286,"coord":{"lat":12.23056,"lon":-1.92889},"country":"BF","name":"Gouloure"},{"_id":2361809,"coord":{"lat":13,"lon":-2},"country":"BF","name":"Burkina Faso"},{"_id":6930704,"coord":{"lat":12.37874,"lon":-1.53276},"country":"BF","name":"Centre"},{"_id":2359923,"coord":{"lat":12.33333,"lon":-1.5},"country":"BF","name":"Province du Kadiogo"},{"_id":2357048,"coord":{"lat":12.36423,"lon":-1.53834},"country":"BF","name":"Ouagadougou"},{"_id":6930701,"coord":{"lat":12.47203,"lon":-3.47305},"country":"BF","name":"Boucle du Mouhoun"},{"_id":2357858,"coord":{"lat":12.25,"lon":-3.41667},"country":"BF","name":"Province du Mouhoun"},{"_id":2361477,"coord":{"lat":12.46667,"lon":-3.46667},"country":"BF","name":"Dedougou"},{"_id":6930707,"coord":{"lat":12.25488,"lon":-2.36876},"country":"BF","name":"Centre-Ouest"},{"_id":2361988,"coord":{"lat":12.33333,"lon":-2.16667},"country":"BF","name":"Province du Boulkiemdé"},{"_id":2358946,"coord":{"lat":12.25,"lon":-2.36667},"country":"BF","name":"Koudougou"},{"_id":6930709,"coord":{"lat":12.06308,"lon":0.36349},"country":"BF","name":"Est"},{"_id":2360223,"coord":{"lat":12.08333,"lon":0.5},"country":"BF","name":"Province du Gourma"},{"_id":2360886,"coord":{"lat":12.06222,"lon":0.35778},"country":"BF","name":"Fada NGourma"},{"_id":6930711,"coord":{"lat":13.58809,"lon":-2.4212},"country":"BF","name":"Nord"},{"_id":2356667,"coord":{"lat":12.91667,"lon":-2.16667},"country":"BF","name":"Province du Passoré"},{"_id":2353688,"coord":{"lat":12.96667,"lon":-2.26667},"country":"BF","name":"Yako"},{"_id":6930712,"coord":{"lat":12.58774,"lon":-1.30102},"country":"BF","name":"Plateau-Central"},{"_id":2356983,"coord":{"lat":12.58333,"lon":-1.41667},"country":"BF","name":"Province d' Oubritenga"},{"_id":2353257,"coord":{"lat":12.58222,"lon":-1.29833},"country":"BF","name":"Ziniare"},{"_id":6930710,"coord":{"lat":11.20804,"lon":-4.29634},"country":"BF","name":"Hauts-Bassins"},{"_id":2360075,"coord":{"lat":11.33333,"lon":-4.25},"country":"BF","name":"Province du Houet"},{"_id":2361145,"coord":{"lat":11.20476,"lon":-4.28035},"country":"BF","name":"Dogona"},{"_id":2355211,"coord":{"lat":13.25,"lon":-3},"country":"BF","name":"Province du Sourou"},{"_id":2354176,"coord":{"lat":13.06667,"lon":-3.06667},"country":"BF","name":"Tougan"},{"_id":2355996,"coord":{"lat":11.13027,"lon":-4.3427},"country":"BF","name":"Samogan"},{"_id":6930714,"coord":{"lat":10.28866,"lon":-3.26097},"country":"BF","name":"Sud-Ouest"},{"_id":2356386,"coord":{"lat":10.25,"lon":-3.41667},"country":"BF","name":"Province du Poni"},{"_id":2577162,"coord":{"lat":10.29917,"lon":-3.25083},"country":"BF","name":"Gaoua"},{"_id":6930713,"coord":{"lat":14.03351,"lon":-0.04575},"country":"BF","name":"Sahel"},{"_id":2355737,"coord":{"lat":13.91667,"lon":-0.16667},"country":"BF","name":"Province du Séno"},{"_id":2353785,"coord":{"lat":14.0366,"lon":-0.0597},"country":"BF","name":"Wèndou"},{"_id":6930708,"coord":{"lat":11.67132,"lon":-1.07374},"country":"BF","name":"Centre-Sud"},{"_id":2357548,"coord":{"lat":11.25,"lon":-1.25},"country":"BF","name":"Province du Nahouri"},{"_id":2356454,"coord":{"lat":11.16972,"lon":-1.145},"country":"BF","name":"Po"},{"_id":2353568,"coord":{"lat":13.58333,"lon":-2.41667},"country":"BF","name":"Province du Yatenga"},{"_id":2356948,"coord":{"lat":13.54909,"lon":-2.42126},"country":"BF","name":"Oufré"},{"_id":2362344,"coord":{"lat":11.17715,"lon":-4.2979},"country":"BF","name":"Bobo-Dioulasso"},{"_id":2597265,"coord":{"lat":12.66667,"lon":-3},"country":"BF","name":"Province du Nayala"},{"_id":2354265,"coord":{"lat":12.76667,"lon":-2.88333},"country":"BF","name":"Toma"},{"_id":2597250,"coord":{"lat":12.16667,"lon":-4.16667},"country":"BF","name":"Province des Banwa"},{"_id":2355404,"coord":{"lat":12.18333,"lon":-4.08333},"country":"BF","name":"Salanso"},{"_id":2597263,"coord":{"lat":10.66667,"lon":-5.2},"country":"BF","name":"Province de la Léraba"},{"_id":2355548,"coord":{"lat":10.66667,"lon":-5.16667},"country":"BF","name":"Sindou"},{"_id":2597268,"coord":{"lat":13.41667,"lon":0.58333},"country":"BF","name":"Province du Yagha"},{"_id":2355803,"coord":{"lat":13.43641,"lon":0.53044},"country":"BF","name":"Sebba"},{"_id":2597269,"coord":{"lat":11.58333,"lon":-1.91667},"country":"BF","name":"Province du Ziro"},{"_id":2355869,"coord":{"lat":11.55444,"lon":-1.77361},"country":"BF","name":"Sapouy"},{"_id":2356459,"coord":{"lat":12.23972,"lon":-1.87667},"country":"BF","name":"Pitmoaga"},{"_id":2597260,"coord":{"lat":11.41667,"lon":0.91667},"country":"BF","name":"Province de la Kompienga"},{"_id":2356738,"coord":{"lat":11.24972,"lon":0.7075},"country":"BF","name":"Pama"},{"_id":2597261,"coord":{"lat":11.41667,"lon":0.16667},"country":"BF","name":"Province du Koulpélogo"},{"_id":2357012,"coord":{"lat":11.50333,"lon":0.05722},"country":"BF","name":"Ouargaye"},{"_id":2356982,"coord":{"lat":14.66667,"lon":-0.33333},"country":"BF","name":"Province de l' Oudalan"},{"_id":2360372,"coord":{"lat":14.44389,"lon":-0.23611},"country":"BF","name":"Gorom Gorom"},{"_id":2597259,"coord":{"lat":12.66667,"lon":0.66667},"country":"BF","name":"Province de la Komandjoari"},{"_id":2360541,"coord":{"lat":12.64972,"lon":0.49306},"country":"BF","name":"Gayeri"},{"_id":2362047,"coord":{"lat":10.83333,"lon":-3.41667},"country":"BF","name":"Province de la Bougouriba"},{"_id":2361342,"coord":{"lat":10.96667,"lon":-3.25},"country":"BF","name":"Diebougou"},{"_id":2597251,"coord":{"lat":11.08333,"lon":-3.08333},"country":"BF","name":"Province du Ioba"},{"_id":2361586,"coord":{"lat":11.15,"lon":-3.06667},"country":"BF","name":"Dano"},{"_id":2597248,"coord":{"lat":11.7,"lon":-3.16667},"country":"BF","name":"Province des Balé"},{"_id":2362150,"coord":{"lat":11.75,"lon":-2.93333},"country":"BF","name":"Boromo"},{"_id":2360516,"coord":{"lat":12.9188,"lon":0.0392},"country":"BF","name":"Province de la Gnagna"},{"_id":2362323,"coord":{"lat":12.97139,"lon":-0.14361},"country":"BF","name":"Bogande"},{"_id":2597266,"coord":{"lat":9.83333,"lon":-3},"country":"BF","name":