{"countryCityList":[{"_id":3582324,"coord":{"lat":18.450001,"lon":-88.283333},"country":"BZ","name":"Consejo"},{"_id":3582429,"coord":{"lat":16.83333,"lon":-88.916672},"country":"BZ","name":"Cayo District"},{"_id":3581418,"coord":{"lat":17.033331,"lon":-88.949997},"country":"BZ","name":"Privassion Camp"},{"_id":3582302,"coord":{"lat":18.25,"lon":-88.333328},"country":"BZ","name":"Corozal District"},{"_id":3582678,"coord":{"lat":17.25,"lon":-88.75},"country":"BZ","name":"Belize"},{"_id":3582672,"coord":{"lat":17.25,"lon":-88.76667},"country":"BZ","name":"Belmopan"},{"_id":3581367,"coord":{"lat":18.366671,"lon":-88.400002},"country":"BZ","name":"Ranchito"},{"_id":3582662,"coord":{"lat":17.075001,"lon":-89.139168},"country":"BZ","name":"Benque Viejo del Carmen"},{"_id":3580985,"coord":{"lat":17.216669,"lon":-88.98333},"country":"BZ","name":"Spanish Lookout"},{"_id":3580975,"coord":{"lat":16.83333,"lon":-88.5},"country":"BZ","name":"Stann Creek District"},{"_id":3581922,"coord":{"lat":16.866671,"lon":-88.283333},"country":"BZ","name":"Hopkins"},{"_id":3581672,"coord":{"lat":17.01667,"lon":-88.5},"country":"BZ","name":"Middlesex"},{"_id":3582487,"coord":{"lat":18.216669,"lon":-88.466667},"country":"BZ","name":"Caledonia"},{"_id":3582676,"coord":{"lat":17.25,"lon":-88.166672},"country":"BZ","name":"Belize District"},{"_id":3582383,"coord":{"lat":17.799999,"lon":-88.300003},"country":"BZ","name":"Chicago"},{"_id":3581851,"coord":{"lat":17.55427,"lon":-88.290001},"country":"BZ","name":"Ladyville"},{"_id":3581194,"coord":{"lat":17.156111,"lon":-89.071388},"country":"BZ","name":"San Ignacio"},{"_id":3581511,"coord":{"lat":17.83333,"lon":-88.833328},"country":"BZ","name":"Orange Walk District"},{"_id":3581514,"coord":{"lat":18.08124,"lon":-88.563278},"country":"BZ","name":"Orange Walk"},{"_id":3582677,"coord":{"lat":17.499519,"lon":-88.197563},"country":"BZ","name":"Belize City"},{"_id":3581164,"coord":{"lat":17.915979,"lon":-87.965897},"country":"BZ","name":"San Pedro"},{"_id":3580913,"coord":{"lat":16.33333,"lon":-88.75},