{"countryCityList":[{"_id":203717,"coord":{"lat":0.81021,"lon":24.43359},"country":"CD","name":"Yangambi"},{"_id":204283,"coord":{"lat":3.03716,"lon":29.535509},"country":"CD","name":"Watsa"},{"_id":204318,"coord":{"lat":2.14838,"lon":27.994659},"country":"CD","name":"Wamba"},{"_id":210379,"coord":{"lat":-4.96667,"lon":23.450001},"country":"CD","name":"Lusambo"},{"_id":210939,"coord":{"lat":-5.35,"lon":21.41667},"country":"CD","name":"Luebo"},{"_id":211098,"coord":{"lat":-5.36667,"lon":25.75},"country":"CD","name":"Lubao"},{"_id":214575,"coord":{"lat":-3.6,"lon":26.66667},"country":"CD","name":"Kampene"},{"_id":215527,"coord":{"lat":-6.13333,"lon":24.48333},"country":"CD","name":"Kabinda"},{"_id":215605,"coord":{"lat":-2.46833,"lon":28.824169},"country":"CD","name":"Kabare"},{"_id":217637,"coord":{"lat":3.33333,"lon":20.883329},"country":"CD","name":"Businga"},{"_id":2311968,"coord":{"lat":-2.71667,"lon":17.683331},"country":"CD","name":"Nioki"},{"_id":2312249,"coord":{"lat":-3.01667,"lon":16.9},"country":"CD","name":"Mushie"},{"_id":2313084,"coord":{"lat":-4.05,"lon":19.533331},"country":"CD","name":"Mangai"},{"_id":2314300,"coord":{"lat":-4.5,"lon":15.5},"country":"CD","name":"Ville de Kinshasa"},{"_id":218253,"coord":{"lat":3.81461,"lon":23.686649},"country":"CD","name":"Bondo"},{"_id":205297,"coord":{"lat":-8.3,"lon":27.25},"country":"CD","name":"Tambo"},{"_id":2311502,"coord":{"lat":-7.13333,"lon":18.950001},"country":"CD","name":"Sengo"},{"_id":211384,"coord":{"lat":-2.25,"lon":23.299999},"country":"CD","name":"Longanio"},{"_id":216139,"coord":{"lat":2.5,"lon":27},"country":"CD","name":"Province Orientale"},{"_id":206362,"coord":{"lat":3.46564,"lon":23.53883},"country":"CD","name":"Pekia"},{"_id":219563,"coord":{"lat":3.88856,"lon":25.66136},"country":"CD","name":"Bangenze"},{"_id":212730,"coord":{"lat":0.51667,"lon":25.200001},"country":"CD","name":"Kisangani"},{"_id":214481,"coord":{"lat":-5.89583,"lon":22.41778},"country":"CD","name":"Kananga"},{"_id":217834,"coord":{"lat":-9.2,"lon":25.85},"country":"CD","name":"Bukama"},{"_id":218680,"coord":{"lat":-0.21667,"lon":20.866671},"country":"CD","name":"Boende"},{"_id":219057,"coord":{"lat":0.5,"lon":29.466669},"country":"CD","name":"Beni"},{"_id":219414,"coord":{"lat":1.23909,"lon":23.61598},"country":"CD","name":"Basoko"},{"_id":220448,"coord":{"lat":2.73877,"lon":23.78326},"country":"CD","name":"Aketi"},{"_id":922806,"coord":{"lat":-11.76667,"lon":27.23333},"country":"CD","name":"Kipushi"},{"_id":923058,"coord":{"lat":-10.87639,"lon":26.596939},"country":"CD","name":"Kambove"},{"_id":2311127,"coord":{"lat":-4.98333,"lon":12.93333},"country":"CD","name":"Tshela"},{"_id":2312888,"coord":{"lat":-5.25,"lon":14.86667},"country":"CD","name":"Mbanza-Ngungu"},{"_id":2312895,"coord":{"lat":0.04865,"lon":18.26034},"country":"CD","name":"Mbandaka"},{"_id":2313762,"coord":{"lat":3.65,"lon":18.633329},"country":"CD","name":"Libenge"},{"_id":2315057,"coord":{"lat":-4.59111,"lon":15.17083},"country":"CD","name":"Kasangulu"},{"_id":2316259,"coord":{"lat":-4.55,"lon":18.6},"country":"CD","name":"Bulungu"},{"_id":2316748,"coord":{"lat":-2.16667,"lon":16.23333},"country":"CD","name":"Bolobo"},{"_id":2593460,"coord":{"lat":-4.38361,"lon":15.39139},"country":"CD","name":"Masina"},{"_id":214229,"coord":{"lat":-9.31667,"lon":22.616671},"country":"CD","name":"Kapeo"},{"_id":212760,"coord":{"lat":-1.09056,"lon":29.2925},"country":"CD","name":"Kirumba"},{"_id":219496,"coord":{"lat":4.34437,"lon":28.204491},"country":"CD","name":"Bapaidu"},{"_id":204405,"coord":{"lat":-3.40667,"lon":29.14583},"country":"CD","name":"Uvira"},{"_id":205970,"coord":{"lat":-1.57361,"lon":29.045},"country":"CD","name":"Sake"},{"_id":207570,"coord":{"lat":-7,"lon":23.450001},"country":"CD","name":"Mwene-Ditu"},{"_id":207596,"coord":{"lat":-4.85,"lon":21.566669},"country":"CD","name":"Mweka"},{"_id":209610,"coord":{"lat":-2.91667,"lon":25.91667},"country":"CD","name":"Province du Maniema"},{"_id":212902,"coord":{"lat":-2.95,"lon":25.950001},"country":"CD","name":"Kindu"},{"_id":213940,"coord":{"lat":-4.45,"lon":26.66667},"country":"CD","name":"Kasongo"},{"_id":214614,"coord":{"lat":-8.73861,"lon":24.990561},"country":"CD","name":"Kamina"},{"_id":215668,"coord":{"lat":-6.05,"lon":26.91667},"country":"CD","name":"Kabalo"},{"_id":216449,"coord":{"lat":-6.75,"lon":23.950001},"country":"CD","name":"Gandajika"},{"_id":217389,"coord":{"lat":-5.51,"lon":22.26667},"country":"CD","name":"Demba"},{"_id":217745,"coord":{"lat":2.18333,"lon":22.466669},"country":"CD","name":"Bumba"},{"_id":203312,"coord":{"lat":0,"lon":25},"country":"CD","name":"Democratic Republic of the Congo"},{"_id":2310882,"coord":{"lat":-5.35,"lon":13.36667},"country":"CD","name":"Yanga"},{"_id":2314129,"coord":{"lat":-4.55,"lon":17.049999},"country":"CD","name":"Kiteke"},{"_id":215597,"coord":{"lat":0.08333,"lon":29.15},"country":"CD","name":"Kabasinze"},{"_id":219344,"coord":{"lat":0.31667,"lon":25.116671},"country":"CD","name":"Batikayafi"},{"_id":8145527,"coord":{"lat":2.45988,"lon":27.39897},"country":"CD","name":"Noabo"},{"_id":215771,"coord":{"lat":2.77391,"lon":27.61603},"country":"CD","name":"Isiro"},{"_id":2314302,"coord":{"lat":-4.32459,"lon":15.32146},"country":"CD","name":"Kinshasa"},{"_id":2312096,"coord":{"lat":-4.31667,"lon":15.31667},"country":"CD","name":"Ndolo"},{"_id":205703,"coord":{"lat":-9,"lon":26},"country":"CD","name":"Province du Katanga"},{"_id":922704,"coord":{"lat":-11.66089,"lon":27.47938},"country":"CD","name":"Lubumbashi"},{"_id":206938,"coord":{"lat":-0.66667,"lon":28.75},"country":"CD","name":"Province du Nord-Kivu"},{"_id":216281,"coord":{"lat":-1.67917,"lon":29.22278},"country":"CD","name":"Goma"},{"_id":212731,"coord":{"lat":-0.36194,"lon":28.17},"country":"CD","name":"Kisangani"},{"_id":205413,"coord":{"lat":-3.16667,"lon":28.25},"country":"CD","name":"Province du Sud-Kivu"},{"_id":217831,"coord":{"lat":-2.50833,"lon":28.86083},"country":"CD","name":"Bukavu"},{"_id":2317277,"coord":{"lat":-5.5,"lon":14.5},"country":"CD","name":"Province du Bas-Congo"},{"_id":2313002,"coord":{"lat":-5.81667,"lon":13.45},"country":"CD","name":"Matadi"},{"_id":922773,"coord":{"lat":-10.71484,"lon":25.46674},"country":"CD","name":"Kolwezi"},{"_id":216541,"coord":{"lat":-4.30111,"lon":28.94417},"country":"CD","name":"Fizi"},{"_id":214478,"coord":{"lat":-9.08333,"lon":23.9},"country":"CD","name":"Kananga"},{"_id":922741,"coord":{"lat":-10.98139,"lon":26.73333},"country":"CD","name":"Likasi"},{"_id":217562,"coord":{"lat":0.15,"lon":29.283331},"country":"CD","name":"Butembo"},{"_id":217695,"coord":{"lat":1.56667,"lon":30.25},"country":"CD","name":"Bunia"},{"_id":923051,"coord":{"lat":-10.63333,"lon":23.533331},"country":"CD","name":"Kamina"},{"_id":218241,"coord":{"lat":-0.75,"lon":21.15},"country":"CD","name":"Bonema"},{"_id":216661,"coord":{"lat":1,"lon":20.5},"country":"CD","name":"Province de l’ Équateur"},{"_id":216404,"coord":{"lat":4.28333,"lon":21.01667},"country":"CD","name":"Gbadolite"},{"_id":214755,"coord":{"lat":-2.95,"lon":25.950001},"country":"CD","name":"Kama"},{"_id":8070734,"coord":{"lat":0.05545,"lon":18.275061},"country":"CD","name":"Bolaka"},{"_id":204953,"coord":{"lat":-6.41667,"lon":20.799999},"country":"CD","name":"Tshikapa"},{"_id":2317396,"coord":{"lat":-4,"lon":18},"country":"CD","name":"Province de Bandundu"},{"_id":2317397,"coord":{"lat":-3.31667,"lon":17.366671},"country":"CD","name":"Bandundu"},{"_id":2314705,"coord":{"lat":-5.04098,"lon":18.816191},"country":"CD","name":"Kikwit"},{"_id":2315728,"coord":{"lat":3.25,"lon":19.76667},"country":"CD","name":"Gemena"},{"_id":2312892,"coord":{"lat":-4.76667,"lon":14.95},"country":"CD","name":"Mbanza"},{"_id":208891,"coord":{"lat":2.51422,"lon":20.813641},"country":"CD","name":"Mokumbano"},{"_id":214974,"coord":{"lat":-5.94749,"lon":29.19471},"country":"CD","name":"Kalemie"},{"_id":922944,"coord":{"lat":-12.1975,"lon":27.797779},"country":"CD","name":"Kasumbalesa"},{"_id":211647,"coord":{"lat":-3.48333,"lon":23.433331},"country":"CD","name":"Lodja"},{"_id":214138,"coord":{"lat":-4,"lon":24},"country":"CD","name":"Province du Kasaï-Oriental"},{"_id":209228,"coord":{"lat":-6.15,"lon":23.6},"country":"CD","name":"Mbuji-Mayi"},{"_id":217570,"coord":{"lat":2.78582,"lon":24.72998},"country":"CD","name":"Buta"},{"_id":2317301,"coord":{"lat":4.35,"lon":18.6},"country":"CD","name":"Baraka"},{"_id":205706,"coord":{"lat":-6.1,"lon":24.533331},"country":"CD","name":"Sewe"},{"_id":215976,"coord":{"lat":-4.31667,"lon":20.58333},"country":"CD","name":"Ilebo"},{"_id":204498,"coord":{"lat":-3.5,"lon":23.633329},"country":"CD","name":"Ukungu"},{"_id":214139,"coord":{"lat":-4.5,"lon":22},"country":"CD","name":"Province du Kasaï-Occidental"},{"_id":215601,"coord":{"lat":-5.89083,"lon":22.47694},"country":"CD","name":"Kabasele-Pania"},{"_id":214389,"coord":{"lat":-7.56667,"lon":24.183331},"country":"CD","name":"Kaniama"},{"_id":204891,"coord":{"lat":-8.4,"lon":22.616671},"country":"CD","name":"Tshilundu"},{"_id":388578,"coord":{"lat":-8.6575,"lon":25.23667},"country":"CD","name":"Lumwe"},{"_id":212360,"coord":{"lat":-5.38333,"lon":27},"country":"CD","name":"Kongolo"},{"_id":208705,"coord":{"lat":-5.86667,"lon":29.25},"country":"CD","name":"Moni"},{"_id":212962,"coord":{"lat":-7.1,"lon":29.716669},"country":"CD","name":"Kimbalata"},{"_id":209598,"coord":{"lat":-7.3,"lon":27.41667},"country":"CD","name":"Manono"},{"_id":1105460,"coord":{"lat":-10.74139,"lon":25.512779},"country":"CD","name":"Lumpundu"},{"_id":922262,"coord":{"lat":-11.61667,"lon":27.549999},"country":"CD","name":"Ruashi"},{"_id":2315026,"coord":{"lat":-6.46667,"lon":16.816669},"country":"CD","name":"Kasongo-Lunda"},{"_id":205945,"coord":{"lat":-2.58333,"lon":26.73333},"country":"CD","name":"Salukwango"},{"_id":213632,"coord":{"lat":-2.30278,"lon":28.816111},"country":"CD","name":"Kavumu"},{"_id":218355,"coord":{"lat":-0.33333,"lon":20.9},"country":"CD","name":"Boluka"},{"_id":211734,"coord":{"lat":2.15,"lon":21.51667},"country":"CD","name":"Lisala"},{"_id":2316821,"coord":{"lat":3.21667,"lon":19.783331},"country":"CD","name":"Bokuda"},{"_id":2317285,"coord":{"lat":1.22095,"lon":19.80205},"country":"CD","name":"Basankusu"},{"_id":8070735,"coord":{"la