{"countryCode":"CD","countryName":"Democratic Republic of the Congo","countryFilePath":"CD.json","countryCityList":[{"_id":203717,"name":"Yangambi","country":"CD","coord":{"lon":24.43359,"lat":0.81021}},{"_id":204283,"name":"Watsa","country":"CD","coord":{"lon":29.535509,"lat":3.03716}},{"_id":204318,"name":"Wamba","country":"CD","coord":{"lon":27.994659,"lat":2.14838}},{"_id":210379,"name":"Lusambo","country":"CD","coord":{"lon":23.450001,"lat":-4.96667}},{"_id":210939,"name":"Luebo","country":"CD","coord":{"lon":21.41667,"lat":-5.35}},{"_id":211098,"name":"Lubao","country":"CD","coord":{"lon":25.75,"lat":-5.36667}},{"_id":214575,"name":"Kampene","country":"CD","coord":{"lon":26.66667,"lat":-3.6}},{"_id":215527,"name":"Kabinda","country":"CD","coord":{"lon":24.48333,"lat":-6.13333}},{"_id":215605,"name":"Kabare","country":"CD","coord":{"lon":28.824169,"lat":-2.46833}},{"_id":217637,"name":"Businga","country":"CD","coord":{"lon":20.883329,"lat":3.33333}},{"_id":2311968,"name":"Nioki","country":"CD","coord":{"lon":17.683331,"lat":-2.71667}},{"_id":2312249,"name":"Mushie","country":"CD","coord":{"lon":16.9,"lat":-3.01667}},{"_id":2313084,"name":"Mangai","country":"CD","coord":{"lon":19.533331,"lat":-4.05}},{"_id":2314300,"name":"Ville de Kinshasa","country":"CD","coord":{"lon":15.5,"lat":-4.5}},{"_id":218253,"name":"Bondo","country":"CD","coord":{"lon":23.686649,"lat":3.81461}},{"_id":205297,"name":"Tambo","country":"CD","coord":{"lon":27.25,"lat":-8.3}},{"_id":2311502,"name":"Sengo","country":"CD","coord":{"lon":18.950001,"lat":-7.13333}},{"_id":211384,"name":"Longanio","country":"CD","coord":{"lon":23.299999,"lat":-2.25}},{"_id":216139,"name":"Province Orientale","country":"CD","coord":{"lon":27.0,"lat":2.5}},{"_id":206362,"name":"Pekia","country":"CD","coord":{"lon":23.53883,"lat":3.46564}},{"_id":219563,"name":"Bangenze","country":"CD","coord":{"lon":25.66136,"lat":3.88856}},{"_id":212730,"name":"Kisangani","country":"CD","coord":{"lon":25.200001,"lat":0.51667}},{"_id":214481,"name":"Kananga","country":"CD","coord":{"lon":22.41778,"lat":-5.89583}},{"_id":217834,"name":"Bukama","country":"CD","coord":{"lon":25.85,"lat":-9.2}},{"_id":218680,"name":"Boende","country":"CD","coord":{"lon":20.866671,"lat":-0.21667}},{"_id":219057,"name":"Beni","country":"CD","coord":{"lon":29.466669,"lat":0.5}},{"_id":219414,"name":"Basoko","country":"CD","coord":{"lon":23.61598,"lat":1.23909}},{"_id":220448,"name":"Aketi","country":"CD","coord":{"lon":23.78326,"lat":2.73877}},{"_id":922806,"name":"Kipushi","country":"CD","coord":{"lon":27.23333,"lat":-11.76667}},{"_id":923058,"name":"Kambove","country":"CD","coord":{"lon":26.596939,"lat":-10.87639}},{"_id":2311127,"name":"Tshela","country":"CD","coord":{"lon":12.93333,"lat":-4.98333}},{"_id":2312888,"name":"Mbanza-Ngungu","country":"CD","coord":{"lon":14.86667,"lat":-5.25}},{"_id":2312895,"name":"Mbandaka","country":"CD","coord":{"lon":18.26034,"lat":0.04865}},{"_id":2313762,"name":"Libenge","country":"CD","coord":{"lon":18.633329,"lat":3.65}},{"_id":2315057,"name":"Kasangulu","country":"CD","coord":{"lon":15.17083,"lat":-4.59111}},{"_id":2316259,"name":"Bulungu","country":"CD","coord":{"lon":18.6,"lat":-4.55}},{"_id":2316748,"name":"Bolobo","country":"CD","coord":{"lon":16.23333,"lat":-2.16667}},{"_id":2593460,"name":"Masina","country":"CD","coord":{"lon":15.39139,"lat":-4.38361}},{"_id":214229,"name":"Kapeo","country":"CD","coord":{"lon":22.616671,"lat":-9.31667}},{"_id":212760,"name":"Kirumba","country":"CD","coord":{"lon":29.2925,"lat":-1.09056}},{"_id":219496,"name":"Bapaidu","country":"CD","coord":{"lon":28.204491,"lat":4.34437}},{"_id":204405,"name":"Uvira","country":"CD","coord":{"lon":29.14583,"lat":-3.40667}},{"_id":205970,"name":"Sake","country":"CD","coord":{"lon":29.045,"lat":-1.57361}},{"_id":207570,"name":"Mwene-Ditu","country":"CD","coord":{"lon":23.450001,"lat":-7.0}},{"_id":207596,"name":"Mweka","country":"CD","coord":{"lon":21.566669,"lat":-4.85}},{"_id":209610,"name":"Province du Maniema","country":"CD","coord":{"lon":25.91667,"lat":-2.91667}},{"_id":212902,"name":"Kindu","country":"CD","coord":{"lon":25.950001,"lat":-2.95}},{"_id":213940,"name":"Kasongo","country":"CD","coord":{"lon":26.66667,"lat":-4.45}},{"_id":214614,"name":"Kamina","country":"CD","coord":{"lon":24.990561,"lat":-8.73861}},{"_id":215668,"name":"Kabalo","country":"CD","coord":{"lon":26.91667,"lat":-6.05}},{"_id":216449,"name":"Gandajika","country":"CD","coord":{"lon":23.950001,"lat":-6.75}},{"_id":217389,"name":"Demba","country":"CD","coord":{"lon":22.26667,"lat":-5.51}},{"_id":217745,"name":"Bumba","country":"CD","coord":{"lon":22.466669,"lat":2.18333}},{"_id":203312,"name":"Democratic Republic of the Congo","country":"CD","coord":{"lon":25.0,"lat":0.0}},{"_id":2310882,"name":"Yanga","country":"CD","coord":{"lon":13.36667,"lat":-5.35}},{"_id":2314129,"name":"Kiteke","country":"CD","coord":{"lon":17.049999,"lat":-4.55}},{"_id":215597,"name":"Kabasinze","country":"CD","coord":{"lon":29.15,"lat":0.08333}},{"_id":219344,"name":"Batikayafi","country":"CD","coord":{"lon":25.116671,"lat":0.31667}},{"_id":8145527,"name":"Noabo","country":"CD","coord":{"lon":27.39897,"lat":2.45988}},{"_id":215771,"name":"Isiro","country":"CD","coord":{"lon":27.61603,"lat":2.77391}},{"_id":2314302,"name":"Kinshasa","country":"CD","coord":{"lon":15.32146,"lat":-4.32459}},{"_id":2312096,"name":"Ndolo","country":"CD","coord":{"lon":15.31667,"lat":-4.31667}},{"_id":205703,"name":"Province du Katanga","country":"CD","coord":{"lon":26.0,"lat":-9.0}},{"_id":922704,"name":"Lubumbashi","country":"CD","coord":{"lon":27.47938,"lat":-11.66089}},{"_id":206938,"name":"Province du Nord-Kivu","country":"CD","coord":{"lon":28.75,"lat":-0.66667}},{"_id":216281,"name":"Goma","country":"CD","coord":{"lon":29.22278,"lat":-1.67917}},{"_id":212731,"name":"Kisangani","country":"CD","coord":{"lon":28.17,"lat":-0.36194}},{"_id":205413,"name":"Province du Sud-Kivu","country":"CD","coord":{"lon":28.25,"lat":-3.16667}},{"_id":217831,"name":"Bukavu","country":"CD","coord":{"lon":28.86083,"lat":-2.50833}},{"_id":2317277,"name":"Province du Bas-Congo","country":"CD","coord":{"lon":14.5,"lat":-5.5}},{"_id":2313002,"name":"Matadi","country":"CD","coord":{"lon":13.45,"lat":-5.81667}},{"_id":922773,"name":"Kolwezi","country":"CD","coord":{"lon":25.46674,"lat":-10.71484}},{"_id":216541,"name":"Fizi","country":"CD","coord":{"lon":28.94417,"lat":-4.30111}},{"_id":214478,"name":"Kananga","country":"CD","coord":{"lon":23.9,"lat":-9.08333}},{"_id":922741,"name":"Likasi","country":"CD","coord":{"lon":26.73333,"lat":-10.98139}},{"_id":217562,"name":"Butembo","country":"CD","coord":{"lon":29.283331,"lat":0.15}},{"_id":217695,"name":"Bunia","country":"CD","coord":{"lon":30.25,"lat":1.56667}},{"_id":923051,"name":"Kamina","country":"CD","coord":{"lon":23.533331,"lat":-10.63333}},{"_id":218241,"name":"Bonema","country":"CD","coord":{"lon":21.15,"lat":-0.75}},{"_id":216661,"name":"Province de l’ Équateur","country":"CD","coord":{"lon":20.5,"lat":1.0}},{"_id":216404,"name":"Gbadolite","country":"CD","coord":{"lon":21.01667,"lat":4.28333}},{"_id":214755,"name":"Kama","country":"CD","coord":{"lon":25.950001,"lat":-2.95}},{"_id":8070734,"name":"Bolaka","country":"CD","coord":{"lon":18.275061,"lat":0.05545}},{"_id":204953,"name":"Tshikapa","country":"CD","coord":{"lon":20.799999,"lat":-6.41667}},{"_id":2317396,"name":"Province de Bandundu","country":"CD","coord":{"lon":18.0,"lat":-4.0}},{"_id":2317397,"name":"Bandundu","country":"CD","coord":{"lon":17.366671,"lat":-3.31667}},{"_id":2314705,"name":"Kikwit","country":"CD","coord":{"lon":18.816191,"lat":-5.04098}},{"_id":2315728,"name":"Gemena","country":"CD","coord":{"lon":19.76667,"lat":3.25}},{"_id":2312892,"name":"Mbanza","country":"CD","coord":{"lon":14.95,"lat":-4.76667}},{"_id":208891,"name":"Mokumbano","country":"CD","coord":{"lon":20.813641,"lat":2.51422}},{"_id":214974,"name":"Kalemie","country":"CD","coord":{"lon":29.19471,"lat":-5.94749}},{"_id":922944,"name":"Kasumbalesa","country":"CD","coord":{"lon":27.797779,"lat":-12.1975}},{"_id":211647,"name":"Lodja","country":"CD","coord":{"lon":23.433331,"lat":-3.48333}},{"_id":214138,"name":"Province du Kasaï-Oriental","country":"CD","coord":{"lon":24.0,"lat":-4.0}},{"_id":209228,"name":"Mbuji-Mayi","country":"CD","coord":{"lon":23.6,"lat":-6.15}},{"_id":217570,"name":"Buta","country":"CD","coord":{"lon":24.72998,"lat":2.78582}},{"_id":2317301,"name":"Baraka","country":"CD","coord":{"lon":18.6,"lat":4.35}},{"_id":205706,"name":"Sewe","country":"CD","coord":{"lon":24.533331,"lat":-6.1}},{"_id":215976,"name":"Ilebo","country":"CD","coord":{"lon":20.58333,"lat":-4.31667}},{"_id":204498,"name":"Ukungu","country":"CD","coord":{"lon":23.633329,"lat":-3.5}},{"_id":214139,"name":"Province du Kasaï-Occidental","country":"CD","coord":{"lon":22.0,"lat":-4.5}},{"_id":215601,"name":"Kabasele-Pania","country":"CD","coord":{"lon":22.47694,"lat":-5.89083}},{"_id":214389,"name":"Kaniama","country":"CD","coord":{"lon":24.183331,"lat":-7.56667}},{"_id":204891,"name":"Tshilundu","country":"CD","coord":{"lon":22.616671,"lat":-8.4}},{"_id":388578,"name":"Lumwe","country":"CD","coord":{"lon":25.23667,"lat":-8.6575}},{"_id":212360,"name":"Kongolo","country":"CD","coord":{"lon":27.0,"lat":-5.38333}},{"_id":208705,"name":"Moni","country":"CD","coord":{"lon":29.25,"lat":-5.86667}},{"_id":212962,"name":"Kimbalata","country":"CD","coord":{"lon":29.716669,"lat":-7.1}},{"_id":209598,"name":"Manono","country":"CD","coord":{"lon":27.41667,"lat":-7.3}},{"_id":1105460,"name":"Lumpundu","country":"CD","coord":{"lon":25.512779,"lat":-10.74139}},{"_id":922262,"name":"Ruashi","country":"CD","coord":{"lon":27.549999,"lat":-11.61667}},{"_id":2315026,"name":"Kasongo-Lunda","country":"CD","coord":{"lon":16.816669,"lat":-6.46667}},{"_id":205945,"name":"Salukwango","country":"CD","coord":{"lon":26.73333,"lat":-2.58333}},{"_id":213632,"name":"Kavumu","country":"CD","coord":{"lon":28.816111,"lat":-2.30278}},{"_id":218355,"name":"Boluka","country":"CD","coord":{"lon":20.9,"lat":-0.33333}},{"_id":211734,"name":"Lisala","country":"CD","coord":{"lon":21.51667,"lat":2.15}},{"_id":2316821,"name":"Bokuda","country":"CD","coord":{"lon":19.783331,"lat":3.21667}},{"_id":2317285,"name":"Basankusu","country":"CD","coord":{"lon":19.80205,"lat":1.22095}},{"_id":8070735,"name":"Ipeko","country":"CD","coord":{"lon":18.27833,"lat":0.0201}},{"_id":2591272,"name":"Lukole","country":"CD","coord":{"lon":18.795561,"lat":-5.00917}},{"_id":2315417,"name":"Inongo","country":"CD","coord":{"lon":18.26667,"lat":-1.95}},{"_id":2312393,"name":"Muanda","country":"CD","coord":{"lon":12.35,"lat":-5.93333}},{"_id":218229,"name":"Bongandanga","country":"CD","coord":{"lon":21.049999,"lat":1.5}},{"_id":2313371,"name":"Lukolela","country":"CD","coord":{"lon":17.1821,"lat":-1.06046}},{"_id":2316473,"name":"Bosobolo","country":"CD","coord":{"lon":19.9,"lat":4.18333}}]}
