{"countryCityList":[{"_id":2384618,"coord":{"lat":4.25,"lon":18.283331},"country":"CF","name":"Mbongoté"},{"_id":238566,"coord":{"lat":6.26793,"lon":21.22468},"country":"CF","name":"Ippy"},{"_id":238637,"coord":{"lat":5.25,"lon":26.316669},"country":"CF","name":"Hele"},{"_id":2382604,"coord":{"lat":5.93333,"lon":15.65},"country":"CF","name":"Watiguina"},{"_id":240591,"coord":{"lat":8.41667,"lon":20.66667},"country":"CF","name":"Préfecture de la Bamingui-Bangoran"},{"_id":409393,"coord":{"lat":8.43534,"lon":20.638611},"country":"CF","name":"Rokone al Arab"},{"_id":236887,"coord":{"lat":6,"lon":21},"country":"CF","name":"Préfecture de la Ouaka"},{"_id":412482,"coord":{"lat":5.83904,"lon":20.63446},"country":"CF","name":"Atongo"},{"_id":2383765,"coord":{"lat":5,"lon":18},"country":"CF","name":"Préfecture de l’ Ombella-Mpoko"},{"_id":2388707,"coord":{"lat":5.2652,"lon":17.62285},"country":"CF","name":"Bouani"},{"_id":240396,"coord":{"lat":5,"lon":21.5},"country":"CF","name":"Préfecture de la Basse-Kotto"},{"_id":237478,"coord":{"lat":4.31902,"lon":21.17861},"country":"CF","name":"Mobaye"},{"_id":238640,"coord":{"lat":7,"lon":23},"country":"CF","name":"Préfecture de la Haute-Kotto"},{"_id":239899,"coord":{"lat":6.54233,"lon":21.98633},"country":"CF","name":"Bria"},{"_id":237556,"coord":{"lat":5,"lon":23.5},"country":"CF","name":"Préfecture du Mbomou"},{"_id":240498,"coord":{"lat":4.74132,"lon":22.81838},"country":"CF","name":"Bangassou"},{"_id":240604,"coord":{"lat":5.76795,"lon":20.67565},"country":"CF","name":"Bambari"},{"_id":2385836,"coord":{"lat":5.75,"lon":19.08333},"country":"CF","name":"Préfecture de la Kémo"},{"_id":2383119,"coord":{"lat":5.71801,"lon":19.073891},"country":"CF","name":"Sibut"},{"_id":2383650,"coord":{"lat":7,"lon":16},"country":"CF","name":"Préfecture de l’ Ouham-Pendé"},{"_id":2383523,"coord":{"lat":7.24269,"lon":16.44059},"country":"CF","name":"Paoua"},{"_id":2383204,"coord":{"lat":3.5,"lon":16.08333},"country":"CF","name":"Préfecture de la Sangha-Mbaéré"},{"_id":2383827,"coord":{"lat":3.52716,"lon":16.040001},"country":"CF","name":"Nola"},{"_id":2385105,"coord":{"lat":4,"lon":18},"country":"CF","name":"Préfecture de la Lobaye"},{"_id":2384770,"coord":{"lat":3.86781,"lon":17.989229},"country":"CF","name":"Mbaiki"},{"_id":2386243,"coord":{"lat":7.08333,"lon":19.25},"country":"CF","name":"Préfecture de la Nana-Grébizi"},{"_id":2386012,"coord":{"lat":6.98961,"lon":19.187441},"country":"CF","name":"Kaga Bandoro"},{"_id":2383653,"coord":{"lat":7,"lon":18},"country":"CF","name":"Préfecture de l’ Ouham"},{"_id":2388614,"coord":{"lat":4.31887,"lon":17.46953},"country":"CF","name":"Boda"},{"_id":2596686,"coord":{"lat":4.36667,"lon":18.58333},"country":"CF","name":"Commune de Bangui"},{"_id":240049,"coord":{"lat":5.06667,"lon":21.116671},"country":"CF","name":"Borota"},{"_id":2386820,"coord":{"lat":4.21667,"lon":15.76667},"country":"CF","name":"Gadalo"},{"_id":2387440,"coord":{"lat":6.48333,"lon":17.433331},"country":"CF","name":"Dam"},{"_id":236637,"coord":{"lat":6.51599,"lon":21.986219},"country":"CF","name":"Pendé"},{"_id":239880,"coord":{"lat":7,"lon":21},"country":"CF","name":"Central African Republic"},{"_id":235888,"coord":{"lat":7.23333,"lon":20.950001},"country":"CF","name":"Youhamba"},{"_id":236052,"coord":{"lat":6.50133,"lon":23.265829},"country":"CF","name":"Yalinga"},{"_id":236178,"coord":{"lat":10.33333,"lon":22.75},"country":"CF","name":"Préfecture de la Vakaga"},{"_id":240210,"coord":{"lat":10.28488,"lon":22.788179},"country":"CF","name":"Birao"},{"_id":236423,"coord":{"lat":4.76403,"lon":22.820601},"country":"CF","name":"Sayo"},{"_id":2385666,"coord":{"lat":4.38333,"lon":18.533331},"country":"CF","name":"Kolongo"},{"_id":2387435,"coord":{"lat":4.96075,"lon":18.703501},"country":"CF","name":"Damara"},{"_id":2387495,"coord":{"lat":4.9409,"lon":15.86645},"country":"CF","name":"Carnot"},{"_id":2387546,"coord":{"lat":6.31933,"lon":16.379919},"country":"CF","name":"Bozoum"},{"_id":2384205,"coord":{"lat":5.97122,"lon":15.26276},"country":"CF","name":"Préfecture de la Nana-Mambéré"},{"_id":2387926,"coord":{"lat":5.93404,"lon":15.59599},"country":"CF","name":"Bouar"},{"_id":2388036,"coord":{"lat":6.49263,"lon":17.455179},"country":"CF","name":"Bossangoa"},{"_id":2388873,"coord":{"lat":4.25671,"lon":18.415831},"country":"CF","name":"Bimbo"},{"_id":2386161,"coord":{"lat":4.5,"lon":16},"country":"CF","name":"Préfecture de la Mambéré-Kadéï"},{"_id":2389086,"coord":{"lat":4.26116,"lon":15.79216},"country":"CF","name":"Berberati"},{"_id":2389691,"coord":{"lat":7.30082,"lon":18.2833},"country":"CF","name":"Batangafo"},{"_id":2389853,"coord":{"lat":4.36122,"lon":18.55496},"country":"CF","name":"Bangui"},{"_id":235826,"coord":{"lat":5.03144,"lon":25.136141},"country":"CF","name":"Zemio"},{"_id":236524,"coord":{"lat":4.95,"lon":23.91667},"country":"CF","name":"Rafai"},{"_id":236844,"coord":{"lat":4.31325,"lon":22.555241},"country":"CF","name":"Ouango"},{"_id":236901,"coord":{"lat":8.07771,"lon":22.400749},"country":"CF","name":"Ouadda"},{"_id":238639,"coord":{"lat":6,"lon":26},"country":"CF","name":"Préfecture du Haut-Mbomou"},{"_id":236950,"coord":{"lat":5.39978,"lon":26.486879},"country":"CF","name":"Obo"},{"_id":237379,"coord":{"lat":8.41091,"lon":20.64728},"country":"CF","name":"Ndele"},{"_id":238373,"coord":{"lat":4.62275,"lon":21.88645},"country":"CF","name":"Kembe"},{"_id":239300,"coord":{"lat":4.64816,"lon":22.263309},"country":"CF","name":"Gambo"},{"_id":240999,"coord":{"lat":5.02666,"lon":21.208759},"country":"CF","name":"Alindao"},{"_id":2384377,"coord":{"lat":3.64153,"lon":18.593639},"country":"CF","name":"Mongoumba"},{"_id":2385535,"coord":{"lat":4.99337,"lon":19.961861},"country":"CF","name":"Kouango"},{"_id":2386042,"coord":{"lat":7.69937,"lon":18.62903},"country":"CF","name":"Kabo"},{"_id":2386756,"coord":{"lat":4.11775,"lon":15.13926},"country":"CF","name":"Gamboula"},{"_id":2387890,"coord":{"lat":6.51046,"lon":18.27331},"country":"CF","name":"Bouca"},{"_id":2388720,"coord":{"lat":4.80048,"lon":18.12747},"country":"CF","name":"Boali"},{"_id":2389804,"coord":{"lat":5.66667,"lon":15.96667},"country":"CF