{"countryCode":"CM","countryName":"Cameroon","countryFilePath":"CM.json","countryCityList":[{"_id":2224928,"name":"Néméyong II","country":"CM","coord":{"lon":13.5,"lat":2.91667}},{"_id":2230362,"name":"Kélkoto","country":"CM","coord":{"lon":11.16667,"lat":4.43333}},{"_id":2221394,"name":"Tonga","country":"CM","coord":{"lon":10.7,"lat":4.96667}},{"_id":2228005,"name":"Mbanga","country":"CM","coord":{"lon":9.5671,"lat":4.5016}},{"_id":2228675,"name":"Mamfe","country":"CM","coord":{"lon":9.3123,"lat":5.754}},{"_id":2221789,"name":"South Region","country":"CM","coord":{"lon":11.75,"lat":2.5}},{"_id":2235409,"name":"Atog-Boga","country":"CM","coord":{"lon":10.51667,"lat":3.33333}},{"_id":2232486,"name":"Doumomama","country":"CM","coord":{"lon":13.11667,"lat":3.58333}},{"_id":2231494,"name":"Fouy","country":"CM","coord":{"lon":12.21667,"lat":5.31667}},{"_id":2231326,"name":"Garga Sarali","country":"CM","coord":{"lon":14.05,"lat":5.33333}},{"_id":2231755,"name":"Far North Region","country":"CM","coord":{"lon":14.5,"lat":11.0}},{"_id":6730148,"name":"Barawa Ladé","country":"CM","coord":{"lon":14.14697,"lat":10.24521}},{"_id":2229798,"name":"Kousseri","country":"CM","coord":{"lon":15.03063,"lat":12.07689}},{"_id":2221053,"name":"Wum","country":"CM","coord":{"lon":10.06667,"lat":6.38333}},{"_id":2221530,"name":"Tibati","country":"CM","coord":{"lon":12.63333,"lat":6.46667}},{"_id":2221607,"name":"Tchollire","country":"CM","coord":{"lon":14.1698,"lat":8.4022}},{"_id":2222230,"name":"Sangmelima","country":"CM","coord":{"lon":11.98333,"lat":2.93333}},{"_id":2222623,"name":"Penja","country":"CM","coord":{"lon":9.67987,"lat":4.63911}},{"_id":2223293,"name":"Obala","country":"CM","coord":{"lon":11.53333,"lat":4.16667}},{"_id":2223734,"name":"Nkoteng","country":"CM","coord":{"lon":12.03333,"lat":4.51667}},{"_id":2223763,"name":"Nkongsamba","country":"CM","coord":{"lon":9.9404,"lat":4.9547}},{"_id":2225457,"name":"Nanga Eboko","country":"CM","coord":{"lon":12.36667,"lat":4.68333}},{"_id":2225726,"name":"Muyuka","country":"CM","coord":{"lon":9.4103,"lat":4.2898}},{"_id":2225728,"name":"Mutengene","country":"CM","coord":{"lon":9.3144,"lat":4.0913}},{"_id":2225991,"name":"Mora","country":"CM","coord":{"lon":14.14011,"lat":11.04611}},{"_id":2226275,"name":"Mokolo","country":"CM","coord":{"lon":13.80188,"lat":10.73978}},{"_id":2227230,"name":"Melong","country":"CM","coord":{"lon":9.96143,"lat":5.1218}},{"_id":2227402,"name":"Meiganga","country":"CM","coord":{"lon":14.3,"lat":6.51667}},{"_id":2227613,"name":"Mbouda","country":"CM","coord":{"lon":10.25517,"lat":5.62578}},{"_id":2228028,"name":"Mbandjok","country":"CM","coord":{"lon":11.9,"lat":4.45}},{"_id":2228499,"name":"Manjo","country":"CM","coord":{"lon":9.8217,"lat":4.8428}},{"_id":2229152,"name":"Loum","country":"CM","coord":{"lon":9.7351,"lat":4.7182}},{"_id":2229267,"name":"Lolodorf","country":"CM","coord":{"lon":10.73333,"lat":3.23333}},{"_id":2229411,"name":"Limbe","country":"CM","coord":{"lon":9.2149,"lat":4.0242}},{"_id":2229681,"name":"Lagdo","country":"CM","coord":{"lon":13.73333,"lat":9.05}},{"_id":2229748,"name":"Kumbo","country":"CM","coord":{"lon":10.66667,"lat":6.2}},{"_id":2229761,"name":"Kribi","country":"CM","coord":{"lon":9.91667,"lat":2.95}},{"_id":2230599,"name":"Kaele","country":"CM","coord":{"lon":14.45083,"lat":10.10917}},{"_id":2230876,"name":"Guider","country":"CM","coord":{"lon":13.94861,"lat":9.93417}},{"_id":2231482,"name":"Fundong","country":"CM","coord":{"lon":10.26667,"lat":6.25}},{"_id":2231564,"name":"Fontem","country":"CM","coord":{"lon":9.8818,"lat":5.4685}},{"_id":2233805,"name":"Bogo","country":"CM","coord":{"lon":14.60928,"lat":10.7336}},{"_id":2234794,"name":"Banyo","country":"CM","coord":{"lon":11.81667,"lat":6.75}},{"_id":2231835,"name":"East Region","country":"CM","coord":{"lon":14.0,"lat":4.0}},{"_id":2233376,"name":"Centre Region","country":"CM","coord":{"lon":12.0,"lat":4.75}},{"_id":2236015,"name":"Adamaoua Region","country":"CM","coord":{"lon":13.5,"lat":6.5}},{"_id":2235669,"name":"Aman","country":"CM","coord":{"lon":12.33333,"lat":6.36667}},{"_id":2233238,"name":"Dankali","country":"CM","coord":{"lon":14.25,"lat":6.4}},{"_id":2220852,"name":"Yokassala","country":"CM","coord":{"lon":11.44157,"lat":6.46252}},{"_id":2224827,"name":"Ngaoundere","country":"CM","coord":{"lon":13.58333,"lat":7.31667}},{"_id":2231319,"name":"Garoua Boulai","country":"CM","coord":{"lon":14.55,"lat":5.88333}},{"_id":2233387,"name":"Republic of Cameroon","country":"CM","coord":{"lon":12.0,"lat":6.0}},{"_id":2234359,"name":"Bertoua","country":"CM","coord":{"lon":13.68333,"lat":4.58333}},{"_id":2220957,"name":"Yaounde","country":"CM","coord":{"lon":11.51667,"lat":3.86667}},{"_id":2228079,"name":"Mbalmayo","country":"CM","coord":{"lon":11.5,"lat":3.51667}},{"_id":2229336,"name":"Littoral Region","country":"CM","coord":{"lon":10.0,"lat":4.0}},{"_id":2232593,"name":"Douala","country":"CM","coord":{"lon":9.70428,"lat":4.04827}},{"_id":2235748,"name":"Akwa","country":"CM","coord":{"lon":9.7,"lat":4.05}},{"_id":2232239,"name":"Edea","country":"CM","coord":{"lon":10.13333,"lat":3.8}},{"_id":2222934,"name":"West Region","country":"CM","coord":{"lon":10.5,"lat":5.5}},{"_id":2235189,"name":"Bafoussam","country":"CM","coord":{"lon":10.41786,"lat":5.47366}},{"_id":2232283,"name":"Ebolowa","country":"CM","coord":{"lon":11.15,"lat":2.9}},{"_id":2223602,"name":"North-West Region","country":"CM","coord":{"lon":10.5,"lat":6.33333}},{"_id":2234974,"name":"Bamenda","country":"CM","coord":{"lon":10.15824,"lat":5.95266}},{"_id":2231538,"name":"Foto","country":"CM","coord":{"lon":10.06226,"lat":5.45878}},{"_id":2221788,"name":"South-West Region","country":"CM","coord":{"lon":9.33333,"lat":5.41667}},{"_id":2233410,"name":"Buea","country":"CM","coord":{"lon":9.241,"lat":4.1527}},{"_id":2229752,"name":"Kumba","country":"CM","coord":{"lon":9.4469,"lat":4.6363}},{"_id":2221504,"name":"Tiko","country":"CM","coord":{"lon":9.3699,"lat":4.0745}},{"_id":2223603,"name":"North Region","country":"CM","coord":{"lon":14.0,"lat":8.5}},{"_id":2231320,"name":"Garoua","country":"CM","coord":{"lon":13.4,"lat":9.3}},{"_id":2228373,"name":"Maroua","country":"CM","coord":{"lon":14.31592,"lat":10.59095}},{"_id":2231565,"name":"Fontain","country":"CM","coord":{"lon":10.91667,"lat":5.73333}},{"_id":2234536,"name":"Belabo","country":"CM","coord":{"lon":13.3,"lat":4.93333}},{"_id":7109573,"name":"Djo","country":"CM","coord":{"lon":10.41705,"lat":5.34332}},{"_id":2223638,"name":"Nlongo","country":"CM","coord":{"lon":9.93333,"lat":4.95}},{"_id":2233252,"name":"Dang","country":"CM","coord":{"lon":11.23333,"lat":4.75}},{"_id":2232652,"name":"Dombé","country":"CM","coord":{"lon":9.91667,"lat":2.95}},{"_id":2234663,"name":"Batouri","country":"CM","coord":{"lon":14.36667,"lat":4.43333}},{"_id":2224513,"name":"Ngoulmokong","country":"CM","coord":{"lon":13.61667,"lat":3.16667}},{"_id":2221046,"name":"Yabassi","country":"CM","coord":{"lon":9.96822,"lat":4.45697}},{"_id":2224162,"name":"Nkan","country":"CM","coord":{"lon":12.66667,"lat":2.66667}},{"_id":2223527,"name":"Nsimalen","country":"CM","coord":{"lon":11.55,"lat":3.73333}},{"_id":2225712,"name":"Mvan","country":"CM","coord":{"lon":11.51667,"lat":3.81667}},{"_id":2231926,"name":"Enongal","country":"CM","coord":{"lon":11.18333,"lat":2.88333}},{"_id":2235186,"name":"Bafut","country":"CM","coord":{"lon":10.1,"lat":6.08333}},{"_id":2229673,"name":"Laïndé","country":"CM","coord":{"lon":13.41667,"lat":9.33333}},{"_id":2227808,"name":"Mbi Djoro","country":"CM","coord":{"lon":13.56667,"lat":7.38333}},{"_id":7110232,"name":"Nkoutaba","country":"CM","coord":{"lon":10.74339,"lat":5.63075}},{"_id":2222312,"name":"Salak","country":"CM","coord":{"lon":14.25251,"lat":10.45935}},{"_id":2221030,"name":"Yagoua","country":"CM","coord":{"lon":15.23288,"lat":10.34107}},{"_id":2223306,"name":"Nzinbé","country":"CM","coord":{"lon":14.36667,"lat":4.46667}},{"_id":2230600,"name":"Kaelé","country":"CM","coord":{"lon":14.44651,"lat":10.10672}},{"_id":2234353,"name":"Besongabang","country":"CM","coord":{"lon":9.29875,"lat":5.70735}},{"_id":2224922,"name":"New Bell","country":"CM","coord":{"lon":9.7215,"lat":4.0354}},{"_id":2594997,"name":"Ndongo","country":"CM","coord":{"lon":9.3483,"lat":4.0792}},{"_id":2222518,"name":"Pongo","country":"CM","coord":{"lon":9.98333,"lat":2.86667}},{"_id":2231504,"name":"Foumbot","country":"CM","coord":{"lon":10.6356,"lat":5.50787}},{"_id":2231506,"name":"Foumban","country":"CM","coord":{"lon":10.90011,"lat":5.7291}},{"_id":2231881,"name":"Eseka","country":"CM","coord":{"lon":10.76667,"lat":3.65}},{"_id":2232444,"name":"Dschang","country":"CM","coord":{"lon":10.055,"lat":5.44559}},{"_id":2232997,"name":"Dizangue","country":"CM","coord":{"lon":9.98333,"lat":3.76667}},{"_id":2234865,"name":"Bangangte","country":"CM","coord":{"lon":10.51975,"lat":5.14091}},{"_id":2234941,"name":"Bamusso","country":"CM","coord":{"lon":8.9027,"lat":4.4591}},{"_id":2235029,"name":"Bali","country":"CM","coord":{"lon":10.01248,"lat":5.88724}},{"_id":2235194,"name":"Bafia","country":"CM","coord":{"lon":11.23333,"lat":4.75}},{"_id":2235196,"name":"Bafang","country":"CM","coord":{"lon":10.17882,"lat":5.15625}},{"_id":2235776,"name":"Akonolinga","country":"CM","coord":{"lon":12.25,"lat":3.76667}},{"_id":2594800,"name":"Idenao","country":"CM","coord":{"lon":9.00472,"lat":4.2475}},{"_id":2220849,"name":"Yoko","country":"CM","coord":{"lon":12.31667,"lat":5.53333}},{"_id":2220853,"name":"Yokadouma","country":"CM","coord":{"lon":15.05,"lat":3.51667}},{"_id":2221513,"name":"Tignere","country":"CM","coord":{"lon":12.65,"lat":7.36667}},{"_id":2222366,"name":"Saa","country":"CM","coord":{"lon":11.45,"lat":4.36667}},{"_id":2222439,"name":"Rey Bouba","country":"CM","coord":{"lon":14.1786,"lat":8.6724}},{"_id":2222539,"name":"Poli","country":"CM","coord":{"lon":13.25,"lat":8.48333}},{"_id":2222568,"name":"Pitoa","country":"CM","coord":{"lon":13.53333,"lat":9.38333}},{"_id":2223162,"name":"Ombesa","country":"CM","coord":{"lon":11.25,"lat":4.6}},{"_id":2223216,"name":"Okola","country":"CM","coord":{"lon":11.38333,"lat":4.01667}},{"_id":2223226,"name":"Okoa","country":"CM","coord":{"lon":11.6,"lat":3.98333}},{"_id":2223421,"name":"Ntui","country":"CM","coord":{"lon":11.63333,"lat":4.45}},{"_id":2224212,"name":"Njinikom","country":"CM","coord":{"lon":10.28333,"lat":6.23333}},{"_id":2224413,"name":"Nguti","country":"CM","coord":{"lon":9.4185,"lat":5.3299}},{"_id":2224584,"name":"Ngoro","country":"CM","coord":{"lon":11.38333,"lat":4.95}},{"_id":2224641,"name":"Ngomedzap","country":"CM","coord":{"lon":11.2,"lat":3.25}},{"_id":2224863,"name":"Ngambe","country":"CM","coord":{"lon":10.61667,"lat":4.23333}},{"_id":2225263,"name":"Ndikinimeki","country":"CM","coord":{"lon":10.83333,"lat":4.76667}},{"_id":2225325,"name":"Ndelele","country":"CM","coord":{"lon":14.93333,"lat":4.03333}},{"_id":2225703,"name":"Mvangue","country":"CM","coord":{"lon":11.51667,"lat":2.96667}},{"_id":2225745,"name":"Mundemba","country":"CM","coord":{"lon":8.8724,"lat":4.9479}},{"_id":2225940,"name":"Mouanko","country":"CM","coord":{"lon":9.77694,"lat":3.63972}},{"_id":2226441,"name":"Mme-Bafumen","country":"CM","coord":{"lon":10.23333,"lat":6.33333}},{"_id":2226515,"name":"Minta","country":"CM","coord":{"lon":12.8,"lat":4.58333}},{"_id":2226641,"name":"Mindif","country":"CM","coord":{"lon":14.43626,"lat":10.39757}},{"_id":2227853,"name":"Mbengwi","country":"CM","coord":{"lon":10.0,"lat":6.01667}},{"_id":2227980,"name":"Mbankomo","country":"CM","coord":{"lon":11.38333,"lat":3.78333}},{"_id":2228019,"name":"Mbang","country":"CM","coord":{"lon":13.33333,"lat":4.58333}},{"_id":2228881,"name":"Makary","country":"CM","coord":{"lon":14.46662,"lat":12.5717}},{"_id":2229780,"name":"Koza","country":"CM","coord":{"lon":13.87855,"lat":10.87079}},{"_id":2230028,"name":"Kontcha","country":"CM","coord":{"lon":12.23333,"lat":7.96667}},{"_id":2230285,"name":"Bankim","country":"CM","coord":{"lon":11.4905,"lat":6.08303}},{"_id":2230641,"name":"Jakiri","country":"CM","coord":{"lon":10.65,"lat":6.1}},{"_id":2231775,"name":"Evodoula","country":"CM","coord":{"lon":11.2,"lat":4.08333}},{"_id":2231851,"name":"Esse","country":"CM","coord":{"lon":11.9,"lat":4.1}},{"_id":2232497,"name":"Doume","country":"CM","coord":{"lon":13.45,"lat":4.23333}},{"_id":2232774,"name":"Djohong","country":"CM","coord":{"lon":14.7,"lat":6.83333}},{"_id":2233056,"name":"Dimako","country":"CM","coord":{"lon":13.56667,"lat":4.38333}},{"_id":2233100,"name":"Dibombari","country":"CM","coord":{"lon":9.6561,"lat":4.1787}},{"_id":2233118,"name":"Diang","country":"CM","coord":{"lon":10.01667,"lat":4.25}},{"_id":2233704,"name":"Bonaberi","country":"CM","coord":{"lon":9.6759,"lat":4.0779}},{"_id":2234339,"name":"Betare Oya","country":"CM","coord":{"lon":14.08333,"lat":5.6}},{"_id":2234455,"name":"Belo","country":"CM","coord":{"lon":10.25,"lat":6.13333}},{"_id":2234520,"name":"Belel","country":"CM","coord":{"lon":14.43333,"lat":7.05}},{"_id":2234545,"name":"Bekondo","country":"CM","coord":{"lon":9.3214,"lat":4.6819}},{"_id":2234635,"name":"Bazou","country":"CM","coord":{"lon":10.46978,"lat":5.05695}},{"_id":2234684,"name":"Batibo","country":"CM","coord":{"lon":9.8553,"lat":5.8358}},{"_id":2234803,"name":"Bansoa","country":"CM","coord":{"lon":10.31514,"lat":5.44718}},{"_id":2234842,"name":"Ngou","country":"CM","coord":{"lon":10.38441,"lat":5.1959}},{"_id":2234904,"name":"Bandjoun","country":"CM","coord":{"lon":10.41816,"lat":5.37878}},{"_id":2234936,"name":"Bana","country":"CM","coord":{"lon":10.2762,"lat":5.1481}},{"_id":2234968,"name":"Bamendjou","country":"CM","coord":{"lon":10.33161,"lat":5.38875}},{"_id":2235293,"name":"Babanki","country":"CM","coord":{"lon":10.25,"lat":6.11667}},{"_id":2235660,"name":"Ambam","country":"CM","coord":{"lon":11.28333,"lat":2.38333}},{"_id":2235780,"name":"Akono","country":"CM","coord":{"lon":11.33333,"lat":3.5}},{"_id":2235814,"name":"Akom II","country":"CM","coord":{"lon":10.56667,"lat":2.78333}},{"_id":2236053,"name":"Abong Mbang","country":"CM","coord":{"lon":13.18333,"lat":3.98333}},{"_id":2595172,"name":"Ndom","country":"CM","coord":{"lon":9.5628,"lat":4.4978}},{"_id":6620518,"name":"Somie","country":"CM","coord":{"lon":11.43299,"lat":6.45843}}]}
