{"countryCityList":[{"_id":2224928,"coord":{"lat":2.91667,"lon":13.5},"country":"CM","name":"Néméyong II"},{"_id":2230362,"coord":{"lat":4.43333,"lon":11.16667},"country":"CM","name":"Kélkoto"},{"_id":2221394,"coord":{"lat":4.96667,"lon":10.7},"country":"CM","name":"Tonga"},{"_id":2228005,"coord":{"lat":4.5016,"lon":9.5671},"country":"CM","name":"Mbanga"},{"_id":2228675,"coord":{"lat":5.754,"lon":9.3123},"country":"CM","name":"Mamfe"},{"_id":2221789,"coord":{"lat":2.5,"lon":11.75},"country":"CM","name":"South Region"},{"_id":2235409,"coord":{"lat":3.33333,"lon":10.51667},"country":"CM","name":"Atog-Boga"},{"_id":2232486,"coord":{"lat":3.58333,"lon":13.11667},"country":"CM","name":"Doumomama"},{"_id":2231494,"coord":{"lat":5.31667,"lon":12.21667},"country":"CM","name":"Fouy"},{"_id":2231326,"coord":{"lat":5.33333,"lon":14.05},"country":"CM","name":"Garga Sarali"},{"_id":2231755,"coord":{"lat":11,"lon":14.5},"country":"CM","name":"Far North Region"},{"_id":6730148,"coord":{"lat":10.24521,"lon":14.14697},"country":"CM","name":"Barawa Ladé"},{"_id":2229798,"coord":{"lat":12.07689,"lon":15.03063},"country":"CM","name":"Kousseri"},{"_id":2221053,"coord":{"lat":6.38333,"lon":10.06667},"country":"CM","name":"Wum"},{"_id":2221530,"coord":{"lat":6.46667,"lon":12.63333},"country":"CM","name":"Tibati"},{"_id":2221607,"coord":{"lat":8.4022,"lon":14.1698},"country":"CM","name":"Tchollire"},{"_id":2222230,"coord":{"lat":2.93333,"lon":11.98333},"country":"CM","name":"Sangmelima"},{"_id":2222623,"coord":{"lat":4.63911,"lon":9.67987},"country":"CM","name":"Penja"},{"_id":2223293,"coord":{"lat":4.16667,"lon":11.53333},"country":"CM","name":"Obala"},{"_id":2223734,"coord":{"lat":4.51667,"lon":12.03333},"country":"CM","name":"Nkoteng"},{"_id":2223763,"coord":{"lat":4.9547,"lon":9.9404},"country":"CM","name":"Nkongsamba"},{"_id":2225457,"coord":{"lat":4.68333,"lon":12.36667},"country":"CM","name":"Nanga Eboko"},{"_id":2225726,"coord":{"lat":4.2898,"lon":9.4103},"country":"CM","name":"Muyuka"},{"_id":2225728,"coord":{"lat":4.0913,"lon":9.3144},"country":"CM","name":"Mutengene"},{"_id":2225991,"coord":{"lat":11.04611,"lon":14.14011},"country":"CM","name":"Mora"},{"_id":2226275,"coord":{"lat":10.73978,"lon":13.80188},"country":"CM","name":"Mokolo"},{"_id":2227230,"coord":{"lat":5.1218,"lon":9.96143},"country":"CM","name":"Melong"},{"_id":2227402,"coord":{"lat":6.51667,"lon":14.3},"country":"CM","name":"Meiganga"},{"_id":2227613,"coord":{"lat":5.62578,"lon":10.25517},"country":"CM","name":"Mbouda"},{"_id":2228028,"coord":{"lat":4.45,"lon":11.9},"country":"CM","name":"Mbandjok"},{"_id":2228499,"coord":{"lat":4.8428,"lon":9.8217},"country":"CM","name":"Manjo"},{"_id":2229152,"coord":{"lat":4.7182,"lon":9.7351},"country":"CM","name":"Loum"},{"_id":2229267,"coord":{"lat":3.23333,"lon":10.73333},"country":"CM","name":"Lolodorf"},{"_id":2229411,"coord":{"lat":4.0242,"lon":9.2149},"country":"CM","name":"Limbe"},{"_id":2229681,"coord":{"lat":9.05,"lon":13.73333},"country":"CM","name":"Lagdo"},{"_id":2229748,"coord":{"lat":6.2,"lon":10.66667},"country":"CM","name":"Kumbo"},{"_id":2229761,"coord":{"lat":2.95,"lon":9.91667},"country":"CM","name":"Kribi"},{"_id":2230599,"coord":{"lat":10.10917,"lon":14.45083},"country":"CM","name":"Kaele"},{"_id":2230876,"coord":{"lat":9.93417,"lon":13.94861},"country":"CM","name":"Guider"},{"_id":2231482,"coord":{"lat":6.25,"lon":10.26667},"country":"CM","name":"Fundong"},{"_id":2231564,"coord":{"lat":5.4685,"lon":9.8818},"country":"CM","name":"Fontem"},{"_id":2233805,"coord":{"lat":10.7336,"lon":14.60928},"country":"CM","name":"Bogo"},{"_id":2234794,"coord":{"lat":6.75,"lon":11.81667},"country":"CM","name":"Banyo"},{"_id":2231835,"coord":{"lat":4,"lon":14},"country":"CM","name":"East Region"},{"_id":2233376,"coord":{"lat":4.75,"lon":12},"country":"CM","name":"Centre Region"},{"_id":2236015,"coord":{"lat":6.5,"lon":13.5},"country":"CM","name":"Adamaoua Region"},{"_id":2235669,"coord":{"lat":6.36667,"lon":12.33333},"country":"CM","name":"Aman"},{"_id":2233238,"coord":{"lat":6.4,"lon":14.25},"country":"CM","name":"Dankali"},{"_id":2220852,"coord":{"lat":6.46252,"lon":11.44157},"country":"CM","name":"Yokassala"},{"_id":2224827,"coord":{"lat":7.31667,"lon":13.58333},"country":"CM","name":"Ngaoundere"},{"_id":2231319,"coord":{"lat":5.88333,"lon":14.55},"country":"CM","name":"Garoua Boulai"},{"_id":2233387,"coord":{"lat":6,"lon":12},"country":"CM","name":"Republic of Cameroon"},{"_id":2234359,"coord":{"lat":4.58333,"lon":13.68333},"country":"CM","name":"Bertoua"},{"_id":2220957,"coord":{"lat":3.86667,"lon":11.51667},"country":"CM","name":"Yaounde"},{"_id":2228079,"coord":{"lat":3.51667,"lon":11.5},"country":"CM","name":"Mbalmayo"},{"_id":2229336,"coord":{"lat":4,"lon":10},"country":"CM","name":"Littoral Region"},{"_id":2232593,"coord":{"lat":4.04827,"lon":9.70428},"country":"CM","name":"Douala"},{"_id":2235748,"coord":{"lat":4.05,"lon":9.7},"country":"CM","name":"Akwa"},{"_id":2232239,"coord":{"lat":3.8,"lon":10.13333},"country":"CM","name":"Edea"},{"_id":2222934,"coord":{"lat":5.5,"lon":10.5},"country":"CM","name":"West Region"},{"_id":2235189,"coord":{"lat":5.47366,"lon":10.41786},"country":"CM","name":"Bafoussam"},{"_id":2232283,"coord":{"lat":2.9,"lon":11.15},"country":"CM","name":"Ebolowa"},{"_id":2223602,"coord":{"lat":6.33333,"lon":10.5},"country":"CM","name":"North-West Region"},{"_id":2234974,"coord":{"lat":5.95266,"lon":10.15824},"country":"CM","name":"Bamenda"},{"_id":2231538,"coord":{"lat":5.45878,"lon":10.06226},"country":"CM","name":"Foto"},{"_id":2221788,"coord":{"lat":5.41667,"lon":9.33333},"country":"CM","name":"South-West Region"},{"_id":2233410,"coord":{"lat":4.1527,"lon":9.241},"country":"CM","name":"Buea"},{"_id":2229752,"coord":{"lat":4.6363,"lon":9.4469},"country":"CM","name":"Kumba"},{"_id":2221504,"coord":{"lat":4.0745,"lon":9.3699},"country":"CM","name":"Tiko"},{"_id":2223603,"coord":{"lat":8.5,"lon":14},"country":"CM","name":"North Region"},{"_id":2231320,"coord":{"lat":9.3,"lon":13.4},"country":"CM","name":"Garoua"},{"_id":2228373,"coord":{"lat":10.59095,"lon":14.31592},"country":"CM","name":"Maroua"},{"_id":2231565,"coord":{"lat":5.73333,"lon":10.91667},"country":"CM","name":"Fontain"},{"_id":2234536,"coord":{"lat":4.93333,"lon":13.3},"country":"CM","name":"Belabo"},{"_id":7109573,"coord":{"lat":5.34332,"lon":10.41705},"country":"CM","name":"Djo"},{"_id":2223638,"coord":{"lat":4.95,"lon":9.93333},"country":"CM","name":"Nlongo"},{"_id":2233252,"coord":{"lat":4.75,"lon":11.23333},"country":"CM","name":"Dang"},{"_id":2232652,"coord":{"lat":2.95,"lon":9.91667},"country":"CM","name":"Dombé"},{"_id":2234663,"coord":{"lat":4.43333,"lon":14.36667},"country":"CM","name":"Batouri"},{"_id":2224513,"coord":{"lat":3.16667,"lon":13.61667},"country":"CM","name":"Ngoulmokong"},{"_id":2221046,"coord":{"lat":4.45697,"lon":9.96822},"country":"CM","name":"Yabassi"},{"_id":2224162,"coord":{"lat":2.66667,"lon":12.66667},"country":"CM","name":"Nkan"},{"_id":2223527,"coord":{"lat":3.73333,"lon":11.55},"country":"CM","name":"Nsimalen"},{"_id":2225712,"coord":{"lat":3.81667,"lon":11.51667},"country":"CM","name":"Mvan"},{"_id":2231926,"coord":{"lat":2.88333,"lon":11.18333},"country":"CM","name":"Enongal"},{"_id":2235186,"coord":{"lat":6.08333,"lon":10.1},"country":"CM","name":"Bafut"},{"_id":2229673,"coord":{"lat":9.33333,"lon":13.41667},"country":"CM","name":"Laïndé"},{"_id":2227808,"coord":{"lat":7.38333,"lon":13.56667},"country":"CM","name":"Mbi Djoro"},{"_id":7110232,"coord":{"lat":5.63075,"lon":10.74339},"country":"CM","name":"Nkoutaba"},{"_id":2222312,"coord":{"lat":10.45935,"lon":14.25251},"country":"CM","name":"Salak"},{"_id":2221030,"coord":{"lat":10.34107,"lon":15.23288},"country":"CM","name":"Yagoua"},{"_id":2223306,"coord":{"lat":4.46667,"lon":14.36667},"country":"CM","name":"Nzinbé"},{"_id":2230600,"coord":{"lat":10.10672,"lon":14.44651},"country":"CM","name":"Kaelé"},{"_id":2234353,"coord":{"lat":5.70735,"lon":9.29875},"country":"CM","name":"Besongabang"},{"_id":2224922,"coord":{"lat":4.0354,"lon":9.7215},"country":"CM","name":"New Bell"},{"_id":2594997,"coord":{"lat":4.0792,"lon":9.3483},"country":"CM","name":"Ndongo"},{"_id":2222518,"coord":{"lat":2.86667,"lon":9.98333},"country":"CM","name":"Pongo"},{"_id":2231504,"coord":{"lat":5.50787,"lon":10.6356},"country":"CM","name":"Foumbot"},{"_id":2231506,"coord":{"lat":5.7291,"lon":10.90011},"country":"CM","name":"Foumban"},{"_id":2231881,"coord":{"lat":3.65,"lon":10.76667},"country":"CM","name":"Eseka"},{"_id":2232444,"coord":{"lat":5.44559,"lon":10.055},"country":"CM","name":"Dschang"},{"_id":2232997,"coord":{"lat":3.76667,"lon":9.98333},"country":"CM","name":"Dizangue"},{"_id":2234865,"coord":{"lat":5.14091,"lon":10.51975},"country":"CM","name":"Bangangte"},{"_id":2234941,"coord":{"lat":4.4591,"lon":8.9027},"country":"CM","name":"Bamusso"},{"_id":2235029,"coord":{"lat":5.88724,"lon":10.01248},"country":"CM","name":"Bali"},{"_id":2235194,"coord":{"lat":4.75,"lon":11.23333},"country":"CM","name":"Bafia"},{"_id":2235196,"coord":{"lat":5.15625,"lon":10.17882},"country":"CM","name":"Bafang"},{"_id":2235776,"coord":{"lat":3.76667,"lon":12.25},"country":"CM","name":"Akonolinga"},{"_id":2594800,"coord":{"lat":4.2475,"lon":9.00472},"country":"CM","name":"Idenao"},{"_id":2220849,"coord":{"lat":5.53333,"lon":12.31667},"country":"CM","name":"Yoko"},{"_id":2220853,"coord":{"lat":3.51667,"lon":15.05},"country":"CM","name":"Yokadouma"},{"_id":2221513,"coord":{"lat":7.36667,"lon":12.65},"country":"CM","name":"Tignere"},{"_id":2222366,"coord":{"lat":4.36667,"lon":11.45},"country":"CM","name":"Saa"},{"_id":2222439,"coord":{"lat":8.6724,"lon":14.1786},"country":"CM","name":"Rey Bouba"},{"_id":2222539,"coord":{"lat":8.48333,"lon":13.25},"country":"CM","name":"Poli"},{"_id":2222568,"coord":{"lat":9.38333,"lon":13.53333},"country":"CM","name":"Pitoa"},{"_id":2223162,"coord":{"lat":4.6,"lon":11.25},"country":"CM","name":"Ombesa"},{"_id":2223216,"coord":{"lat":4.01667,"lon":11.38333},"country":"CM","name":"Okola"},{"_id":2223226,"coord":{"lat":3.98333,"lon":11.6},"country":"CM","name":"Okoa"},{"_id":2223421,"coord":{"lat":4.45,"lon":11.63333},"country":"CM","name":"Ntui"},{"_id":2224212,"coord":{"lat":6.23333,"lon":10.28333},"country":"CM","name":"Njinikom"},{"_id":2224413,"coord":{"lat":5.3299,"lon":9.4185},"country":"CM","name":"Nguti"},{"_id":2224584,"coord":{"lat":4.95,"lon":11.38333},"country":"CM","name":"Ngoro"},{"_id":2224641,"coord":{"lat":3.25,"lon":11.2},"country":"CM","name":"Ngomedzap"},{"_id":2224863,"coord":{"lat":4.23333,"lon":10.61667},"country":"CM","name":"Ngambe"},{"_id":2225263,"coord":{"lat":4.76667,"lon":10.83333},"country":"CM","name":"Ndikinimeki"},{"_id":2225325,"coord":{"lat":4.03333,"lon":14.93333},"country":"CM","name":"Ndelele"},{"_id":2225703,"coord":{"lat":2.96667,"lon":11.51667},"country":"CM","name":"Mvangue"},{"_id":2225745,"coord":{"lat":4.9479,"lon":8.8724},"country":"CM","name":"Mundemba"},{"_id":2225940,"coord":{"lat":3.63972,"lon":9.77694},"country":"CM","name":"Mouanko"},{"_id":2226441,"coord":{"lat":6.33333,"lon":10.23333},"country":"CM","name":"Mme-Bafumen"},{"_id":2226515,"coord":{"lat":4.58333,"lon":12.8},"country":"CM","name":"Minta"},{"_id":2226641,"coord":{"lat":10.39757,"lon":14.43626},"country":"CM","name":"Mindif"},{"_id":2227853,"coord":{"lat":6.01667,"lon":10},"country":"CM","name":"Mbengwi"},{"_id":2227980,"coord":{"lat":3.78333,"lon":11.38333},"country":"CM","name":"Mbankomo"},{"_id":2228019,"coord":{"lat":4.58333,"lon":13.33333},"country":"CM","name":"Mbang"},{"_id":2228881,"coord":{"lat":12.5717,"lon":14.46662},"country":"CM","name":"Makary"},{"_id":2229780,"coord":{"lat":10.87079,"lon":13.87855},"country":"CM","name":"Koza"},{"_id":2230028,"coord":{"lat":7.96667,"lon":12.23333},"country":"CM","name":"Kontcha"},{"_id":2230285,"coord":{"lat":6.08303,"lon":11.4905},"country":"CM","name":"Bankim"},{"_id":2230641,"coord":{"lat":6.1,"lon":10.65},"country":"CM","name":"Jakiri"},{"_id":2231775,"coord":{"lat":4.08333,"lon":11.2},"country":"CM","name":"Evodoula"},{"_id":2231851,"coord":{"lat":4.1,"lon":11.9},"country":"CM","name":"Esse"},{"_id":2232497,"coord":{"lat":4.23333,"lon":13.45},"country":"CM","name":"Doume"},{"_id":2232774,"coord":{"lat":6.83333,"lon":14.7},"country":"CM","name":"Djohong"},{"_id":2233056,"coord":{"lat":4.38333,"lon":13.56667},"country":"CM","name":"Dimako"},{"_id":2233100,"coord":{"lat":4.1787,"lon":9.6561},"country":"CM","name":"Dibombari"},{"_id":2233118,"coord":{"lat":4.25,"lon":10.01667},"country":"CM","name":"Diang"},{"_id":2233704,"coord":{"lat":4.0779,"lon":9.6759},"country":"CM","name":"Bonaberi"},{"_id":2234339,"coord":{"lat":5.6,"lon":14.08333},"country":"CM","name":"Betare Oya"},{"_id":2234455,"coord":{"lat":6.13333,"lon":10.25},"country":"CM","name":"Belo"},{"_id":2234520,"coord":{"lat":7.05,"lon":14.43333},"country":"CM","name":"Belel"},{"_id":2234545,"coord":{"lat":4.6819,"lon":9.3214},"country":"CM","name":"Bekondo"},{"_id":2234635,"coord":{"lat":5.05695,"lon":10.46978},"country":"CM","name":"Bazou"},{"_id":2234684,"coord":{"lat":5.8358,"lon":9.8553},"country":"CM","name":"Batibo"},{"_id":2234803,"coord":{"lat":5.44718,"lon":10.31514},"country":"CM","name":"Bansoa"},{"_id":2234842,"coord":{"lat":5.1959,"lon":10.38441},"country":"CM","