{"countryCityList":[{"_id":3681344,"coord":{"lat":1.68944,"lon":-72.820282},"country":"CO","name":"Departamento del Guaviare"},{"_id":6851663,"coord":{"lat":2.47017,"lon":-72.391029},"country":"CO","name":"Inspección de Policía Puerto Ospina"},{"_id":3674810,"coord":{"lat":3.5,"lon":-73},"country":"CO","name":"Departamento del Meta"},{"_id":3668562,"coord":{"lat":4.86775,"lon":-68.361122},"country":"CO","name":"Santa Rita"},{"_id":3668605,"coord":{"lat":11.24079,"lon":-74.199043},"country":"CO","name":"Santa Marta"},{"_id":3674597,"coord":{"lat":9.24194,"lon":-74.426666},"country":"CO","name":"Mompos"},{"_id":3675605,"coord":{"lat":6.69903,"lon":-72.73233},"country":"CO","name":"Malaga"},{"_id":3689381,"coord":{"lat":8.31372,"lon":-75.139816},"country":"CO","name":"Ayapel"},{"_id":3686110,"coord":{"lat":4,"lon":-72},"country":"CO","name":"Republic of Colombia"},{"_id":3689982,"coord":{"lat":-1.01972,"lon":-71.938332},"country":"CO","name":"Departamento del Amazonas"},{"_id":3827656,"coord":{"lat":-4.19111,"lon":-69.995827},"country":"CO","name":"Rondiña"},{"_id":3666082,"coord":{"lat":5,"lon":-69.5},"country":"CO","name":"Departamento del Vichada"},{"_id":3829421,"coord":{"lat":4.32556,"lon":-70.550003},"country":"CO","name":"Chananané"},{"_id":3675686,"coord":{"lat":10,"lon":-74.5},"country":"CO","name":"Departamento del Magdalena"},{"_id":3682254,"coord":{"lat":11.19321,"lon":-74.222923},"country":"CO","name":"Gaira"},{"_id":3675252,"coord":{"lat":5.19889,"lon":-74.892952},"country":"CO","name":"Mariquita"},{"_id":3687952,"coord":{"lat":6.09106,"lon":-75.635689},"country":"CO","name":"Caldas"},{"_id":3688452,"coord":{"lat":3.58333,"lon":-77},"country":"CO","name":"Buenaventura"},{"_id":3671178,"coord":{"lat":0.5,"lon":-76},"country":"CO","name":"Departamento del Putumayo"},{"_id":6974754,"coord":{"lat":0.47361,"lon":-75.186111},"country":"CO","name":"El Mecaya"},{"_id":3769975,"coord":{"lat":4.03772,"lon":-73.343163},"country":"CO","name":"Puerto Chigüiro"},{"_id":3676623,"coord":{"lat":-4.21528,"lon":-69.940559},"country":"CO","name":"Leticia"},{"_id":3674654,"coord":{"lat":1.14933,"lon":-76.646606},"country":"CO","name":"Mocoa"},{"_id":3674740,"coord":{"lat":1.33667,"lon":-71.951111},"country":"CO","name":"Miraflores"},{"_id":3665900,"coord":{"lat":4.142,"lon":-73.62664},"country":"CO","name":"Villavicencio"},{"_id":3671519,"coord":{"lat":6.18903,"lon":-67.485878},"country":"CO","name":"Puerto Carreno"},{"_id":3688685,"coord":{"lat":4.25,"lon":-74.183327},"country":"CO","name":"Distrito Capital de Bogotá"},{"_id":3688689,"coord":{"lat":4.60971,"lon":-74.081749},"country":"CO","name":"Bogota"},{"_id":7033305,"coord":{"lat":4.64882,"lon":-74.058372},"country":"CO","name":"Granada"},{"_id":8182072,"coord":{"lat":4.60066,"lon":-74.085861},"country":"CO","name":"Estanzuela"},{"_id":3670698,"coord":{"lat":5,"lon":-76},"country":"CO","name":"Departamento de Risaralda"},{"_id":3672486,"coord":{"lat":4.81333,"lon":-75.696114},"country":"CO","name":"Pereira"},{"_id":3680692,"coord":{"lat":2.5,"lon":-75.75},"country":"CO","name":"Departamento del Huila"},{"_id":3672532,"coord":{"lat":2.91667,"lon":-75.333328},"country":"CO","name":"Peñón de Opia"},{"_id":3685413,"coord":{"lat":5,"lon":-74.166672},"country":"CO","name":"Departamento de Cundinamarca"},{"_id":3666997,"coord":{"lat":4.96531,"lon":-73.91301},"country":"CO","name":"Tocancipa"},{"_id":3689436,"coord":{"lat":10.75,"lon":-75},"country":"CO","name":"Departamento del Atlántico"},{"_id":3689147,"coord":{"lat":10.96389,"lon":-74.796387},"country":"CO","name":"Barranquilla"},{"_id":3668578,"coord":{"lat":7,"lon":-73.25},"country":"CO","name":"Departamento de Santander"},{"_id":3688465,"coord":{"lat":7.12539,"lon":-73.119797},"country":"CO","name":"Bucaramanga"},{"_id":3670235,"coord":{"lat":7.13306,"lon":-73.122223},"country":"CO","name":"San Alonso"},{"_id":3666313,"coord":{"lat":3.75,"lon":-76.5},"country":"CO","name":"Departamento del Valle del Cauca"},{"_id":3687925,"coord":{"lat":3.43722,"lon":-76.522499},"country":"CO","name":"Cali"},{"_id":3689815,"coord":{"lat":7,"lon":-75.5},"country":"CO","name":"Departamento de Antioquia"},{"_id":3688889,"coord":{"lat":6.29238,"lon":-75.547958},"country":"CO","name":"Berlín"},{"_id":3665657,"coord":{"lat":3.58234,"lon":-76.491463},"country":"CO","name":"Yumbo"},{"_id":3680450,"coord":{"lat":6.17194,"lon":-75.611389},"country":"CO","name":"Itagui"},{"_id":3688256,"coord":{"lat":3.90089,"lon":-76.297829},"country":"CO","name":"Buga"},{"_id":3682028,"coord":{"lat":4.29866,"lon":-74.80468},"country":"CO","name":"Girardot"},{"_id":3687951,"coord":{"lat":5.25,"lon":-75.5},"country":"CO","name":"Departamento de Caldas"},{"_id":3675443,"coord":{"lat":5.06889,"lon":-75.51738},"country":"CO","name":"Manizales"},{"_id":3682631,"coord":{"lat":6.17064,"lon":-75.585312},"country":"CO","name":"Envigado"},{"_id":3674021,"coord":{"lat":1.5,"lon":-78},"country":"CO","name":"Departamento de Nariño"},{"_id":3672778,"coord":{"lat":1.21361,"lon":-77.281113},"country":"CO","name":"Pasto"},{"_id":3666951,"coord":{"lat":3.75,"lon":-75.25},"country":"CO","name":"Departamento de Tolima"},{"_id":3680656,"coord":{"lat":4.43889,"lon":-75.232224},"country":"CO","name":"Ibague"},{"_id":3688536,"coord":{"lat":5.5,"lon":-72.5},"country":"CO","name":"Departamento de Boyacá"},{"_id":3685084,"coord":{"lat":5.8245,"lon":-73.034081},"country":"CO","name":"Duitama"},{"_id":3689169,"coord":{"lat":7.06528,"lon":-73.854721},"country":"CO","name":"Barrancabermeja"},{"_id":3673798,"coord":{"lat":8,"lon":-73},"country":"CO","name":"Departamento de Norte de Santander"},{"_id":3685533,"coord":{"lat":7.88333,"lon":-72.50528},"country":"CO","name":"Cucuta"},{"_id":3685889,"coord":{"lat":8.33333,"lon":-75.666672},"country":"CO","name":"Departamento de Córdoba"},{"_id":3671732,"coord":{"lat":8.76566,"lon":-75.886703},"country":"CO","name":"Pringamosa"},{"_id":3666645,"coord":{"lat":4.08466,"lon":-76.195358},"country":"CO","name":"Tulua"},{"_id":3689124,"coord":{"lat":11.25,"lon":-74.199997},"country":"CO","name":"Barrio Obrero"},{"_id":3671087,"coord":{"lat":4.5,"lon":-75.666672},"country":"CO","name":"Departamento del Quindío"},{"_id":3689560,"coord":{"lat":4.53389,"lon":-75.681107},"country":"CO","name":"Armenia"},{"_id":3686675,"coord":{"lat":4.85876,"lon":-74.058662},"country":"CO","name":"Chia"},{"_id":3674292,"coord":{"lat":4.70592,"lon":-74.230209},"country":"CO","name":"Mosquera"},{"_id":3670478,"coord":{"lat":4.35,"lon":-74.366669},"country":"CO","name":"Sabaneta"},{"_id":3673045,"coord":{"lat":7.37565,"lon":-72.647949},"country":"CO","name":"Pamplona"},{"_id":3667725,"coord":{"lat":9,"lon":-75},"country":"CO","name":"Departamento de Sucre"},{"_id":3667983,"coord":{"lat":9.30472,"lon":-75.397781},"country":"CO","name":"Sincelejo"},{"_id":3667849,"coord":{"lat":10.91843,"lon":-74.764587},"country":"CO","name":"Soledad"},{"_id":3682516,"coord":{"lat":4.81367,"lon":-74.35453},"country":"CO","name":"Facatativa"},{"_id":3687173,"coord":{"lat":5.5,"lon":-71.5},"country":"CO","name":"Departamento de Casanare"},{"_id":3665688,"coord":{"lat":5.33775,"lon":-72.395859},"country":"CO","name":"Yopal"},{"_id":3669808,"coord":{"lat":6.55573,"lon":-73.133087},"country":"CO","name":"San Gil"},{"_id":3683427,"coord":{"lat":6.21033,"lon":-75.572403},"country":"CO","name":"El Poblado"},{"_id":3667905,"coord":{"lat":4.57937,"lon":-74.21682},"country":"CO","name":"Soacha"},{"_id":3689047,"coord":{"lat":4.33333,"lon":-73.366669},"country":"CO","name":"Bavaria"},{"_id":3811890,"coord":{"lat":10.88722,"lon":-75.019173},"country":"CO","name":"Caja"},{"_id":3687479,"coord":{"lat":1,"lon":-74},"country":"CO","name":"Departamento del Caquetá"},{"_id":8184847,"coord":{"lat":1.62133,"lon":-75.61644},"country":"CO","name":"Barrio La Consolata"},{"_id":3670719,"coord":{"lat":5.42164,"lon":-75.703178},"country":"CO","name":"Riosucio"},{"_id":3779399,"coord":{"lat":8.67611,"lon":-76.20417},"country":"CO","name":"Canalete"},{"_id":3688928,"coord":{"lat":6.33732,"lon":-75.557953},"country":"CO","name":"Bello"},{"_id":3687230,"coord":{"lat":4.74639,"lon":-75.911667},"country":"CO","name":"Cartago"},{"_id":7524718,"coord":{"lat":4.42406,"lon":-73.944969},"country":"CO","name":"Santa Maria"},{"_id":3665918,"coord":{"lat":4.81667,"lon":-74.099998},"country":"CO","name":"Villa Rosa"},{"_id":3671098,"coord":{"lat":4.62306,"lon":-75.762779},"country":"CO","name":"Quimbaya"},{"_id":3764011,"coord":{"lat":3.25413,"lon":-76.543457},"country":"CO","name":"Jalisco"},{"_id":3685095,"coord":{"lat":4.83916,"lon":-75.667259},"country":"CO","name":"Dos Quebradas"},{"_id":3666025,"coord":{"lat":3.69934,"lon":-76.442299},"country":"CO","name":"Vijes"},{"_id":3668454,"coord":{"lat":4.86806,"lon":-75.621391},"country":"CO","name":"Santa Rosa de Cabal"},{"_id":3686561,"coord":{"lat":4.9825,"lon":-75.603607},"country":"CO","name":"Chinchina"},{"_id":3675242,"coord":{"lat":5.47843,"lon":-75.592667},"country":"CO","name":"Marmato"},{"_id":3682385,"coord":{"lat":7.06222,"lon":-73.086441},"country":"CO","name":"Floridablanca"},{"_id":3686422,"coord":{"lat":5.14468,"lon":-73.685783},"country":"CO","name":"Choconta"},{"_id":3666522,"coord":{"lat":4.48668,"lon":-73.937477},"country":"CO","name":"Ubaque"},{"_id":3687209,"coord":{"lat":5.08333,"lon":-73.616669},"country":"CO","name":"Casablanca"},{"_id":3689941,"coord":{"lat":4.52028,"lon":-74.539436},"country":"CO","name":"Anapoima"},{"_id":3680539,"coord":{"lat":0.83018,"lon":-77.64959},"country":"CO","name":"Ipiales"},{"_id":3688989,"coord":{"lat":5.20088,"lon":-75.868652},"country":"CO","name":"Belen de Umbria"},{"_id":3681360,"coord":{"lat":4.93658,"lon":-73.833138},"country":"CO","name":"Guatavita"},{"_id":3667447,"coord":{"lat":1.09473,"lon":-77.394821},"country":"CO","name":"Tangua"},{"_id":3667697,"coord":{"lat":5.45303,"lon":-75.650719},"country":"CO","name":"Supia"},{"_id":3681404,"coord":{"lat":4.86601,"lon":-73.87748},"country":"CO","name":"Guasca"},{"_id":3671119,"coord":{"lat":4.33234,"lon":-73.86142},"country":"CO","name":"Quetame"},{"_id":3681303,"coord":{"lat":4.21472,"lon":-73.817192},"country":"CO","name":"Guayabetal"},{"_id":3687339,"coord":{"lat":9.0568,"lon":-75.804077},"country":"CO","name":"Carito"},{"_id":3670730,"coord":{"lat":6.15515,"lon":-75.373711},"country":"CO","name":"Rionegro"},{"_id":3681429,"coord":{"lat":6.28046,"lon":-75.443542},"country":"CO","name":"Guarne"},{"_id":3668451,"coord":{"lat":6.64738,"lon":-75.460297},"country":"CO","name":"Santa Rosa de Osos"},{"_id":3667816,"coord":{"lat":6.67028,"lon":-75.747498},"country":"CO","name":"Sopetrán"},{"_id":3689870,"coord":{"lat":6.88508,"lon":-75.334671},"country":"CO","name":"Angostura"},{"_id":3786682,"coord":{"lat":6.60833,"lon":-75.665833},"country":"CO","name":"Azucenos"},{"_id":3670644,"coord":{"lat":4.41256,"lon":-76.154572},"country":"CO","name":"Roldanillo"},{"_id":3665559,"coord":{"lat":4.39462,"lon":-76.071503},"country":"CO","name":"Zarzal"},{"_id":3681797,"coord":{"lat":3.76383,"lon":-76.332916},"country":"CO","name":"Guacari"},{"_id":3685292,"coord":{"lat":3.65685,"lon":-76.688591},"country":"CO","name":"Dagua"},{"_id":3682281,"coord":{"lat":4.71638,"lon":-74.211952},"country":"CO","name":"Funza"},{"_id":3686441,"coord":{"lat":4.52897,"lon":-73.922729},"country":"CO","name":"Choachi"},{"_id":3666755,"coord":{"lat":5.05,"lon":-73.800003},"country":"CO","name":"Tres Esquinas"},{"_id":3683776,"coord":{"lat":4.53288,"lon":-74.7948},"country":"CO","name":"El Mono"},{"_id":3670629,"coord":{"lat":4.0108,"lon":-75.604927},"country":"CO","name":"Roncesvalles"},{"_id":3686431,"coord":{"lat":6,"lon":-77},"country":"CO","name":"Departamento del Chocó"},{"_id":3671116,"coord":{"lat":5.69472,"lon":-76.66111},"country":"CO","name":"Quibdo"},{"_id":3780941,"coord":{"lat":2.65744,"lon":-75.661346},"country":"CO","name":"El Salero"},{"_id":3665991,"coord":{"lat":5.27372,"lon":-74.196136},"country":"CO","name":"Villagómez"},{"_id":3665542,"coord":{"lat":5.02208,"lon":-74.004807},"country":"CO","name":"Zipaquira"},{"_id":3669981,"coord":{"lat":5.30153,"lon":-74.069542},"country":"CO","name":"San Cayetano"},{"_id":3666608,"coord":{"lat":5.53528,"lon":-73.367783},"country":"CO","name":"Tunja"},{"_id":3667807,"coord":{"lat":4.9075,"lon":-73.9384},"country":"CO","name":"Sopo"},{"_id":3675432,"coord":{"lat":5.00864,"lon":-73.541153},"country":"CO","name":"Manta"},{"_id":3673887,"coord":{"lat":5.05,"lon":-73.883331},"country":"CO","name":"Nemocon"},{"_id":3670502,"coord":{"lat":10.62962,"lon":-74.920631},"country":"CO","name":"Sabanalarga"},{"_id":3687964,"coord":{"lat":4.52949,"lon":-75.640907},"country":"CO","name":"Calarca"},{"_id":3682380,"coord":{"lat":4.48797,"lon":-73.897491},"country":"CO","name":"Fomeque"},{"_id":3683968,"coord":{"lat":5,"lon":-73.883331},"country":"CO","name":"El Jordán"},{"_id":3668716,"coord":{"lat":4.71418,"lon":-75.097992},"country":"CO","name":"Santa Isabel"},{"_id":3686880,"coord":{"lat":9.33333,"lon":-73.5},"country":"CO","name":"Departamento del Cesar"},{"_id":3666304,"coord":{"lat":10.46314,"lon":-73.25322},"country":"CO","name":"Valledupar"},{"_id":3688650,"coord":{"lat":9,"lon":-74.333328},"country":"CO","name":"Departamento de Bolívar"},{"_id":3668861,"coord":{"lat":10.60361,"lon":-75.288239},"country":"CO","name":"Santa Catalina"},{"_id":3669218,"coord":{"lat":9.73586,"lon":-75.52626},"country":"CO","name":"San Onofre"},{"_id":3688705,"coord":{"lat":7.61096,"lon":-72.647743},"country":"CO","name":"Bochalema"},{"_id":3686574,"coord":{"lat":7.60731,"lon":-72.601082},"country":"CO","name":"Chinacota"},{"_id":3685529,"coord":{"lat":7.53941,"lon":-72.772377},"country":"CO","name":"Cucutilla"},{"_id":3685069,"coord":{"lat":7.71307,"lon":-72.657593},"country":"CO","name":"Durania"},{"_id":3674885,"coord":{"lat":4.20475,"lon":-74.640747},"country":"CO","name":"Melgar"},{"_id":3667003,"coord":{"lat":4.4582,"lon":-74.634338},"country":"CO","name":"Tocaima"},{"_id":3682573,"coord":{"lat":4.14924,"lon":-74.884293},"country":"CO","name":"Espinal"},{"_id":3671020,"coord":{"lat":4.51952,"lon":-74.592934},"country":"CO","name":"Apulo"},{"_id":3679277,"coord":{"lat":5.44783,"lon":-74.663109},"country":"CO","name":"La Dorada"},{"_id":3686712,"coord":{"lat":7.28025,"lon":-72.967819},"country":"CO","name":"Charta"},{"_id":3666092,"coord":{"lat":7.30911,"lon":-72.871223},"country":"CO","name":"Vetas"},{"_id":3687644,"coord":{"lat":3.40671,"lon":-76.34819},"country":"CO","name":"Candelaria"},{"_id":3670370,"coord":{"lat":5.40733,"lon":-75.487488},"country":"CO","name":"Salamina"},{"_id":3673164,"coord":{"lat":3.53944,"lon":-76.303612},"country":"CO","name":"Palmira"},{"_id":3668028,"coord":{"lat":4.40367,"lon":-74.386703},"country":"CO","name":"Silvania"},{"_id":3780754,"coord":{"lat":5.9449,"lon":-75.524277},"country":"CO","name":"Montebello"},{"_id":3669332,"coord":{"lat":3.69637,"lon":-73.699577},"country":"CO","name":"San Martin"},{"_id":3681605,"coord":{"lat":3.88043,"lon":-73.765663},"country":"CO","name":"Guamal"},{"_id":3666502,"coord":{"lat":4.70444,"lon":-75.74028},"country":"CO","name":"Ulloa"},{"_id":3682549,"coord":{"lat":7.95422,"lon":-72.829521},"country":"CO","name":"Estancia Nueva"},{"_id":3687321,"coord":{"lat":5.34862,"lon":-73.90168},"country":"CO","name":"Carmen de Carupa"},{"_id":3686134,"coord":{"lat":5.06052,"lon":-73.979248},"country":"CO","name":"Cogua"},{"_id":3689833,"coord":{"lat":5.33278,"lon":-75.791107},"country":"CO","name":"Anserma"},{"_id":3670141,"coord":{"lat":5.21667,"lon":-73.599998},"country":"CO","name":"San Antonio"},{"_id":3682185,"coord":{"lat":4.76288,"lon":-73.610901},"country":"CO","name":"Gama"},{"_id":3683155,"coord":{"lat":4.85314,"lon":-74.259956},"country":"CO","name":"El Rosal"},{"_id":3667290,"coord":{"lat":4.8727,"lon":-74.144348},"country":"CO","name":"Tenjo"},{"_id":3684276,"coord":{"lat":1.67817,"lon":-75.28466},"country":"CO","name":"El Doncello"},{"_id":3665881,"coord":{"lat":4.43713,"lon":-74.521568},"country":"CO","name":"Viota"},{"_id":3667351,"coord":{"lat":5.19903,"lon":-73.891281},"country":"CO","name":"Tausa"},{"_id":3686513,"coord":{"lat":5.61637,"lon":-73.817482},"country":"CO","name":"Chiquinquira"},{"_id":3782173,"coord":{"lat":4.71493,"lon":-73.821701},"country":"CO","name":"Palacio"},{"_id":3665811,"coord":{"lat":1.11577,"lon":-77.401688},"country":"CO","name":"Yacuanquer"},{"_id":3678097,"coord":{"lat":2.39341,"lon":-75.892319},"country":"CO","name":"La Plata"},{"_id":3689187,"coord":{"lat":6.63572,"lon":-73.222816},"country":"CO","name":"Barichara"},{"_id":3678847,"coord":{"lat":11.5,"lon":-72.5},"country":"CO","name":"Departamento de La Guajira"},{"_id":3670521,"coord":{"lat":11.15699,"lon":-72.866783},"country":"CO","name":"Sabana del Potrero"},{"_id":3688462,"coord":{"lat":8.04096,"lon":-72.865379},"country":"CO","name":"Bucarasica"},{"_id":3681966,"coord":{"lat":7.88752,"lon":-72.797493},"country":"CO","name":"Gramalote"},{"_id":3670745,"coord":{"lat":11.54444,"lon":-72.907219},"country":"CO","name":"Riohacha"},{"_id":3670514,"coord":{"lat":10.71972,"lon":-74.682777},"country":"CO","name":"Sabanagrande"},{"_id":3689570,"coord":{"lat":10.25444,"lon":-75.343887},"country":"CO","name":"Arjona"},{"_id":3668087,"coord":{"lat":4.48425,"lon":-74.244987},"country":"CO","name":"Sibate"},{"_id":3787902,"coord":{"lat":6.89028,"lon":-75.67083},"country":"CO","name":"Yarumal"},{"_id":3685893,"coord":{"lat":9.58612,"lon":-74.827049},"country":"CO","name":"Cordoba"},{"_id":3675234,"coord":{"lat":5.29659,"lon":-75.054962},"country":"CO","name":"Marquetalia"},{"_id":3673431,"coord":{"lat":5.13969,"lon":-73.397392},"country":"CO","name":"Pachavita"},{"_id":3686540,"coord":{"lat":9.10569,"lon":-75.398117},"country":"CO","name":"Chinu"},{"_id":3687029,"coord":{"lat":2.5,"lon":-76.833328},"country":"CO","name":"Departamento del Cauca"},{"_id":3673398,"coord":{"lat":2.65472,"lon":-75.992783},"country":"CO","name":"Belalcazar"},{"_id":3682395,"coord":{"lat":5.80487,"lon":-73.970291},"country":"CO","name":"Florian"},{"_id":3686851,"coord":{"lat":4.94829,"lon":-74.593918},"country":"CO","name":"Chaguani"},{"_id":3678328,"coord":{"lat":6.21826,"lon":-73.811211},"country":"CO","name":"Landazuri"},{"_id":3666562,"coord":{"lat":5.3236,"lon":-73.490669},"country":"CO","name":"Turmeque"},{"_id":3667717,"coord":{"lat":5.10289,"lon":-73.798447},"country":"CO","name":"Suesca"},{"_id":3667887,"coord":{"lat":6.46838,"lon":-73.260223},"country":"CO","name":"Socorro"},{"_id":3685442,"coord":{"lat":4.2708,"lon":-73.486687},"country":"CO","name":"Cumaral"},{"_id":3686233,"coord":{"lat":4.61889,"lon":-75.635834},"country":"CO","name":"Circasia"},{"_id":3670587,"coord":{"lat":4.23922,"lon":-75.23996},"country":"CO","name":"Rovira"},{"_id":3669718,"coord":{"lat":6.44344,"lon":-75.728149},"country":"CO","name":"San Jeronimo"},{"_id":3679554,"coord":{"lat":6.03082,"lon":-75.431503},"country":"CO","name":"La Ceja"},{"_id":3685058,"coord":{"lat":6.32598,"lon":-75.768349},"country":"CO","name":"Ebejico"},{"_id":3667820,"coord":{"lat":5.71062,"lon":-75.310677},"country":"CO","name":"Sonson"},{"_id":3672068,"coord":{"lat":8.41472,"lon":-75.588333},"country":"CO","name":"Planeta Rica"},{"_id":3686272,"coord":{"lat":8.87443,"lon":-75.620277},"country":"CO","name":"Cienaga de Oro"},{"_id":3670419,"coord":{"lat":8.94616,"lon":-75.442749},"country":"CO","name":"Sahagun"},{"_id":3686922,"coord":{"lat":8.88479,"lon":-75.79052},"country":"CO","name":"Cerete"},{"_id":3690316,"coord":{"lat":5.17282,"lon":-72.547058},"country":"CO","name":"Aguazul"},{"_id":3675826,"coord":{"lat":10.60921,"lon":-75.143089},"country":"CO","name":"Luruaco"},{"_id":3669355,"coord":{"lat":4.82052,"lon":-73.16851},"country":"CO","name":"San Luis de Gaceno"},{"_id":3672255,"coord":{"lat":4.33419,"lon":-75.703484},"country":"CO","name":"Pijao"},{"_id":3667629,"coord":{"lat":4.91726,"lon":-74.093643},"country":"CO","name":"Tabio"},{"_id":3666577,"coord":{"lat":10.32944,"lon":-75.411369},"country":"CO","name":"Turbaco"},{"_id":3792425,"coord":{"lat":2.19614,"lon":-75.64846},"country":"CO","name":"Alto de Garzón"},{"_id":3688006,"coord":{"lat":4.91857,"lon":-74.027992},"country":"CO","name":"Cajica"},{"_id":3685943,"coord":{"lat":5.47681,"lon":-74.044159},"country":"CO","name":"Coper"},{"_id":3686793,"coord":{"lat":3.72315,"lon":-75.483162},"country":"CO","name":"Chaparral"},{"_id":3666481,"coord":{"lat":4.40306,"lon":-74.025284},"country":"CO","name":"Une"},{"_id":3678118,"coord":{"lat":5.74867,"lon":-75.606262},"country":"CO","name":"La Pintada"},{"_id":3670475,"coord":{"lat":6.15,"lon":-75.599998},"country":"CO","name":"Sabaneta"},{"_id":3689012,"coord":{"lat":4.99528,"lon":-75.812782},"country":"CO","name":"Belalcazar"},{"_id":3669549,"coord":{"lat":4.97417,"lon":-76.228333},"country":"CO","name":"San Jose del Palmar"},{"_id":3673826,"coord":{"lat":5.06983,"lon":-74.377998},"country":"CO","name":"Nocaima"},{"_id":3671072,"coord":{"lat":4.74806,"lon":-74.563057},"country":"CO","name":"Quipile"},{"_id":3666550,"coord":{"lat":5.68966,"lon":-73.227791},"country":"CO","name":"Tuta"},{"_id":3680176,"coord":{"lat":10.82813,"lon":-75.033409},"country":"CO","name":"Juan de Acosta"},{"_id":3666226,"coord":{"lat":4.7193,"lon":-74.929176},"country":"CO","name":"Venadillo"},{"_id":3672813,"coord":{"lat":4.30722,"lon":-74.30056},"country":"CO","name":"Pasca"},{"_id":3781883,"coord":{"lat":4.81854,"lon":-73.636589},"country":"CO","name":"Gacheta"},{"_id":3686324,"coord":{"lat":7.86667,"lon":-76.666672},"country":"CO","name":"Churidó"},{"_id":3682465,"coord":{"lat":5.66885,"lon":-72.992889},"country":"CO","name":"Firavitoba"},{"_id":3667873,"coord":{"lat":5.71434,"lon":-72.933907},"country":"CO","name":"Sogamoso"},{"_id":3673424,"coord":{"lat":5.13278,"lon":-74.159767},"country":"CO","name":"Pacho"},{"_id":3673511,"coord":{"lat":3.9361,"lon":-75.221687},"country":"CO","name":"Ortega"},{"_id":3670764,"coord":{"lat":3.53083,"lon":-75.680557},"country":"CO","name":"Rioblanco"},{"_id":3675118,"coord":{"lat":7.32233,"lon":-73.01516},"country":"CO","name":"Matanza"},{"_id":3674010,"coord":{"lat":3.62057,"lon":-75.094147},"country":"CO","name":"Natagaima"},{"_id":3685708,"coord":{"lat":3.79936,"lon":-75.194672},"country":"CO","name":"Coyaima"},{"_id":3682047,"coord":{"lat":2.38677,"lon":-75.545311},"country":"CO","name":"Gigante"},{"_id":3689450,"coord":{"lat":3.59147,"lon":-75.381783},"country":"CO","name":"Ataco"},{"_id":3690431,"coord":{"lat":5.61161,"lon":-75.456238},"country":"CO","name":"Aguadas"},{"_id":3679661,"coord":{"lat":4.38333,"lon":-73.98333},"country":"CO","name":"La Calera"},{"_id":3665973,"coord":{"lat":5.04492,"lon":-75.514603},"country":"CO","name":"Villamaria"},{"_id":3686279,"coord":{"lat":11.00703,"lon":-74.24765},"country":"CO","name":"Cienaga"},{"_id":3672328,"coord":{"lat":6.98789,"lon":-73.04953},"country":"CO","name":"Piedecuesta"},{"_id":3687426,"coord":{"lat":5.54782,"lon":-75.643677},"country":"CO","name":"Caramanta"},{"_id":3667760,"coord":{"lat":4.92614,"lon":-74.172989},"country":"CO","name":"Subachoque"},{"_id":3665895,"coord":{"lat":5.00886,"lon":-74.47226},"country":"CO","name":"Villeta"},{"_id":3683528,"coord":{"lat":1.57006,"lon":-75.328629},"country":"CO","name":"El Paujil"},{"_id":3682160,"coord":{"lat":5.08236,"lon":-73.363342},"country":"CO","name":"Garagoa"},{"_id":3782136,"coord":{"lat":4.99694,"lon":-73.51889},"country":"CO","name":"Minas"},{"_id":3682279,"coord":{"lat":5.40425,"lon":-73.796402},"country":"CO","name":"Fúquene"},{"_id":3667701,"coord":{"lat":5.06097,"lon":-74.237198},"country":"CO","name":"Supata"},{"_id":3686051,"coord":{"lat":5.63333,"lon":-73.316673},"country":"CO","name":"Combita"},{"_id":3672261,"coord":{"lat":2.64306,"lon":-76.989166},"country":"CO","name":"Piendamó"},{"_id":3666680,"coord":{"lat":4.21217,"lon":-76.31945},"country":"CO","name":"Trujillo"},{"_id":3673386,"coord":{"lat":2.44962,"lon":-75.775002},"country":"CO","name":"Paicol"},{"_id":3681025,"coord":{"lat":6.54302,"lon":-73.308258},"country":"CO","name":"Hato"},{"_id":3672093,"coord":{"lat":10.46168,"lon":-74.616211},"country":"CO","name":"Pivijay"},{"_id":3688811,"coord":{"lat":4.87252,"lon":-74.539261},"country":"CO","name":"Bituima"},{"_id":3792404,"coord":{"lat":4.61889,"lon":-74.353889},"country":"CO","name":"San Antonio del Tequendama"},{"_id":3688254,"coord":{"lat":4.21207,"lon":-76.15564},"country":"CO","name":"Bugalagrande"},{"_id":3681175,"coord":{"lat":4.25472,"lon":-74.002502},"country":"CO","name":"Gutiérrez"},{"_id":3684270,"coord":{"lat":4.9,"lon":-74.433327},"country":"CO","name":"El Dorán"},{"_id":3682018,"coord":{"lat":7.0682,"lon":-73.169807},"country":"CO","name":"Giron"},{"_id":3669084,"coord":{"lat":8.95833,"lon":-75.836273},"country":"CO","name":"San Pelayo"},{"_id":3669173,"coord":{"lat":5.66034,"lon":-74.062119},"country":"CO","name":"San Pablo de Borbur"},{"_id":3671315,"coord":{"lat":3.23114,"lon":-76.416679},"country":"CO","name":"Puerto Tejada"},{"_id":3665803,"coord":{"lat":2.66355,"lon":-75.517532},"country":"CO","name":"Yaguara"},{"_id":3672176,"coord":{"lat":10.74846,"lon":-75.107758},"country":"CO","name":"Piojo"},{"_id":3675657,"coord":{"lat":11.38321,"lon":-72.24321},"country":"CO","name":"Maicao"},{"_id":3681619,"coord":{"lat":0.91888,"lon":-77.566513},"country":"CO","name":"Gualmatan"},{"_id":3666111,"coord":{"lat":5.11841,"lon":-74.34549},"country":"CO","name":"Vergara"},{"_id":3678702,"coord":{"lat":4.26667,"lon":-75.933327},"country":"CO","name":"La Isla"},{"_id":3684666,"coord":{"lat":9.7174,"lon":-75.120232},"country":"CO","name":"El Carmen de Bolivar"},{"_id":3682266,"coord":{"lat":4.69244,"lon":-73.520416},"country":"CO","name":"Gachala"},{"_id":3675287,"coord":{"lat":9.9832,"lon":-75.301552},"country":"CO","name":"Maria la Baja"},{"_id":3689759,"coord":{"lat":10.59181,"lon":-74.189827},"country":"CO","name":"Aracataca"},{"_id":3690577,"coord":{"lat":3.98695,"lon":-73.757973},"country":"CO","name":"Acacias"},{"_id":3686311,"coord":{"lat":5.24271,"lon":-73.458061},"country":"CO","name":"Chuscal"},{"_id":3688918,"coord":{"lat":4.80165,"lon":-74.741768},"country":"CO","name":"Beltrán"},{"_id":3667651,"coord":{"lat":5.61538,"lon":-73.617012},"country":"CO","name":"Sutamarchan"},{"_id":3690520,"coord":{"lat":2.25725,"lon":-75.771423},"country":"CO","name":"Agrado"},{"_id":3672123,"coord":{"lat":2.2665,"lon":-75.80442},"country":"CO","name":"Pital"},{"_id":3682292,"coord":{"lat":10.52066,"lon":-74.185043},"country":"CO","name":"Fundacion"},{"_id":3666519,"coord":{"lat":5.30933,"lon":-73.815742},"country":"CO","name":"Ubate"},{"_id":3666232,"coord":{"lat":6.01335,"lon":-73.673523},"country":"CO","name":"Velez"},{"_id":3689838,"coord":{"lat":7.07272,"lon":-75.147682},"country":"CO","name":"Anorí"},{"_id":3676397,"coord":{"lat":9.23648,"lon":-75.813499},"country":"CO","name":"Lorica"},{"_id":3682358,"coord":{"lat":4.33916,"lon":-73.938522},"country":"CO","name":"Fosca"},{"_id":3668572,"coord":{"lat":3.00945,"lon":-76.48494},"country":"CO","name":"Santander de Quilichao"},{"_id":3684917,"coord":{"lat":9.00114,"lon":-73.975807},"country":"CO","name":"El Banco"},{"_id":3671772,"coord":{"lat":3.42111,"lon":-76.24472},"country":"CO","name":"Pradera"},{"_id":3665913,"coord":{"lat":7.83389,"lon":-72.474167},"country":"CO","name":"Villa del Rosario"},{"_id":3792692,"coord":{"lat":2.44368,"lon":-75.630463},"country":"CO","name":"Fosfaco"},{"_id":3666395,"coord":{"lat":6.3152,"lon":-76.134201},"country":"CO","name":"Urrao"},{"_id":3792375,"coord":{"lat":7.75849,"lon":-76.652542},"country":"CO","name":"Carepa"},{"_id":3681997,"coord":{"lat":6.68178,"lon":-75.219063},"country":"CO","name":"Gomez Plata"},{"_id":3688071,"coord":{"lat":4.3324,"lon":-75.826653},"country":"CO","name":"Caicedonia"},{"_id":3670856,"coord":{"lat":3.82203,"lon":-76.522423},"country":"CO","name":"Restrepo"},{"_id":3679065,"coord":{"lat":6.15769,"lon":-75.643173},"country":"CO","name":"La Estrella"},{"_id":3686569,"coord":{"lat":5.16723,"lon":-73.368233},"country":"CO","name":"Chinavita"},{"_id":3684319,"coord":{"lat":4.56798,"lon":-74.9534},"country":"CO","name":"El Diamante"},{"_id":3665987,"coord":{"lat":4.76667,"lon":-74.48333},"country":"CO","name":"Villa Hermosa"},{"_id":3688106,"coord":{"lat":7.74104,"lon":-73.048302},"country":"CO","name":"Cachira"},{"_id":3683463,"coord":{"lat":10.40283,"lon":-74.82415},"country":"CO","name":"El Pinon"},{"_id":3674702,"coord":{"lat":3.24991,"lon":-76.228142},"country":"CO","name":"Miranda"},{"_id":3687025,"coord":{"lat":7.98654,"lon":-75.193489},"country":"CO","name":"Caucasia"},{"_id":3686532,"coord":{"lat":4.4425,"lon":-74.044167},"country":"CO","name":"Chipaque"},{"_id":3665547,"coord":{"lat":5.28215,"lon":-73.168961},"country":"CO","name":"Zetaquira"},{"_id":3672110,"coord":{"lat":1.84966,"lon":-76.047852},"country":"CO","name":"Pitalito"},{"_id":3669133,"coord":{"lat":7.83333,"lon":-72.51667},"country":"CO","name":"San Pedro"},{"_id":3665587,"coord":{"lat":6.81532,"lon":-73.267677},"country":"CO","name":"Zapatoca"},{"_id":3667202,"coord":{"lat":8.63896,"lon":-72.735832},"country":"CO","name":"Tibu"},{"_id":3668245,"coord":{"lat":8.08289,"lon":-72.800713},"country":"CO","name":"Sardinata"},{"_id":3681702,"coord":{"lat":5.06692,"lon":-74.594994},"country":"CO","name":"Guaduas"},{"_id":3671418,"coord":{"lat":4.08451,"lon":-72.955971},"country":"CO","name":"Puerto Lopez"},{"_id":3680554,"coord":{"lat":2.5513,"lon":-76.06546},"country":"CO","name":"Inza"},{"_id":3675791,"coord":{"lat":4.97214,"lon":-73.319588},"country":"CO","name":"Macanal"},{"_id":3674166,"coord":{"lat":4.87393,"lon":-75.171509},"country":"CO","name":"Murillo"},{"_id":3668332,"coord":{"lat":10.75773,"lon":-74.754509},"country":"CO","name":"Santo Tomas"},{"_id":3669352,"coord":{"lat":5.42139,"lon":-71.731667},"country":"CO","name":"San Luis de Palenque"},{"_id":3689717,"coord":{"lat":6.66667,"lon":-71},"country":"CO","name":"Departamento de Arauca"},{"_id":3667478,"coord":{"lat":6.461,"lon":-71.730042},"country":"CO","name":"Tame"},{"_id":3682458,"coord":{"lat":4.29413,"lon":-74.819008},"country":"CO","name":"Flandes"},{"_id":3672428,"coord":{"lat":5.55,"lon":-73.050003},"country":"CO","name":"Pesca"},{"_id":3670849,"coord":{"lat":6.05861,"lon":-75.503059},"country":"CO","name":"El Retiro"},{"_id":3685823,"coord":{"lat":9.31505,"lon":-75.292831},"country":"CO","name":"Corozal"},{"_id":3665678,"coord":{"lat":3.86048,"lon":-76.383636},"country":"CO","name":"Yotoco"},{"_id":7523298,"coord":{"lat":5.20926,"lon":-74.926193},"country":"CO","name":"La Primavera"},{"_id":3667288,"coord":{"lat":5.07664,"lon":-73.420769},"country":"CO","name":"Tenza"},{"_id":3667811,"coord":{"lat":10.39306,"lon":-75.140831},"country":"CO","name":"Soplaviento"},{"_id":3675692,"coord":{"lat":9.24202,"lon":-74.754669},"country":"CO","name":"Magangue"},{"_id":3668257,"coord":{"lat":6.95376,"lon":-71.875229},"country":"CO","name":"Saravena"},{"_id":3690429,"coord":{"lat":4.37648,"lon":-74.669952},"country":"CO","name":"Agua de Dios"},{"_id":3678345,"coord":{"lat":8.78282,"lon":-75.378883},"country":"CO","name":"La Muerte"},{"_id":3666570,"coord":{"lat":8.09368,"lon":-76.726913},"country":"CO","name":"Turbo"},{"_id":3667665,"coord":{"lat":5.4519,"lon":-73.814362},"country":"CO","name":"Susa"},{"_id":3689162,"coord":{"lat":10.95756,"lon":-72.787689},"country":"CO","name":"Barrancas"},{"_id":3668025,"coord":{"lat":2.61103,"lon":-76.378532},"country":"CO","name":"Silvia"},{"_id":3680317,"coord":{"lat":5.79211,"lon":-75.786011},"country":"CO","name":"Jerico"},{"_id":3687318,"coord":{"lat":6.08236,"lon":-75.335091},"country":"CO","name":"Carmen de Viboral"},{"_id":3671540,"coord":{"lat":6.49156,"lon":-74.403259},"country":"CO","name":"Puerto Berrio"},{"_id":3673143,"coord":{"lat":9.33333,"lon":-75.550003},"country":"CO","name":"Palmito"},{"_id":3681563,"coord":{"lat":4.03078,"lon":-74.9701},"country":"CO","name":"Guamo"},{"_id":3682633,"coord":{"lat":6.5654,"lon":-75.516899},"country":"CO","name":"Entrerrios"},{"_id":3676795,"coord":{"lat":1.80671,"lon":-75.901016},"country":"CO","name":"La Victoria"},{"_id":3668323,"coord":{"lat":6.13833,"lon":-75.264168},"country":"CO","name":"Santuario"},{"_id":3668017,"coord":{"lat":5.50291,"lon":-73.852272},"country":"CO","name":"Simijaca"},{"_id":3685569,"coord":{"lat":5.54373,"lon":-73.45433},"country":"CO","name":"Cucaita"},{"_id":3675263,"coord":{"lat":6.17358,"lon":-75.336212},"country":"CO","name":"Marinilla"},{"_id":3670899,"coord":{"lat":7.03083,"lon":-74.533333},"country":"CO","name":"Remedios"},{"_id":3673369,"coord":{"lat":5.78013,"lon":-73.117081},"country":"CO","name":"Paipa"},{"_id":3673662,"coord":{"lat":8.23773,"lon":-73.356041},"country":"CO","name":"Ocana"},{"_id":3689709,"coord":{"lat":4.27254,"lon":-74.415131},"country":"CO","name":"Arbelaez"},{"_id":3671325,"coord":{"lat":8.36361,"lon":-72.406303},"country":"CO","name":"Puerto Santander"},{"_id":3677010,"coord":{"lat":4.45265,"lon":-75.78746},"country":"CO","name":"La Tebaida"},{"_id":3671497,"coord":{"lat":10.98778,"lon":-74.95472},"country":"CO","name":"Puerto Colombia"},{"_id":3682374,"coord":{"lat":10.88606,"lon":-72.848701},"country":"CO","name":"Fonseca"},{"_id":7910975,"coord":{"lat":9.23333,"lon":-74.416672},"country":"CO","name":"Santa Cruz de Mompox"},{"_id":3669469,"coord":{"lat":10.77108,"lon":-73.003143},"country":"CO","name":"San Juan del Cesar"},{"_id":3667728,"coord":{"lat":8.81136,"lon":-74.72084},"country":"CO","name":"Sucre"},{"_id":3675595,"coord":{"lat":10.85953,"lon":-74.773857},"country":"CO","name":"Malambo"},{"_id":3684770,"coord":{"lat":4.35342,"lon":-73.711472},"country":"CO","name":"El Calvario"},{"_id":3671531,"coord":{"lat":5.97584,"lon":-74.588463},"country":"CO","name":"Puerto Boyaca"},{"_id":3665992,"coord":{"lat":1.0375,"lon":-76.626671},"country":"CO","name":"Villagarzon"},{"_id":3829343,"coord":{"lat":0.67656,"lon":-76.877121},"country":"CO","name":"Orito"},{"_id":3672540,"coord":{"lat":6.21829,"lon":-75.242981},"country":"CO","name":"Peñol"},{"_id":3687758,"coord":{"lat":10.37808,"lon":-74.88356},"country":"CO","name":"Campo de la Cruz"},{"_id":3690465,"coord":{"lat":8.30844,"lon":-73.6166},"country":"CO","name":"Aguachica"},{"_id":3689831,"coord":{"lat":4.79722,"lon":-75.995003},"country":"CO","name":"Ansermanuevo"},{"_id":3684293,"coord":{"lat":9.84975,"lon":-74.236267},"country":"CO","name":"El Difícil"},{"_id":3687111,"coord":{"lat":5.56368,"lon":-71.891357},"country":"CO","name":"Caserío Regalito"},{"_id":3688673,"coord":{"lat":4.73176,"lon":-74.341293},"country":"CO","name":"Bojaca"},{"_id":3680641,"coord":{"lat":4.17698,"lon":-74.532539},"country":"CO","name":"Icononzo"},{"_id":3670692,"coord":{"lat":2.77717,"lon":-75.256416},"country":"CO","name":"Rivera"},{"_id":3776374,"coord":{"lat":5.51333,"lon":-73.737221},"country":"CO","name":"El Mirador"},{"_id":3686636,"coord":{"lat":7.66638,"lon":-76.681061},"country":"CO","name":"Chigorodo"},{"_id":3686107,"coord":{"lat":1.19117,"lon":-76.968498},"country":"CO","name":"Colon"},{"_id":3689172,"coord":{"lat":9.90715,"lon":-75.537331},"country":"CO","name":"Barranca"},{"_id":3676674,"coord":{"lat":7.11317,"lon":-73.217796},"country":"CO","name":"Lebrija"},{"_id":3685949,"coord":{"lat":6.34633,"lon":-75.508881},"country":"CO","name":"Municipio de Copacabana"},{"_id":3671381,"coord":{"lat":10.25,"lon":-74.900002},"country":"CO","name":"Puerto Niño"},{"_id":3667158,"coord":{"lat":8.17361,"lon":-76.059174},"country":"CO","name":"Tierralta"},{"_id":3670199,"coord":{"lat":9.3741,"lon":-75.758911},"country":"CO","name":"San Antero"},{"_id":3681491,"coord":{"lat":6.30798,"lon":-73.320198},"country":"CO","name":"Guapotá"},{"_id":3828545,"coord":{"lat":2.57286,"lon":-72.645912},"country":"CO","name":"San Jose del Guaviare"},{"_id":3670966,"coord":{"lat":5.53793,"lon":-73.632011},"country":"CO","name":"Raquira"},{"_id":3669454,"coord":{"lat":9.95156,"lon":-75.081978},"country":"CO","name":"San Juan Nepomuceno"},{"_id":3674603,"coord":{"lat":9.23768,"lon":-75.674889},"country":"CO","name":"Momil"},{"_id":3678674,"coord":{"lat":9.56228,"lon":-73.334053},"country":"CO","name":"La Jagua de Ibirico"},{"_id":3665691,"coord":{"lat":7.00621,"lon":-73.909721},"country":"CO","name":"Yondo"},{"_id":3689899,"coord":{"lat":5.6561,"lon":-75.878769},"country":"CO","name":"Los Andes"},{"_id":3666087,"coord":{"lat":4.87384,"lon":-74.562439},"country":"CO","name":"Viani"},{"_id":3687324,"coord":{"lat":4.14725,"lon":-74.720139},"country":"CO","name":"Carmen de Apicala"},{"_id":3675452,"coord":{"lat":4.81722,"lon":-72.288612},"country":"CO","name":"Mani"},{"_id":3671549,"coord":{"lat":0.51328,"lon":-76.500748},"country":"CO","name":"Puerto Asis"},{"_id":3670352,"coord":{"lat":4.6375,"lon":-75.570282},"country":"CO","name":"Salento"},{"_id":3671002,"coord":{"lat":5.4002,"lon":-73.335442},"country":"CO","name":"Ramiriqui"},{"_id":3687880,"coord":{"lat":3.03586,"lon":-76.407883},"country":"CO","name":"Caloto"},{"_id":3685027,"coord":{"lat":4.91345,"lon":-76.040039},"country":"CO","name":"El Aguila"},{"_id":3775199,"coord":{"lat":5.65917,"lon":-74.181107},"country":"CO","name":"Otanche"},{"_id":3688112,"coord":{"lat":5.26667,"lon":-74.566673},"country":"CO","name":"Cachipay"},{"_id":3666640,"coord":{"lat":1.79861,"lon":-78.815559},"country":"CO","name":"Tumaco"},{"_id":3666582,"coord":{"lat":1.09234,"lon":-77.62085},"country":"CO","name":"Tuquerres"},{"_id":3675637,"coord":{"lat":8.53886,"lon":-74.620377},"country":"CO","name":"Majagual"},{"_id":3783478,"coord":{"lat":8.55072,"lon":-75.852966},"country":"CO","name":"Tuchín"},{"_id":3670357,"coord":{"lat":3.92922,"lon":-75.015167},"country":"CO","name":"Saldana"},{"_id":3689205,"coord":{"lat":6.43809,"lon":-75.33136},"country":"CO","name":"Barbosa"},{"_id":3673407,"coord":{"lat":3.22038,"lon":-76.31385},"country":"CO","name":"Padilla"},{"_id":3666939,"coord":{"lat":9.52392,"lon":-75.58139},"country":"CO","name":"Tolu"},{"_id":3679505,"coord":{"lat":4.66667,"lon":-74.349998},"country":"CO","name":"La Chorrera"},{"_id":3666673,"coord":{"lat":10.87444,"lon":-74.978889},"country":"CO","name":"Tubara"},{"_id":3689697,"coord":{"lat":7.64233,"lon":-72.799438},"country":"CO","name":"Arboledas"},{"_id":3671330,"coord":{"lat":5.46304,"lon":-74.654358},"country":"CO","name":"Puerto Salgar"},{"_id":3671208,"coord":{"lat":3.8587,"lon":-74.93129},"country":"CO","name":"Purificacion"},{"_id":3689235,"coord":{"lat":10.79408,"lon":-74.916397},"country":"CO","name":"Baranoa"},{"_id":3674572,"coord":{"lat":5.87638,"lon":-73.572838},"country":"CO","name":"Moniquira"},{"_id":3792376,"coord":{"lat":5.85389,"lon":-76.025284},"country":"CO","name":"Ciudad Bolivar"},{"_id":3671287,"coord":{"lat":7.34828,"lon":-73.896011},"country":"CO","name":"Puerto Wilches"},{"_id":3673829,"coord":{"lat":5.76978,"lon":-72.940987},"country":"CO","name":"Nobsa"},{"_id":3683233,"coord":{"lat":10.61135,"lon":-74.268242},"country":"CO","name":"El Reten"},{"_id":3673637,"coord":{"lat":6.26388,"lon":-73.298759},"country":"CO","name":"Oiba"},{"_id":3669799,"coord":{"lat":4.74679,"lon":-74.087692},"country":"CO","name":"San Hilario"},{"_id":3667355,"coord":{"lat":5.01831,"lon":-72.749191},"country":"CO","name":"Tauramena"},{"_id":3668098,"coord":{"lat":6.33333,"lon":-72.699997},"country":"CO","name":"Siachia"},{"_id":3686464,"coord":{"lat":6.18715,"lon":-72.472603},"country":"CO","name":"Chita"},{"_id":3687418,"coord":{"lat":1.66667,"lon":-78.183327},"country":"CO","name":"Caraño"},{"_id":3671228,"coord":{"lat":0.87136,"lon":-77.640266},"country":"CO","name":"Pupiales"},{"_id":3668263,"coord":{"lat":1.35,"lon":-77.599998},"country":"CO","name":"Sarancocho"},{"_id":3671091,"coord":{"lat":5.33957,"lon":-75.730179},"country":"CO","name":"Quinchia"},{"_id":3667764,"coord":{"lat":1.97611,"lon":-75.79454},"country":"CO","name":"Suaza"},{"_id":3681733,"coord":{"lat":2.0248,"lon":-75.75589},"country":"CO","name":"Guadalupe"},{"_id":3686445,"coord":{"lat":10.02502,"lon":-74.622787},"country":"CO","name":"Chivolo"},{"_id":3689589,"coord":{"lat":10.25,"lon":-74},"country":"CO","name":"Ariguani"},{"_id":3680453,"coord":{"lat":5.16054,"lon":-76.683968},"country":"CO","name":"Istmina"},{"_id":3685200,"coord":{"lat":10.89693,"lon":-72.886101},"country":"CO","name":"Distraccion"},{"_id":3792392,"coord":{"lat":9.79029,"lon":-74.78244},"country":"CO","name":"Plato"},{"_id":3775850,"coord":{"lat":9.96889,"lon":-73.883614},"country":"CO","name":"Bosconia"},{"_id":3686479,"coord":{"lat":9.36238,"lon":-73.603142},"country":"CO","name":"Chiriguana"},{"_id":3669346,"coord":{"lat":8.65972,"lon":-75.12809},"country":"CO","name":"San Marcos"},{"_id":3666381,"coord":{"lat":10.55894,"lon":-73.012321},"country":"CO","name":"Urumita"},{"_id":3681756,"coord":{"lat":0.96093,"lon":-77.731598},"country":"CO","name":"Guachucal"},{"_id":3689714,"coord":{"lat":7.02917,"lon":-71.428062},"country":"CO","name":"Arauquita"},{"_id":3792379,"coord":{"lat":7.96444,"lon":-74.054443},"country":"CO","name":"Santa Rosa del Sur"},{"_id":3667892,"coord":{"lat":5.9817,"lon":-72.715027},"country":"CO","name":"Socha Viejo"},{"_id":3682330,"coord":{"lat":5.15264,"lon":-75.03624},"country":"CO","name":"Fresno"},{"_id":3681652,"coord":{"lat":2.5,"lon":-69},"country":"CO","name":"Departamento del Guainía"},{"_id":3671450,"coord":{"lat":3.86528,"lon":-67.923889},"country":"CO","name":"Inirida"},{"_id":3685178,"coord":{"lat":3.0725,"lon":-74.900284},"country":"CO","name":"Dolores"},{"_id":3666887,"coord":{"lat":2.95481,"lon":-76.268387},"country":"CO","name":"Toribio"},{"_id":3674931,"coord":{"lat":4.51005,"lon":-73.349823},"country":"CO","name":"Medina"},{"_id":3685702,"coord":{"lat":6.30174,"lon":-70.204147},"country":"CO","name":"Cravo Norte"},{"_id":3671203,"coord":{"lat":9.23657,"lon":-75.721901},"country":"CO","name":"Purisima"},{"_id":7544228,"coord":{"lat":1.19615,"lon":-76.92778},"country":"CO","name":"El Ejido"},{"_id":3675409,"coord":{"lat":5.32472,"lon":-75.156937},"country":"CO","name":"Manzanares"},{"_id":3731933,"coord":{"lat":6.40667,"lon":-73.286942},"country":"CO","name":"Palmas del Socorro"},{"_id":3682510,"coord":{"lat":5.11564,"lon":-74.948936},"country":"CO","name":"Falan"},{"_id":3673352,"coord":{"lat":5.2929,"lon":-72.702766},"country":"CO","name":"Pajarito"},{"_id":3670303,"coord":{"lat":5.49274,"lon":-73.485367},"country":"CO","name":"Samaca"},{"_id":3666881,"coord":{"lat":4.61167,"lon":-76.08139},"country":"CO","name":"Toro"},{"_id":3686142,"coord":{"lat":4.28908,"lon":-74.898247},"country":"CO","name":"Coello"},{"_id":3668292,"coord":{"lat":6.881,"lon":-73.409767},"country":"CO","name":"San Vicente de Chucuri"},{"_id":3681368,"coord":{"lat":6.23274,"lon":-75.158638},"country":"CO","name":"Guatape"},{"_id":8016083,"coord":{"lat":8.33387,"lon":-73.739754},"country":"CO","name":"Puerto Real"},{"_id":3680434,"coord":{"lat":7.17117,"lon":-75.764038},"country":"CO","name":"Ituango"},{"_id":3687084,"coord":{"lat":3.82845,"lon":-73.679871},"country":"CO","name":"Castilla La Nueva"},{"_id":3686736,"coord":{"lat":6.28581,"lon":-73.147217},"country":"CO","name":"Charalá"},{"_id":3687835,"coord":{"lat":6.9792,"lon":-75.297241},"country":"CO","name":"Campamento"},{"_id":3672077,"coord":{"lat":3.19698,"lon":-75.645058},"country":"CO","name":"Planadas"},{"_id":3669545,"coord":{"lat":6.6587,"lon":-72.733437},"country":"CO","name":"San Jose de Miranda"},{"_id":3674678,"coord":{"lat":5.2973,"lon":-75.883217},"country":"CO","name":"Mistrato"},{"_id":3673220,"coord":{"lat":10.74055,"lon":-74.754433},"country":"CO","name":"Palmar de Varela"},{"_id":3670280,"coord":{"lat":9.18361,"lon":-75.381668},"country":"CO","name":"Sampues"},{"_id":3690287,"coord":{"lat":3.22222,"lon":-75.236671},"country":"CO","name":"Aipe"},{"_id":3771124,"coord":{"lat":2.80591,"lon":-76.545799},"country":"CO","name":"Crucero de Pescador"},{"_id":3671216,"coord":{"lat":5.33333,"lon":-76.333328},"country":"CO","name":"Pureto"},{"_id":3684266,"coord":{"lat":4.5079,"lon":-76.236191},"country":"CO","name":"El Dovio"},{"_id":3686262,"coord":{"lat":5.40867,"lon":-73.295723},"country":"CO","name":"Cienega"},{"_id":3678502,"coord":{"lat":4.88333,"lon":-74.01667},"country":"CO","name":"La Mana"},{"_id":3669087,"coord":{"lat":8.27515,"lon":-76.376411},"country":"CO","name":"San Pedro de Uraba"},{"_id":3689206,"coord":{"lat":5.93168,"lon":-73.615059},"country":"CO","name":"Barbosa"},{"_id":3688266,"coord":{"lat":1.39017,"lon":-77.159821},"country":"CO","name":"Buesaco"},{"_id":3688710,"coord":{"lat":6.50698,"lon":-75.407349},"country":"CO","name":"Bocatoma"},{"_id":3777286,"coord":{"lat":5.57194,"lon":-73.648888},"country":"CO","name":"Tres Esquinas"},{"_id":3681769,"coord":{"lat":3.13333,"lon":-76.3927},"country":"CO","name":"Guachené"},{"_id":3686013,"coord":{"lat":6.04639,"lon":-75.907059},"country":"CO","name":"Concordia"},{"_id":3669461,"coord":{"lat":8.75924,"lon":-76.529694},"country":"CO","name":"San Juan de Uraba"},{"_id":3686227,"coord":{"lat":6.53833,"lon":-75.088608},"country":"CO","name":"Cisneros"},{"_id":3689458,"coord":{"lat":9.49828,"lon":-73.975906},"country":"CO","name":"Astrea"},{"_id":3673676,"coord":{"lat":4.57583,"lon":-75.973892},"country":"CO","name":"Obando"},{"_id":3682313,"coord":{"lat":6.78005,"lon":-76.128799},"country":"CO","name":"Frontino"},{"_id":3685540,"coord":{"lat":5.24958,"lon":-73.766098},"country":"CO","name":"Cucunuba"},{"_id":3683538,"coord":{"lat":9.66057,"lon":-73.747231},"country":"CO","name":"El Paso"},{"_id":8182090,"coord":{"lat":4.60393,"lon":-74.115372},"country":"CO","name":"Ciudad Montes"},{"_id":3667082,"coord":{"lat":1.97136,"lon":-75.931229},"country":"CO","name":"Timana"},{"_id":3667402,"coord":{"lat":7.58358,"lon":-75.400681},"country":"CO","name":"Tarazá"},{"_id":3669859,"coord":{"lat":5.56453,"lon":-73.210602},"country":"CO","name":"San Francisco"},{"_id":3673849,"coord":{"lat":4.30604,"lon":-74.620827},"country":"CO","name":"Nilo"},{"_id":3670855,"coord":{"lat":4.25833,"lon":-73.561417},"country":"CO","name":"Restrepo"},{"_id":3668023,"coord":{"lat":6.4429,"lon":-73.336884},"country":"CO","name":"Simacota"},{"_id":3685345,"coord":{"lat":6.60519,"lon":-73.068092},"country":"CO","name":"Curiti"},{"_id":3670207,"coord":{"lat":9.14476,"lon":-75.508774},"country":"CO","name":"San Andres de Sotavento"},{"_id":3666409,"coord":{"lat":11.7139,"lon":-72.266037},"country":"CO","name":"Uribia"},{"_id":3686158,"coord":{"lat":6.0573,"lon":-75.185242},"country":"CO","name":"Cocorna"},{"_id":3670242,"coord":{"lat":7.76107,"lon":-73.392197},"country":"CO","name":"San Alberto"},{"_id":3686255,"coord":{"lat":6.31419,"lon":-73.949677},"country":"CO","name":"Cimitarra"},{"_id":3679716,"coord":{"lat":5.56223,"lon":-72.574989},"country":"CO","name":"Labranzagrande"},{"_id":3780602,"coord":{"lat":5.92583,"lon":-75.670563},"country":"CO","name":"Fredonia"},{"_id":3690019,"coord":{"lat":6.04001,"lon":-75.703148},"country":"CO","name":"Amaga"},{"_id":3685335,"coord":{"lat":9.19992,"lon":-73.54274},"country":"CO","name":"Curumani"},{"_id":3687806,"coord":{"lat":2.68489,"lon":-75.323112},"country":"CO","name":"Campoalegre"},{"_id":3793791,"coord":{"lat":8.26914,"lon":-76.157707},"country":"CO","name":"Los Lagos"},{"_id":3672651,"coord":{"lat":5.98452,"lon":-72.750504},"country":"CO","name":"Paz de Río"},{"_id":3675780,"coord":{"lat":6.50567,"lon":-72.592987},"country":"CO","name":"Macaravita"},{"_id":3671161,"coord":{"lat":5.11737,"lon":-74.479439},"country":"CO","name":"Quebradanegra"},{"_id":3829349,"coord":{"lat":0.68362,"lon":-76.604393},"country":"CO","name":"Puerto Caicedo"},{"_id":3671630,"coord":{"lat":5.79176,"lon":-75.841011},"country":"CO","name":"Pueblorrico"},{"_id":3665898,"coord":{"lat":3.22052,"lon":-75.218643},"country":"CO","name":"Villavieja"},{"_id":3686027,"coord":{"lat":6.7662,"lon":-72.694},"country":"CO","name":"Concepcion"},{"_id":3670929,"coord":{"lat":1.4,"lon":-77.533333},"country":"CO","name":"Recreo"},{"_id":3685578,"coord":{"lat":10.9,"lon":-74.883331},"country":"CO","name":"Cuba"},{"_id":3670350,"coord":{"lat":5.96502,"lon":-75.965408},"country":"CO","name":"Salgar"},{"_id":3679778,"coord":{"lat":4.70898,"lon":-74.034599},"country":"CO","name":"Bella Suiza"},{"_id":7033249,"coord":{"lat":4.7021,"lon":-74.039192},"country":"CO","name":"Santa Barbara Central"},{"_id":3690592,"coord":{"lat":5.78928,"lon":-75.427254},"country":"CO","name":"Abejorral"},{"_id":3688499,"coord":{"lat":7.11096,"lon":-75.551521},"country":"CO","name":"Briceno"},{"_id":3667649,"coord":{"lat":5.24779,"lon":-73.852379},"country":"CO","name":"Sutatausa"},{"_id":3669977,"coord":{"lat":7.87707,"lon":-72.624298},"country":"CO","name":"San Cayetano"},{"_id":3689039,"coord":{"lat":10.53569,"lon":-75.397278},"country":"CO","name":"Bayunca"},{"_id":3687451,"coord":{"lat":6.41194,"lon":-74.760559},"country":"CO","name":"Caracoli"},{"_id":3684945,"coord":{"lat":7.59272,"lon":-74.808578},"country":"CO","name":"El Bagre"},{"_id":3665965,"coord":{"lat":4.64967,"lon":-74.150261},"country":"CO","name":"Villa Mejía"},{"_id":3675808,"coord":{"lat":8.43372,"lon":-75.170479},"country":"CO","name":"Mabobo"},{"_id":3689175,"coord":{"lat":6.03333,"lon":-73.699997},"country":"CO","name":"Barranca"},{"_id":3689723,"coord":{"lat":6.69353,"lon":-73.020828},"country":"CO","name":"Aratoca"},{"_id":3792383,"coord":{"lat":10.03409,"lon":-73.236107},"country":"CO","name":"Agustin Codazzi"},{"_id":3781858,"coord":{"lat":4.70131,"lon":-73.619019},"country":"CO","name":"El Toronjo"},{"_id":3793692,"coord":{"lat":8.06669,"lon":-76.448212},"country":"CO","name":"Viva Dios"},{"_id":3770718,"coord":{"lat":2.75701,"lon":-76.617233},"country":"CO","name":"Morales"},{"_id":3685628,"coord":{"lat":7.73333,"lon":-72.716667},"country":"CO","name":"Cuajadoras"},{"_id":3685984,"coord":{"lat":1.21544,"lon":-77.469551},"country":"CO","name":"Consaca"},{"_id":3671437,"coord":{"lat":-0.19337,"lon":-74.781891},"country":"CO","name":"Puerto Leguizamo"},{"_id":3666314,"coord":{"lat":6.72594,"lon":-75.486969},"country":"CO","name":"Vallecito"},{"_id":3736146,"coord":{"lat":3.255,"lon":-75.489441},"country":"CO","name":"Nochebuena"},{"_id":3680857,"coord":{"lat":5.79925,"lon":-75.907181},"country":"CO","name":"Hispania"},{"_id":3665851,"coord":{"lat":5.06242,"lon":-75.87159},"country":"CO","name":"Viterbo"},{"_id":3685814,"coord":{"lat":9.04634,"lon":-75.629189},"country":"CO","name":"Corozalito"},{"_id":3681767,"coord":{"lat":5.38425,"lon":-73.686172},"country":"CO","name":"Guacheta"},{"_id":3685271,"coord":{"lat":4.45,"lon":-75.949997},"country":"CO","name":"Dávila"},{"_id":3669938,"coord":{"lat":1.29151,"lon":-77.474091},"country":"CO","name":"Sandona"},{"_id":3682944,"coord":{"lat":5.73135,"lon":-72.988609},"country":"CO","name":"El Tendido"},{"_id":3828718,"coord":{"lat":0.8482,"lon":-77.731049},"country":"CO","name":"Yapurquer"},{"_id":3731909,"coord":{"lat":7.1003,"lon":-73.48983},"country":"CO","name":"El Naranjito"},{"_id":3671604,"coord":{"lat":4.63333,"lon":-74.116669},"country":"CO","name":"Puente Aranda"},{"_id":3675987,"coord":{"lat":9.37899,"lon":-75.267693},"country":"CO","name":"Los Palmitos"},{"_id":3685418,"coord":{"lat":4.06004,"lon":-74.692123},"country":"CO","name":"Cunday"},{"_id":3688072,"coord":{"lat":6.40511,"lon":-75.982552},"country":"CO","name":"Caicedo"},{"_id":3685295,"coord":{"lat":7.00172,"lon":-76.26722},"country":"CO","name":"Dabeiba"},{"_id":3689239,"coord":{"lat":5.01667,"lon":-73.966667},"country":"CO","name":"Barandillas"},{"_id":3670061,"coord":{"lat":6.18394,"lon":-75.657318},"country":"CO","name":"San Antonio de Prado"},{"_id":3756455,"coord":{"lat":11.46745,"lon":-72.576576},"country":"CO","name":"Tutehón"},{"_id":3680349,"coord":{"lat":4.51667,"lon":-74.433327},"country":"CO","name":"Java"},{"_id":3778835,"coord":{"lat":3.7225,"lon":-76.020828},"country":"CO","name":"La Cumbre"},{"_id":3673902,"coord":{"lat":5.1665,"lon":-75.520012},"country":"CO","name":"Neira"},{"_id":3782071,"coord":{"lat":4.82806,"lon":-73.972816},"country":"CO","name":"Las Tominejas"},{"_id":3669557,"coord":{"lat":6.85028,"lon":-75.683327},"country":"CO","name":"San Jose de La Montana"},{"_id":3673668,"coord":{"lat":3.70638,"lon":-76.486458},"country":"CO","name":"Ocache"},{"_id":3673413,"coord":{"lat":5.52708,"lon":-75.459297},"country":"CO","name":"Pacora"},{"_id":3671950,"coord":{"lat":10.77697,"lon":-74.853439},"country":"CO","name":"Polonuevo"},{"_id":3828811,"coord":{"lat":3.5369,"lon":-76.62336},"country":"CO","name":"Kilómetro Diez y Ocho"},{"_id":3673536,"coord":{"lat":4.79118,"lon":-71.335419},"country":"CO","name":"Orocue"},{"_id":3776586,"coord":{"lat":5.79083,"lon":-73.848892},"country":"CO","name":"La Belleza"},{"_id":3685432,"coord":{"lat":0.90875,"lon":-77.791451},"country":"CO","name":"Cumbal"},{"_id":3681596,"coord":{"lat":9.14334,"lon":-74.223839},"country":"CO","name":"Guamal"},{"_id":3668033,"coord":{"lat":7.20524,"lon":-72.756393},"country":"CO","name":"Silos"},{"_id":3674130,"coord":{"lat":7.24407,"lon":-76.435638},"country":"CO","name":"Mutata"},{"_id":3673268,"coord":{"lat":7.4,"lon":-73.5},"country":"CO","name":"Palestina"},{"_id":3688128,"coord":{"lat":7.58078,"lon":-75.348419},"country":"CO","name":"Caceres"},{"_id":7527065,"coord":{"lat":4.17861,"lon":-73.61348},"country":"CO","name":"Nancilandia"},{"_id":3687355,"coord":{"lat":10.43333,"lon":-73.25},"country":"CO","name":"Caribe"},{"_id":3782886,"coord":{"lat":4.08538,"lon":-76.231499},"country":"CO","name":"Campoalegre"},{"_id":3756852,"coord":{"lat":7.07309,"lon":-70.747993},"country":"CO","name":"San Carlos"},{"_id":7522928,"coord":{"lat":8.11523,"lon":-76.72039},"country":"CO","name":"Villa Maria"},{"_id":3684922,"coord":{"lat":5.43333,"lon":-71.650002},"country":"CO","name":"El Banco"},{"_id":3685600,"coord":{"lat":11.515,"lon":-72.932777},"country":"CO","name":"Cuatro Bocas"},{"_id":7523302,"coord":{"lat":5.22642,"lon":-74.876099},"country":"CO","name":"San Rafael"},{"_id":3670205,"coord":{"lat":12.5,"lon":-81.75},"country":"CO","name":"Providencia y Santa Catalina, Departamento de Archipiélago de San Andrés"},{"_id":3682788,"coord":{"lat":13.35,"lon":-81.349998},"country":"CO","name":"El Valle"},{"_id":3686867,"coord":{"lat":1.35943,"lon":-77.283669},"country":"CO","name":"Chachagui"},{"_id":3671916,"coord":{"lat":2.43823,"lon":-76.613159},"country":"CO","name":"Popayan"},{"_id":7544046,"coord":{"lat":1.86076,"lon":-76.110847},"country":"CO","name":"Rincón de Contado"},{"_id":3736937,"coord":{"lat":4.8025,"lon":-75.738892},"country":"CO","name":"Cuba"},{"_id":3683209,"coord":{"lat":7.0089,"lon":-74.718246},"country":"CO","name":"El Rhin"},{"_id":3673899,"coord":{"lat":2.9273,"lon":-75.281883},"country":"CO","name":"Neiva"},{"_id":3682205,"coord":{"lat":5.03333,"lon":-75.449997},"country":"CO","name":"Gallinazo"},{"_id":3666254,"coord":{"lat":0.25,"lon":-70.75},"country":"CO","name":"Departamento del Vaupés"},{"_id":3685070,"coord":{"lat":1.26667,"lon":-70.183327},"country":"CO","name":"Durania"},{"_id":3783506,"coord":{"lat":8.82333,"lon":-75.830002},"country":"CO","name":"El Central"},{"_id":3689002,"coord":{"lat":6.21667,"lon":-75.599998},"country":"CO","name":"Belén"},{"_id":3827660,"coord":{"lat":-4.18111,"lon":-69.94944},"country":"CO","name":"San Sebastián"},{"_id":3666041,"coord":{"lat":7.81667,"lon":-76.716667},"country":"CO","name":"Vijagual"},{"_id":3828656,"coord":{"lat":0.85801,"lon":-77.677132},"country":"CO","name":"Villa Rosa"},{"_id":3668564,"coord":{"lat":4.41639,"lon":-75.148888},"country":"CO","name":"Santa Rita"},{"_id":3681505,"coord":{"lat":2.57082,"lon":-77.885422},"country":"CO","name":"Guapi"},{"_id":3669067,"coord":{"lat":4.27724,"lon":-74.773407},"country":"CO","name":"San Rafael"},{"_id":7930017,"coord":{"lat":1.58501,"lon":-75.566597},"country":"CO","name":"Corinto"},{"_id":3829940,"coord":{"lat":7.02639,"lon":-73.809441},"country":"CO","name":"Atenas"},{"_id":3778842,"coord":{"lat":3.55564,"lon":-76.376892},"country":"CO","name":"La Esmeralda"},{"_id":3683115,"coord":{"lat":7.93415,"lon":-72.500893},"country":"CO","name":"El Salado"},{"_id":3665626,"coord":{"lat":3.81584,"lon":-77.002769},"country":"CO","name":"Zacarías-Riodagua"},{"_id":3689325,"coord":{"lat":6.22622,"lon":-77.404388},"country":"CO","name":"Mutis"},{"_id":3679556,"coord":{"lat":10.88333,"lon":-74.783333},"country":"CO","name":"La Ceibita"},{"_id":3732203,"coord":{"lat":7.11989,"lon":-73.198639},"country":"CO","name":"Palonegro"},{"_id":3732002,"coord":{"lat":9.04968,"lon":-73.980377},"country":"CO","name":"Las Flores"},{"_id":3684257,"coord":{"lat":4.46667,"lon":-75.76667},"country":"CO","name":"El Edén"},{"_id":3669793,"coord":{"lat":5.55,"lon":-75.383331},"country":"CO","name":"San Ignacio"},{"_id":3665566,"coord":{"lat":7.48971,"lon":-74.869186},"country":"CO","name":"Zaragoza"},{"_id":3665741,"coord":{"lat":6.96321,"lon":-75.417381},"country":"CO","name":"Yarumal"},{"_id":3665934,"coord":{"lat":10.60528,"lon":-72.980003},"country":"CO","name":"Villanueva"},{"_id":3665951,"coord":{"lat":5.28333,"lon":-71.966667},"country":"CO","name":"Villanueva"},{"_id":3667991,"coord":{"lat":9.24391,"lon":-75.146751},"country":"CO","name":"Since"},{"_id":3668132,"coord":{"lat":4.26425,"lon":-75.930847},"country":"CO","name":"Sevilla"},{"_id":3668175,"coord":{"lat":7.07993,"lon":-74.698898},"country":"CO","name":"Segovia"},{"_id":3668655,"coord":{"lat":10.3242,"lon":-74.960167},"country":"CO","name":"Santa Lucia"},{"_id":3669736,"coord":{"lat":9.82767,"lon":-75.121696},"country":"CO","name":"San Jacinto"},{"_id":3669997,"coord":{"lat":8.79577,"lon":-75.699471},"country":"CO","name":"San Carlos"},{"_id":3669998,"coord":{"lat":7.79177,"lon":-74.773163},"country":"CO","name":"San Carlos"},{"_id":3670038,"coord":{"lat":8.92901,"lon":-75.027092},"country":"CO","name":"San Benito Abad"},{"_id":3670218,"coord":{"lat":12.58472,"lon":-81.700562},"country":"CO","name":"San Andres"},{"_id":3670513,"coord":{"lat":10.79115,"lon":-74.76059},"country":"CO","name":"Sabanagrande"},{"_id":3670874,"coord":{"lat":10.49194,"lon":-75.129173},"country":"CO","name":"Repelon"},{"_id":3672761,"coord":{"lat":2.06895,"lon":-77.052727},"country":"CO","name":"Patia"},{"_id":3674412,"coord":{"lat":8.2752,"lon":-73.868843},"country":"CO","name":"Morales"},{"_id":3674453,"coord":{"lat":8.74798,"lon":-75.881432},"country":"CO","name":"Monteria"},{"_id":3674463,"coord":{"lat":4.56639,"lon":-75.751106},"country":"CO","name":"Montenegro"},{"_id":3674470,"coord":{"lat":7.98288,"lon":-75.422928},"country":"CO","name":"Montelibano"},{"_id":3674962,"coord":{"lat":6.25184,"lon":-75.563591},"country":"CO","name":"Medellin"},{"_id":3675707,"coord":{"lat":4.73244,"lon":-74.264191},"country":"CO","name":"Madrid"},{"_id":3675975,"coord":{"lat":7.83793,"lon":-72.5037},"country":"CO","name":"Los Patios"},{"_id":3676604,"coord":{"lat":4.9218,"lon":-75.062317},"country":"CO","name":"Libano"},{"_id":3676626,"coord":{"lat":4.86242,"lon":-74.909767},"country":"CO","name":"Lerida"},{"_id":3676720,"coord":{"lat":4.89972,"lon":-75.8825},"country":"CO","name":"La Virginia"},{"_id":3676928,"coord":{"lat":4.53282,"lon":-76.10318},"country":"CO","name":"La Union"},{"_id":3676934,"coord":{"lat":1.6045,"lon":-77.131523},"country":"CO","name":"La Union"},{"_id":3678405,"coord":{"lat":5.26667,"lon":-73.916672},"country":"CO","name":"La Mesa"},{"_id":3680387,"coord":{"lat":3.26074,"lon":-76.534988},"country":"CO","name":"Jamundi"},{"_id":3680840,"coord":{"lat":5.20856,"lon":-74.73584},"country":"CO","name":"Honda"},{"_id":3681957,"coord":{"lat":3.53861,"lon":-73.700562},"country":"CO","name":"Granada"},{"_id":3682108,"coord":{"lat":2.19593,"lon":-75.627769},"country":"CO","name":"Garzon"},{"_id":3682238,"coord":{"lat":10.89686,"lon":-74.886002},"country":"CO","name":"Galapa"},{"_id":3682274,"coord":{"lat":4.33646,"lon":-74.363777},"country":"CO","name":"Fusagasuga"},{"_id":3682393,"coord":{"lat":3.3223,"lon":-76.234802},"country":"CO","name":"Florida"},{"_id":3682426,"coord":{"lat":1.61438,"lon":-75.606232},"country":"CO","name":"Florencia"},{"_id":3684452,"coord":{"lat":10.15031,"lon":-73.961403},"country":"CO","name":"El Copey"},{"_id":3684579,"coord":{"lat":2.47691,"lon":-78.110489},"country":"CO","name":"El Charco"},{"_id":3684615,"coord":{"lat":3.68549,"lon":-76.313721},"country":"CO","name":"El Cerrito"},{"_id":3685871,"coord":{"lat":3.17407,"lon":-76.259933},"country":"CO","name":"Corinto"},{"_id":3686585,"coord":{"lat":9.25778,"lon":-73.812279},"country":"CO","name":"Chimichagua"},{"_id":3687238,"coord":{"lat":10.39972,"lon":-75.514442},"country":"CO","name":"Cartagena"},{"_id":3688451,"coord":{"lat":3.8801,"lon":-77.031158},"country":"CO","name":"Buenaventura"},{"_id":3689718,"coord":{"lat":7.08471,"lon":-70.759079},"country":"CO","name":"Arauca"},{"_id":3689798,"coord":{"lat":7.88299,"lon":-76.62587},"country":"CO","name":"Apartado"},{"_id":3689905,"coord":{"lat":4.17061,"lon":-76.166412},"country":"CO","name":"Andalucia"},{"_id":3665544,"coord":{"lat":4.75881,"lon":-74.380173},"country":"CO","name":"Zipacon"},{"_id":3665616,"coord":{"lat":9.74724,"lon":-74.8153},"country":"CO","name":"Zambrano"},{"_id":3665693,"coord":{"lat":6.59841,"lon":-75.011398},"country":"CO","name":"Yolombo"},{"_id":3665792,"coord":{"lat":6.67456,"lon":-74.834297},"country":"CO","name":"Yali"},{"_id":3665813,"coord":{"lat":5.45948,"lon":-74.338226},"country":"CO","name":"Yacopi"},{"_id":3665860,"coord":{"lat":3.12428,"lon":-73.751556},"country":"CO","name":"Vista Hermosa"},{"_id":3665910,"coord":{"lat":3.93502,"lon":-74.600357},"country":"CO","name":"Villarrica"},{"_id":3665924,"coord":{"lat":5.21617,"lon":-73.594902},"country":"CO","name":"Villapinzon"},{"_id":3665935,"coord":{"lat":10.44361,"lon":-75.273064},"country":"CO","name":"Villanueva"},{"_id":3665949,"coord":{"lat":6.67169,"lon":-73.174202},"country":"CO","name":"Villanueva"},{"_id":3665986,"coord":{"lat":5.03067,"lon":-75.116074},"country":"CO","name":"Villahermosa"},{"_id":3666003,"coord":{"lat":5.645,"lon":-73.566673},"country":"CO","name":"Villa de Leiva"},{"_id":3666042,"coord":{"lat":6.57891,"lon":-76.886276},"country":"CO","name":"Vigia del Fuerte"},{"_id":3666075,"coord":{"lat":5.31648,"lon":-74.911011},"country":"CO","name":"Victoria"},{"_id":3666102,"coord":{"lat":4.57544,"lon":-76.198143},"country":"CO","name":"Versalles"},{"_id":3666163,"coord":{"lat":5.36753,"lon":-73.520752},"country":"CO","name":"Ventaquemada"},{"_id":3666193,"coord":{"lat":5.96278,"lon":-75.73806},"country":"CO","name":"Venecia"},{"_id":3666203,"coord":{"lat":4.08808,"lon":-74.477463},"country":"CO","name":"Venecia"},{"_id":3666287,"coord":{"lat":5.615,"lon":-75.624222},"country":"CO","name":"Valparaiso"},{"_id":3666291,"coord":{"lat":1.19512,"lon":-75.707047},"country":"CO","name":"Valparaiso"},{"_id":3666309,"coord":{"lat":4.19869,"lon":-75.117332},"country":"CO","name":"Valle de San Juan"},{"_id":3666311,"coord":{"lat":6.4475,"lon":-73.143608},"country":"CO","name":"Valle de San Jose"},{"_id":3666326,"coord":{"lat":8.25801,"lon":-76.149277},"country":"CO","name":"Valencia"},{"_id":3666333,"coord":{"lat":7.28889,"lon":-75.397781},"country":"CO","name":"Valdivia"},{"_id":3666363,"coord":{"lat":5.18727,"lon":-74.481049},"country":"CO","name":"Utica"},{"_id":3666370,"coord":{"lat":10.75,"lon":-74.98333},"country":"CO","name":"Usiacuri"},{"_id":3666436,"coord":{"lat":6.89944,"lon":-76.174171},"country":"CO","name":"Uramita"},{"_id":3666475,"coord":{"lat":8.04335,"lon":-77.094528},"country":"CO","name":"Ungia"},{"_id":3666493,"coord":{"lat":5.22041,"lon":-73.456947},"country":"CO","name":"Umbita"},{"_id":3666526,"coord":{"lat":4.74778,"lon":-72.536942},"country":"CO","name":"Ubala"},{"_id":3666575,"coord":{"lat":10.2717,"lon":-75.442223},"country":"CO","name":"Turbana"},{"_id":3666719,"coord":{"lat":5.43056,"lon":-71.631111},"country":"CO","name":"Trinidad"},{"_id":3666834,"coord":{"lat":2.51204,"lon":-76.401237},"country":"CO","name":"Totoro"},{"_id":3666903,"coord":{"lat":5.33457,"lon":-74.302917},"country":"CO","name":"Topaipi"},{"_id":3666905,"coord":{"lat":5.75979,"lon":-72.825829},"country":"CO","name":"Topaga"},{"_id":3666936,"coord":{"lat":9.45082,"lon":-75.438637},"country":"CO","name":"Toluviejo"},{"_id":3666959,"coord":{"lat":7.30984,"lon":-72.482948},"country":"CO","name":"Toledo"},{"_id":3667007,"coord":{"lat":5.56392,"lon":-73.183983},"country":"CO","name":"Toca"},{"_id":3667023,"coord":{"lat":6.06276,"lon":-75.793701},"country":"CO","name":"Titiribi"},{"_id":3667044,"coord":{"lat":6.42031,"lon":-72.691841},"country":"CO","name":"Tipacoque"},{"_id":3667070,"coord":{"lat":2.7717,"lon":-77.665359},"country":"CO","name":"Timbiqui"},{"_id":3667211,"coord":{"lat":5.75,"lon":-73},"country":"CO","name":"Tibasosa"},{"_id":3667218,"coord":{"lat":5.31728,"lon":-73.396553},"country":"CO","name":"Tibana"},{"_id":3667244,"coord":{"lat":2.48587,"lon":-75.72921},"country":"CO","name":"Tesalia"},{"_id":3667247,"coord":{"lat":2.74193,"lon":-75.567383},"country":"CO","name":"Teruel"},{"_id":3667323,"coord":{"lat":3.06694,"lon":-75.137779},"country":"CO","name":"Tello"},{"_id":3667373,"coord":{"lat":5.91044,"lon":-72.780006},"country":"CO","name":"Tasco"},{"_id":3667380,"coord":{"lat":5.86467,"lon":-75.821922},"country":"CO","name":"Tarso"},{"_id":3667386,"coord":{"lat":2.11248,"lon":-75.824188},"country":"CO","name":"Tarqui"},{"_id":3667471,"coord":{"lat":1.57491,"lon":-77.286659},"country":"CO","name":"Taminango"},{"_id":3667473,"coord":{"lat":5.66462,"lon":-75.713387},"country":"CO","name":"Tamesis"},{"_id":3667516,"coord":{"lat":5.82972,"lon":-72.16333},"country":"CO","name":"Tamara"},{"_id":3667528,"coord":{"lat":8.85221,"lon":-73.812286},"country":"CO","name":"Tamalameque"},{"_id":3667547,"coord":{"lat":9.31206,"lon":-74.585442},"country":"CO","name":"Talaigua Viejo"},{"_id":3667579,"coord":{"lat":5.26598,"lon":-76.564873},"country":"CO","name":"Tado"},{"_id":3667660,"coord":{"lat":6.22978,"lon":-72.690102},"country":"CO","name":"Susacon"},{"_id":3667731,"coord":{"lat":5.91833,"lon":-73.791092},"country":"CO","name":"Sucre"},{"_id":3667732,"coord":{"lat":2.03805,"lon":-76.924461},"country":"CO","name":"Sucre"},{"_id":3667772,"coord":{"lat":4.04906,"lon":-74.831978},"country":"CO","name":"Suarez"},{"_id":3667773,"coord":{"lat":2.95395,"lon":-76.696442},"country":"CO","name":"Suarez"},{"_id":3667780,"coord":{"lat":10.33347,"lon":-74.880157},"country":"CO","name":"Suan"},{"_id":3667783,"coord":{"lat":6.1014,"lon":-73.440407},"country":"CO","name":"Suaita"},{"_id":3667791,"coord":{"lat":1.51469,"lon":-77.50444},"country":"CO","name":"Sotomayor"},{"_id":3667796,"coord":{"lat":5.76483,"lon":-73.247581},"country":"CO","name":"Sotaquira"},{"_id":3667834,"coord":{"lat":4.98778,"lon":-73.436111},"country":"CO","name":"Somondoco"},{"_id":3667868,"coord":{"lat":0.69937,"lon":-75.253532},"country":"CO","name":"Solano"},{"_id":3667880,"coord":{"lat":6.04028,"lon":-72.635094},"country":"CO","name":"Socota"},{"_id":3667901,"coord":{"lat":6.33369,"lon":-72.682831},"country":"CO","name":"Soata"},{"_id":3667918,"coord":{"lat":10.77737,"lon":-74.72049},"country":"CO","name":"Sitionuevo"},{"_id":3668012,"coord":{"lat":7.9579,"lon":-73.943604},"country":"CO","name":"Simiti"},{"_id":3668078,"coord":{"lat":1.20478,"lon":-76.92366},"country":"CO","name":"Sibundoy"},{"_id":3668096,"coord":{"lat":5.51238,"lon":-73.244362},"country":"CO","name":"Siachoque"},{"_id":3668138,"coord":{"lat":5.0475,"lon":-73.800827},"country":"CO","name":"Sesquile"},{"_id":3668228,"coord":{"lat":4.96611,"lon":-74.43512},"country":"CO","name":"Sasaima"},{"_id":3668268,"coord":{"lat":1.03728,"lon":-77.620941},"country":"CO","name":"Sapuyes"},{"_id":3668286,"coord":{"lat":9.24217,"lon":-74.500366},"country":"CO","name":"San Zenon"},{"_id":3668302,"coord":{"lat":6.23278,"lon":-75.336113},"country":"CO","name":"San Vicente"},{"_id":3668324,"coord":{"lat":5.07237,"lon":-75.963409},"country":"CO","name":"Santuario"},{"_id":3668373,"coord":{"lat":6.47222,"lon":-75.164719},"country":"CO","name":"Santo Domingo"},{"_id":3668396,"coord":{"lat":7.86432,"lon":-72.716202},"country":"CO","name":"Santiago"},{"_id":3668400,"coord":{"lat":1.14844,"lon":-77.004501},"country":"CO","name":"Santiago"},{"_id":3668434,"coord":{"lat":5.70908,"lon":-73.604042},"country":"CO","name":"Santa Sofia"},{"_id":3668447,"coord":{"lat":5.87401,"lon":-72.98217},"country":"CO","name":"Santa Rosa de Viterbo"},{"_id":3668472,"coord":{"lat":10.44472,"lon":-75.36972},"country":"CO","name":"Santa Rosa"},{"_id":3668594,"coord":{"lat":6.0575,"lon":-73.481117},"country":"CO","name":"Santana"},{"_id":3668631,"coord":{"lat":4.86048,"lon":-73.262337},"country":"CO","name":"Santa Maria"},{"_id":3668635,"coord":{"lat":2.95,"lon":-75.650002},"country":"CO","name":"Santa Maria"},{"_id":3668895,"coord":{"lat":5.87458,"lon":-75.567062},"country":"CO","name":"Santa Barbara"},{"_id":3668937,"coord":{"lat":9.32125,"lon":-74.568481},"country":"CO","name":"Santa Ana"},{"_id":3669011,"coord":{"lat":6.48511,"lon":-75.0196},"country":"CO","name":"San Roque"},{"_id":3669056,"coord":{"lat":6.29436,"lon":-75.025887},"country":"CO","name":"San Rafael"},{"_id":3669128,"coord":{"lat":9.3956,"lon":-75.064758},"country":"CO","name":"San Pedro"},{"_id":3669138,"coord":{"lat":6.46221,"lon":-75.556557},"country":"CO","name":"San Pedro"},{"_id":3669156,"coord":{"lat":3.99456,"lon":-76.227798},"country":"CO","name":"San Pedro"},{"_id":3669188,"coord":{"lat":10.05154,"lon":-75.267754},"country":"CO","name":"San Pablo"},{"_id":3669214,"coord":{"lat":1.6725,"lon":-77.013893},"country":"CO","name":"San Pablo"},{"_id":3669293,"coord":{"lat":0.34314,"lon":-76.91124},"country":"CO","name":"San Miguel"},{"_id":3669310,"coord":{"lat":6.40111,"lon":-72.555634},"country":"CO","name":"San Mateo"},{"_id":3669358,"coord":{"lat":3.79352,"lon":-73.84063},"country":"CO","name":"San Luis de Cubarral"},{"_id":3669399,"coord":{"lat":4.13258,"lon":-75.094994},"country":"CO","name":"San Luis"},{"_id":3669440,"coord":{"lat":1.50628,"lon":-77.218979},"country":"CO","name":"San Lorenzo"},{"_id":3669480,"coord":{"lat":9.27345,"lon":-75.241028},"country":"CO","name":"San Juan de Betulia"},{"_id":3669482,"coord":{"lat":3.34639,"lon":-73.889442},"country":"CO","name":"San Juan de Arama"},{"_id":3669623,"coord":{"lat":5.08583,"lon":-75.78833},"country":"CO","name":"San Jose"},{"_id":3669654,"coord":{"lat":1.69659,"lon":-78.24482},"country":"CO","name":"San Jose"},{"_id":3669857,"coord":{"lat":6.11667,"lon":-75.98333},"country":"CO","name":"San Francisco"},{"_id":3669860,"coord":{"lat":4.97372,"lon":-74.290062},"country":"CO","name":"San Francisco"},{"_id":3669881,"coord":{"lat":1.17867,"lon":-76.878502},"country":"CO","name":"San Francisco"},{"_id":3669895,"coord":{"lat":9.27972,"lon":-74.53389},"country":"CO","name":"San Fernando"},{"_id":3669929,"coord":{"lat":10.39833,"lon":-75.151108},"country":"CO","name":"San Estanislao"},{"_id":3669947,"coord":{"lat":10.33427,"lon":-73.180038},"country":"CO","name":"San Diego"},{"_id":3669956,"coord":{"lat":9.87809,"lon":-75.25248},"country":"CO","name":"San Cristobal"},{"_id":3669987,"coord":{"lat":3.71161,"lon":-73.243439},"country":"CO","name":"San Carlos de Guaroa"},{"_id":3670000,"coord":{"lat":6.18789,"lon":-74.993149},"country":"CO","name":"San Carlos"},{"_id":3670011,"coord":{"lat":8.4021,"lon":-73.207367},"country":"CO","name":"San Calixto"},{"_id":3670018,"coord":{"lat":9.3533,"lon":-75.952438},"country":"CO","name":"San Bernardo del Viento"},{"_id":3670034,"coord":{"lat":1.52119,"lon":-77.030907},"country":"CO","name":"San Bernardo"},{"_id":3670107,"coord":{"lat":9.93303,"lon":-74.693459},"country":"CO","name":"San Antonio"},{"_id":3670162,"coord":{"lat":3.91423,"lon":-75.48008},"country":"CO","name":"San Antonio"},{"_id":3670224,"coord":{"lat":6.81148,"lon":-72.849289},"country":"CO","name":"San Andres"},{"_id":3670260,"coord":{"lat":1.87863,"lon":-76.275574},"country":"CO","name":"San Agustin"},{"_id":3670293,"coord":{"lat":1.3385,"lon":-77.595703},"country":"CO","name":"Samaniego"},{"_id":3670368,"coord":{"lat":10.49027,"lon":-74.794632},"country":"CO","name":"Salamina"},{"_id":3670383,"coord":{"lat":1.99244,"lon":-76.04335},"country":"CO","name":"Saladoblanco"},{"_id":3670431,"coord":{"lat":5.58453,"lon":-73.54184},"country":"CO","name":"Sachica"},{"_id":3670447,"coord":{"lat":5.69636,"lon":-73.769318},"country":"CO","name":"Saboya"},{"_id":3670506,"coord":{"lat":6.84893,"lon":-75.817108},"country":"CO","name":"Sabanalarga"},{"_id":3670520,"coord":{"lat":7.3915,"lon":-73.495743},"country":"CO","name":"Sabana de Torres"},{"_id":3670595,"coord":{"lat":2.26093,"lon":-76.739861},"country":"CO","name":"Rosas"},{"_id":3670700,"coord":{"lat":5.16647,"lon":-75.765953},"country":"CO","name":"Risaralda"},{"_id":3670709,"coord":{"lat":8.5874,"lon":-73.839012},"country":"CO","name":"Rio Viejo"},{"_id":3670718,"coord":{"lat":7.44027,"lon":-77.116699},"country":"CO","name":"Riosucio"},{"_id":3670754,"coord":{"lat":4.1571,"lon":-76.288521},"country":"CO","name":"Riofrio"},{"_id":3670756,"coord":{"lat":8.2919,"lon":-73.38485},"country":"CO","name":"Rio de Oro"},{"_id":3670812,"coord":{"lat":4.28075,"lon":-74.764687},"country":"CO","name":"Ricaurte"},{"_id":3670816,"coord":{"lat":1.1727,"lon":-77.937202},"country":"CO","name":"Ricaurte"},{"_id":3670884,"coord":{"lat":10.70198,"lon":-74.716019},"country":"CO","name":"Remolino"},{"_id":3670910,"coord":{"lat":8.66565,"lon":-73.82151},"country":"CO","name":"Regidor"},{"_id":3671018,"coord":{"lat":7.57749,"lon":-72.475739},"country":"CO","name":"Ragonvalia"},{"_id":3671308,"coord":{"lat":5.87262,"lon":-74.640289},"country":"CO","name":"Puerto Triunfo"},{"_id":3671337,"coord":{"lat":6.28048,"lon":-71.099998},"country":"CO","name":"Puerto Rondon"},{"_id":3671346,"coord":{"lat":2.93833,"lon":-73.208328},"country":"CO","name":"Puerto Rico"},{"_id":3671348,"coord":{"lat":1.91417,"lon":-75.144997},"country":"CO","name":"Puerto Rico"},{"_id":3671371,"coord":{"lat":6.65149,"lon":-74.057343},"country":"CO","name":"Puerto Parra"},{"_id":3671387,"coord":{"lat":-3.77028,"lon":-70.383057},"country":"CO","name":"Puerto Narino"},{"_id":3671424,"coord":{"lat":3.02225,"lon":-73.404404},"country":"CO","name":"Puerto Lleras"},{"_id":3671470,"coord":{"lat":9.0181,"lon":-76.26413},"country":"CO","name":"Puerto Escondido"},{"_id":3671576,"coord":{"lat":1.19374,"lon":-77.266609},"country":"CO","name":"Puerres"},{"_id":3671591,"coord":{"lat":5.8774,"lon":-73.678101},"country":"CO","name":"Puente Nacional"},{"_id":3671615,"coord":{"lat":10.99376,"lon":-74.284378},"country":"CO","name":"Puebloviejo"},{"_id":3671633,"coord":{"lat":5.23833,"lon":-76.036392},"country":"CO","name":"Pueblo Rico"},{"_id":3671655,"coord":{"lat":8.2411,"lon":-74.958153},"country":"CO","name":"Pueblo Nuevo"},{"_id":3671714,"coord":{"lat":1.56976,"lon":-77.463997},"country":"CO","name":"Providencia"},{"_id":3671765,"coord":{"lat":3.75024,"lon":-74.929321},"country":"CO","name":"Prado"},{"_id":3671848,"coord":{"lat":0.80739,"lon":-77.572159},"country":"CO","name":"Potosi"},{"_id":3671901,"coord":{"lat":5.72722,"lon":-71.99472},"country":"CO","name":"Pore"},{"_id":3671936,"coord":{"lat":10.64104,"lon":-74.750259},"country":"CO","name":"Ponedera"},{"_id":3671961,"coord":{"lat":1.63231,"lon":-77.46199},"country":"CO","name":"Policarpa"},{"_id":3672086,"coord":{"lat":4.95334,"lon":-77.365982},"country":"CO","name":"Pizarro"},{"_id":3672087,"coord":{"lat":2.10194,"lon":-78.721672},"country":"CO","name":"Francisco Pizarro"},{"_id":3672197,"coord":{"lat":8.91925,"lon":-74.467712},"country":"CO","name":"Pinillos"},{"_id":3672249,"coord":{"lat":9.32908,"lon":-74.453018},"country":"CO","name":"Pijino"},{"_id":3672290,"coord":{"lat":4.53833,"lon":-74.881752},"country":"CO","name":"Piedras"},{"_id":3672295,"coord":{"lat":1.1374,"lon":-77.8489},"country":"CO","name":"Piedrancha"},{"_id":3672327,"coord":{"lat":5.51604,"lon":-76.974487},"country":"CO","name":"Pie de Pato"},{"_id":3672512,"coord":{"lat":7.02122,"lon":-75.909264},"country":"CO","name":"Peque"},{"_id":3672521,"coord":{"lat":5.38346,"lon":-75.161217},"country":"CO","name":"Pensilvania"},{"_id":3672599,"coord":{"lat":8.68819,"lon":-73.66452},"country":"CO","name":"Pelaya"},{"_id":3672633,"coord":{"lat":10.18739,"lon":-74.915039},"country":"CO","name":"Pedraza"},{"_id":3672665,"coord":{"lat":1.935,"lon":-78.205002},"country":"CO","name":"Payan"},{"_id":3672698,"coord":{"lat":5.65861,"lon":-73.982498},"country":"CO","name":"Pauna"},{"_id":3672997,"coord":{"lat":4.19111,"lon":-74.487503},"country":"CO","name":"Pandi"},{"_id":3673126,"coord":{"lat":5.11705,"lon":-75.017319},"country":"CO","name":"Palocabildo"},{"_id":3673269,"coord":{"lat":5.0194,"lon":-75.622421},"country":"CO","name":"Palestina"},{"_id":3673275,"coord":{"lat":1.72362,"lon":-76.134033},"country":"CO","name":"Palestina"},{"_id":3673286,"coord":{"lat":2.89167,"lon":-75.4375},"country":"CO","name":"Palermo"},{"_id":3673368,"coord":{"lat":2.25462,"lon":-76.610863},"country":"CO","name":"Paispamba"},{"_id":3673379,"coord":{"lat":8.95652,"lon":-73.625481},"country":"CO","name":"Pailitas"},{"_id":3673397,"coord":{"lat":5.10112,"lon":-73.051224},"country":"CO","name":"Paez"},{"_id":3673455,"coord":{"lat":9.53248,"lon":-75.223824},"country":"CO","name":"Ovejas"},{"_id":3673475,"coord":{"lat":5.65672,"lon":-74.182487},"country":"CO","name":"Otanche"},{"_id":3673482,"coord":{"lat":1.0595,"lon":-77.565536},"country":"CO","name":"Ospina"},{"_id":3673578,"coord":{"lat":2.05015,"lon":-75.976753},"country":"CO","name":"Oporapa"},{"_id":3673590,"coord":{"lat":6.34434,"lon":-72.817261},"country":"CO","name":"Onzaga"},{"_id":3673609,"coord":{"lat":1.25609,"lon":-77.496651},"country":"CO","name":"Olaya Herrera"},{"_id":3673690,"coord":{"lat":5.7125,"lon":-77.270828},"country":"CO","name":"Nuqui"},{"_id":3673695,"coord":{"lat":5.64056,"lon":-72.198608},"country":"CO","name":"Nunchia"},{"_id":3673756,"coord":{"lat":9.80168,"lon":-74.393044},"country":"CO","name":"Nueva Granada"},{"_id":3673783,"coord":{"lat":4.95511,"lon":-76.605263},"country":"CO","name":"Novita"},{"_id":3673811,"coord":{"lat":5.57782,"lon":-74.885208},"country":"CO","name":"Norcasia"},{"_id":3673974,"coord":{"lat":8.42342,"lon":-76.785973},"country":"CO","name":"Necocli"},{"_id":3673976,"coord":{"lat":8.09419,"lon":-74.775726},"country":"CO","name":"Nechi"},{"_id":3674012,"coord":{"lat":2.54359,"lon":-75.808517},"country":"CO","name":"Nataga"},{"_id":3674027,"coord":{"lat":5.60893,"lon":-75.176559},"country":"CO","name":"Narino"},{"_id":3674029,"coord":{"lat":4.39781,"lon":-74.827309},"country":"CO","name":"Narino"},{"_id":3674031,"coord":{"lat":1.29546,"lon":-77.360497},"country":"CO","name":"Narino"},{"_id":3674121,"coord":{"lat":5.53528,"lon":-74.10778},"country":"CO","name":"Muzo"},{"_id":3674161,"coord":{"lat":6.98481,"lon":-76.754387},"country":"CO","name":"Murindo"},{"_id":3674272,"coord":{"lat":13.36667,"lon":-81.366669},"country":"CO","name":"Mountain"},{"_id":3674293,"coord":{"lat":2.50861,"lon":-78.451103},"country":"CO","name":"Mosquera"},{"_id":3674337,"coord":{"lat":9.33348,"lon":-75.30542},"country":"CO","name":"Morroa"},{"_id":3674393,"coord":{"lat":1.48747,"lon":-75.725807},"country":"CO","name":"Morelia"},{"_id":3674499,"coord":{"lat":8.2971,"lon":-74.473297},"country":"CO","name":"Montecristo"},{"_id":3674519,"coord":{"lat":5.94806,"lon":-75.527496},"country":"CO","name":"Montebello"},{"_id":3674569,"coord":{"lat":8.25,"lon":-76.050003},"country":"CO","name":"Monitos"},{"_id":3674576,"coord":{"lat":5.72151,"lon":-72.849083},"country":"CO","name":"Mongui"},{"_id":3674580,"coord":{"lat":5.75084,"lon":-72.803391},"country":"CO","name":"Mongua"},{"_id":3674618,"coord":{"lat":6.67315,"lon":-72.808746},"country":"CO","name":"Molagavita"},{"_id":3674640,"coord":{"lat":6.47559,"lon":-72.970459},"country":"CO","name":"Mogotes"},{"_id":3674676,"coord":{"lat":1.19833,"lon":-70.173332},"country":"CO","name":"Mitu"},{"_id":3674735,"coord":{"lat":5.19608,"lon":-73.145042},"country":"CO","name":"Miraflores"},{"_id":3674784,"coord":{"lat":1.29205,"lon":-75.511673},"country":"CO","name":"Milan"},{"_id":3674851,"coord":{"lat":1.80094,"lon":-77.165962},"country":"CO","name":"Mercaderes"},{"_id":3675191,"coord":{"lat":5.28393,"lon":-75.260162},"country":"CO","name":"Marulanda"},{"_id":3675212,"coord":{"lat":4.93722,"lon":-75.737778},"country":"CO","name":"Marsella"},{"_id":3675255,"coord":{"lat":5.55194,"lon":-74.008614},"country":"CO","name":"Maripi"},{"_id":3675305,"coord":{"lat":9.15596,"lon":-74.266182},"country":"CO","name":"Margarita"},{"_id":3675504,"coord":{"lat":11.77505,"lon":-72.444473},"country":"CO","name":"Manaure"},{"_id":3675512,"coord":{"lat":10.44589,"lon":-74.958687},"country":"CO","name":"Manati"},{"_id":3675668,"coord":{"lat":10.23293,"lon":-75.18985},"country":"CO","name":"Mahates"},{"_id":3675757,"coord":{"lat":5.08154,"lon":-73.607613},"country":"CO","name":"Macheta"},{"_id":3675768,"coord":{"lat":6.55196,"lon":-74.787422},"country":"CO","name":"Maceo"},{"_id":3675857,"coord":{"lat":7.94411,"lon":-72.832527},"country":"CO","name":"Lourdes"},{"_id":3676205,"coord":{"lat":8.89403,"lon":-76.354553},"country":"CO","name":"Los Cordobas"},{"_id":3676417,"coord":{"lat":2.43333,"lon":-76.800003},"country":"CO","name":"Lopez"},{"_id":3676477,"coord":{"lat":5.49605,"lon":-76.549454},"country":"CO","name":"Lloro"},{"_id":3676540,"coord":{"lat":1.35783,"lon":-77.527252},"country":"CO","name":"Linares"},{"_id":3676591,"coord":{"lat":6.6779,"lon":-75.81218},"country":"CO","name":"Liborina"},{"_id":3676644,"coord":{"lat":5.30711,"lon":-73.711517},"country":"CO","name":"Lenguazaque"},{"_id":3676661,"coord":{"lat":1.93389,"lon":-77.302528},"country":"CO","name":"Leiva"},{"_id":3676791,"coord":{"lat":4.52271,"lon":-76.037376},"country":"CO","name":"La Victoria"},{"_id":3676864,"coord":{"lat":4.99779,"lon":-74.33979},"country":"CO","name":"La Vega"},{"_id":3676868,"coord":{"lat":2.00628,"lon":-76.780281},"country":"CO","name":"La Vega"},{"_id":3676884,"coord":{"lat":6.31684,"lon":-72.560318},"country":"CO","name":"La Uvita"},{"_id":3676912,"coord":{"lat":8.86056,"lon":-75.280563},"country":"CO","name":"La Union"},{"_id":3676923,"coord":{"lat":5.97431,"lon":-75.361954},"country":"CO","name":"La Union"},{"_id":3677457,"coord":{"lat":2.17835,"lon":-76.76265},"country":"CO","name":"La Sierra"},{"_id":3678000,"coord":{"lat":5.49056,"lon":-70.409172},"country":"CO","name":"La Primavera"},{"_id":3678083,"coord":{"lat":8.21639,"lon":-73.241386},"country":"CO","name":"La Playa"},{"_id":3678167,"coord":{"lat":5.19847,"lon":-74.393677},"country":"CO","name":"La Pena"},{"_id":3678186,"coord":{"lat":10.38439,"lon":-73.173317},"country":"CO","name":"La Paz"},{"_id":3678190,"coord":{"lat":6.17848,"lon":-73.589478},"country":"CO","name":"La Paz"},{"_id":3678363,"coord":{"lat":1.4766,"lon":-75.439796},"country":"CO","name":"La Montanita"},{"_id":3678415,"coord":{"lat":5.40194,"lon":-75.88472},"country":"CO","name":"La Merced"},{"_id":3678575,"coord":{"lat":1.48997,"lon":-77.583473},"country":"CO","name":"La Llanada"},{"_id":3678907,"coord":{"lat":8.61868,"lon":-73.80265},"country":"CO","name":"La Gloria"},{"_id":3679007,"coord":{"lat":1.29851,"lon":-77.406143},"country":"CO","name":"La Florida"},{"_id":3679130,"coord":{"lat":8.21043,"lon":-72.463989},"country":"CO","name":"La Esperanza"},{"_id":3679379,"coord":{"lat":1.60301,"lon":-76.969009},"country":"CO","name":"La Cruz"},{"_id":3679542,"coord":{"lat":5.04333,"lon":-76.01667},"country":"CO","name":"La Celia"},{"_id":3679622,"coord":{"lat":5.70493,"lon":-73.475273},"country":"CO","name":"La Capilla"},{"_id":3679660,"coord":{"lat":4.72069,"lon":-73.969261},"country":"CO","name":"La Calera"},{"_id":3679776,"coord":{"lat":5.86371,"lon":-73.96167},"country":"CO","name":"La Belleza"},{"_id":3679780,"coord":{"lat":7.29847,"lon":-72.494431},"country":"CO","name":"Labateca"},{"_id":3680090,"coord":{"lat":7.10534,"lon":-77.76413},"country":"CO","name":"Jurado"},{"_id":3680113,"coord":{"lat":4.79027,"lon":-73.66011},"country":"CO","name":"Junin"},{"_id":3680335,"coord":{"lat":5.38541,"lon":-73.36364},"country":"CO","name":"Jenesano"},{"_id":3680366,"coord":{"lat":5.59902,"lon":-75.819763},"country":"CO","name":"Jardin"},{"_id":3680393,"coord":{"lat":2.79225,"lon":-76.322578},"country":"CO","name":"Jambalo"},{"_id":3680491,"coord":{"lat":2.45007,"lon":-77.979362},"country":"CO","name":"Iscuande"},{"_id":3680531,"coord":{"lat":2.64867,"lon":-75.634567},"country":"CO","name":"Iquira"},{"_id":3680601,"coord":{"lat":1.06072,"lon":-77.500443},"country":"CO","name":"Imues"},{"_id":3680616,"coord":{"lat":0.97491,"lon":-77.527412},"country":"CO","name":"Iles"},{"_id":3680854,"coord":{"lat":2.58333,"lon":-75.449997},"country":"CO","name":"Hobo"},{"_id":3680880,"coord":{"lat":5.08333,"lon":-75.166672},"country":"CO","name":"Herveo"},{"_id":3680886,"coord":{"lat":7.50611,"lon":-72.483322},"country":"CO","name":"Herran"},{"_id":3680902,"coord":{"lat":6.20689,"lon":-75.733673},"country":"CO","name":"Heliconia"},{"_id":3681008,"coord":{"lat":6.15676,"lon":-71.763718},"country":"CO","name":"Municipio Hato Corozal"},{"_id":3681029,"coord":{"lat":8.95635,"lon":-74.078201},"country":"CO","name":"Hatillo de Loba"},{"_id":3681168,"coord":{"lat":8.32333,"lon":-73.148888},"country":"CO","name":"Hacari"},{"_id":3681222,"coord":{"lat":6.46184,"lon":-72.411293},"country":"CO","name":"Guican"},{"_id":3681234,"coord":{"lat":6.02505,"lon":-73.573128},"country":"CO","name":"Guepsa"},{"_id":3681255,"coord":{"lat":4.96417,"lon":-73.487503},"country":"CO","name":"Guayata"},{"_id":3681306,"coord":{"lat":4.87739,"lon":-74.467438},"country":"CO","name":"Guayabal de Siquima"},{"_id":3681353,"coord":{"lat":5.31569,"lon":-75.798264},"country":"CO","name":"Guatica"},{"_id":3681356,"coord":{"lat":5.00619,"lon":-73.47274},"country":"CO","name":"Guateque"},{"_id":3681364,"coord":{"lat":4.51573,"lon":-74.789352},"country":"CO","name":"Guataqui"},{"_id":3681644,"coord":{"lat":1.13855,"lon":-77.553009},"country":"CO","name":"Guaitarilla"},{"_id":3681731,"coord":{"lat":6.81449,"lon":-75.240631},"country":"CO","name":"Guadalupe"},{"_id":3681732,"coord":{"lat":6.2464,"lon":-73.418327},"country":"CO","name":"Guadalupe"},{"_id":3681832,"coord":{"lat":6.87621,"lon":-72.855942},"country":"CO","name":"Guaca"},{"_id":3681952,"coord":{"lat":6.14353,"lon":-75.185318},"country":"CO","name":"Granada"},{"_id":3681953,"coord":{"lat":5.06667,"lon":-74.566673},"country":"CO","name":"Granada"},{"_id":3681990,"coord":{"lat":8.38944,"lon":-73.37989},"country":"CO","name":"Gonzalez"},{"_id":3682030,"coord":{"lat":6.68306,"lon":-75.989166},"country":"CO","name":"Giraldo"},{"_id":3682039,"coord":{"lat":3.72461,"lon":-76.266747},"country":"CO","name":"Ginebra"},{"_id":3682068,"coord":{"lat":4.31667,"lon":-75.76667},"country":"CO","name":"Genova"},{"_id":3682070,"coord":{"lat":1.64322,"lon":-77.02433},"country":"CO","name":"Genova"},{"_id":3682172,"coord":{"lat":5.80263,"lon":-72.805862},"country":"CO","name":"Gameza"},{"_id":3682182,"coord":{"lat":8.32279,"lon":-73.742683},"country":"CO","name":"Gamarra"},{"_id":3682232,"coord":{"lat":9.16095,"lon":-75.048111},"country":"CO","name":"Galeras"},{"_id":3682243,"coord":{"lat":6.63781,"lon":-73.28878},"country":"CO","name":"Galan"},{"_id":3682262,"coord":{"lat":4.99111,"lon":-73.871536},"country":"CO","name":"Gachancipa"},{"_id":3682283,"coord":{"lat":1.00266,"lon":-77.450668},"country":"CO","name":"Funes"},{"_id":3682299,"coord":{"lat":3.45944,"lon":-73.612778},"country":"CO","name":"Fuente de Oro"},{"_id":3682361,"coord":{"lat":6.79277,"lon":-71.771698},"country":"CO","name":"Municipio de Fortul"},{"_id":3682400,"coord":{"lat":5.85903,"lon":-72.918823},"country":"CO","name":"Floresta"},{"_id":3682425,"coord":{"lat":1.68318,"lon":-77.073303},"country":"CO","name":"Florencia"},{"_id":3682473,"coord":{"lat":4.67472,"lon":-75.658333},"country":"CO","name":"Filandia"},{"_id":3682481,"coord":{"lat":5.29606,"lon":-75.561203},"country":"CO","name":"Filadelfia"},{"_id":3682682,"coord":{"lat":7.93248,"lon":-72.60125},"country":"CO","name":"El Zulia"},{"_id":3682963,"coord":{"lat":2.45199,"lon":-76.810287},"country":"CO","name":"El Tambo"},{"_id":3682965,"coord":{"lat":1.41814,"lon":-77.396782},"country":"CO","name":"El Tambo"},{"_id":3682981,"coord":{"lat":1.43188,"lon":-77.096642},"country":"CO","name":"El Tablon"},{"_id":3683149,"coord":{"lat":1.74173,"lon":-77.335197},"country":"CO","name":"El Rosario"},{"_id":3683180,"coord":{"lat":9.10194,"lon":-75.195084},"country":"CO","name":"El Roble"},{"_id":3683497,"coord":{"lat":8.98916,"lon":-73.94857},"country":"CO","name":"El Penon"},{"_id":3683508,"coord":{"lat":1.45987,"lon":-77.445442},"country":"CO","name":"El Penol"},{"_id":3683778,"coord":{"lat":10.65225,"lon":-72.924049},"country":"CO","name":"El Molino"},{"_id":3684029,"coord":{"lat":2.0117,"lon":-75.939682},"country":"CO","name":"Elias"},{"_id":3684115,"coord":{"lat":10.03155,"lon":-74.97612},"country":"CO","name":"El Guamo"},{"_id":3684189,"coord":{"lat":6.48277,"lon":-72.497177},"country":"CO","name":"El Espino"},{"_id":3684510,"coord":{"lat":6.40784,"lon":-72.444641},"country":"CO","name":"El Cocuy"},{"_id":3684662,"coord":{"lat":3.56363,"lon":-73.794884},"country":"CO","name":"El Castillo"},{"_id":3684683,"coord":{"lat":8.51064,"lon":-73.447762},"country":"CO","name":"El Carmen"},{"_id":3684689,"coord":{"lat":6.69736,"lon":-73.511162},"country":"CO","name":"El Carmen"},{"_id":3684692,"coord":{"lat":5.88778,"lon":-75.164169},"country":"CO","name":"El Carmen"},{"_id":3684785,"coord":{"lat":4.75909,"lon":-76.22226},"country":"CO","name":"El Cairo"},{"_id":3684860,"coord":{"lat":2.11696,"lon":-76.98214},"country":"CO","name":"El Bordo"},{"_id":3685126,"coord":{"lat":6.48568,"lon":-75.394958},"country":"CO","name":"Don Matias"},{"_id":3685223,"coord":{"lat":11.27251,"lon":-73.309113},"country":"CO","name":"Dibulla"},{"_id":3685428,"coord":{"lat":1.65174,"lon":-77.582253},"country":"CO","name":"Cumbitara"},{"_id":3685571,"coord":{"lat":7.00078,"lon":-72.108521},"country":"CO","name":"Cubara"},{"_id":3685649,"coord":{"lat":7.18333,"lon":-75.066673},"country":"CO","name":"Cruces de Anori"},{"_id":3685724,"coord":{"lat":9.03886,"lon":-75.789688},"country":"CO","name":"Cotorra"},{"_id":3685733,"coord":{"lat":4.80938,"lon":-74.098},"country":"CO","name":"Cota"},{"_id":3685794,"coord":{"lat":5.82968,"lon":-72.843323},"country":"CO","name":"Corrales"},{"_id":3685840,"coord":{"lat":6.29461,"lon":-73.040222},"country":"CO","name":"Coromoro"},{"_id":3685900,"coord":{"lat":4.39318,"lon":-75.689346},"country":"CO","name":"Cordoba"},{"_id":3685903,"coord":{"lat":0.85905,"lon":-77.519501},"country":"CO","name":"Cordoba"},{"_id":3685961,"coord":{"lat":6.29005,"lon":-73.473541},"country":"CO","name":"Contratacion"},{"_id":3685974,"coord":{"lat":0.907,"lon":-77.547287},"country":"CO","name":"Contadero"},{"_id":3686002,"coord":{"lat":5.09351,"lon":-76.649727},"country":"CO","name":"Condoto"},{"_id":3686011,"coord":{"lat":9.83545,"lon":-74.455482},"country":"CO","name":"Concordia"},{"_id":3686028,"coord":{"lat":6.39408,"lon":-75.258301},"country":"CO","name":"Concepcion"},{"_id":3686065,"coord":{"lat":9.4915,"lon":-75.36145},"country":"CO","name":"Coloso"},{"_id":3686120,"coord":{"lat":3.37606,"lon":-74.801498},"country":"CO","name":"Colombia"},{"_id":3686196,"coord":{"lat":10.56646,"lon":-75.324989},"country":"CO","name":"Clemencia"},{"_id":3686288,"coord":{"lat":9.26306,"lon":-74.656937},"country":"CO","name":"Cicuco"},{"_id":3686460,"coord":{"lat":7.13781,"lon":-72.664558},"country":"CO","name":"Chitaga"},{"_id":3686471,"coord":{"lat":6.55236,"lon":-72.499763},"country":"CO","name":"Chiscas"},{"_id":3686605,"coord":{"lat":9.14893,"lon":-75.62841},"country":"CO","name":"Chima"},{"_id":3686835,"coord":{"lat":9.54765,"lon":-75.311279},"country":"CO","name":"Chalan"},{"_id":3686883,"coord":{"lat":5.37073,"lon":-76.604401},"country":"CO","name":"Certegui"},{"_id":3686894,"coord":{"lat":10.32585,"lon":-74.869331},"country":"CO","name":"Cerro de San Antonio"},{"_id":3686907,"coord":{"lat":6.84315,"lon":-72.694038},"country":"CO","name":"Cerrito"},{"_id":3686918,"coord":{"lat":5.95568,"lon":-72.94783},"country":"CO","name":"Cerinza"},{"_id":3687213,"coord":{"lat":5.07959,"lon":-75.12059},"country":"CO","name":"Casabianca"},{"_id":3687231,"coord":{"lat":1.56305,"lon":-77.117599},"country":"CO","name":"Cartago"},{"_id":3687310,"coord":{"lat":6.72439,"lon":-75.281677},"country":"CO","name":"Carolina"},{"_id":3687335,"coord":{"lat":0.86292,"lon":-77.727341},"country":"CO","name":"Carlosama"},{"_id":3687476,"coord":{"lat":4.40569,"lon":-73.946831},"country":"CO","name":"Caqueza"},{"_id":3687490,"coord":{"lat":6.52881,"lon":-72.695953},"country":"CO","name":"Capitanejo"},{"_id":3687505,"coord":{"lat":5.34644,"lon":-74.49147},"country":"CO","name":"Caparrapi"},{"_id":3687541,"coord":{"lat":7.37599,"lon":-73.919632},"country":"CO","name":"Cantagallo"},{"_id":3687634,"coord":{"lat":10.45912,"lon":-74.8797},"country":"CO","name":"Candelaria"},{"_id":3687677,"coord":{"lat":6.74989,"lon":-76.025391},"country":"CO","name":"Canasgordas"},{"_id":3687933,"coord":{"lat":2.7974,"lon":-76.483162},"country":"CO","name":"Caldono"},{"_id":3687972,"coord":{"lat":10.2511,"lon":-74.914619},"country":"CO","name":"Calamar"},{"_id":3687975,"coord":{"lat":1.95972,"lon":-72.653893},"country":"CO","name":"Calamar"},{"_id":3688009,"coord":{"lat":2.62271,"lon":-76.570389},"country":"CO","name":"Cajibio"},{"_id":3688021,"coord":{"lat":4.44172,"lon":-75.426781},"country":"CO","name":"Cajamarca"},{"_id":3688030,"coord":{"lat":8.81229,"lon":-75.41066},"country":"CO","name":"Caimito"},{"_id":3688087,"coord":{"lat":7.26787,"lon":-72.641968},"country":"CO","name":"Cacota"},{"_id":3688151,"coord":{"lat":4.2817,"lon":-72.793991},"country":"CO","name":"Cabuyaro"},{"_id":3688170,"coord":{"lat":3.98598,"lon":-74.482826},"country":"CO","name":"Cabrera"},{"_id":3688357,"coord":{"lat":3.01503,"lon":-76.642754},"country":"CO","name":"Buenos Aires"},{"_id":3688396,"coord":{"lat":9.21433,"lon":-74.313629},"country":"CO","name":"Buenavista"},{"_id":3688397,"coord":{"lat":9.04963,"lon":-76.0028},"country":"CO","name":"Buenavista"},{"_id":3688433,"coord":{"lat":4.3539,"lon":-75.717819},"country":"CO","name":"Buenavista"},{"_id":3688656,"coord":{"lat":5.98943,"lon":-73.77021},"country":"CO","name":"Bolivar"},{"_id":3688659,"coord":{"lat":4.3387,"lon":-76.183418},"country":"CO","name":"Bolivar"},{"_id":3688775,"coord":{"lat":6.33031,"lon":-72.585052},"country":"CO","name":"Boavita"},{"_id":3688839,"coord":{"lat":6.90069,"lon":-73.28347},"country":"CO","name":"Betulia"},{"_id":3688840,"coord":{"lat":6.11284,"lon":-75.98378},"country":"CO","name":"Betulia"},{"_id":3688855,"coord":{"lat":5.746,"lon":-75.977654},"country":"CO","name":"Betania"},{"_id":3688875,"coord":{"lat":1.49766,"lon":-77.135872},"country":"CO","name":"Arboleda"},{"_id":3688923,"coord":{"lat":6.60508,"lon":-75.666191},"country":"CO","name":"Belmira"},{"_id":3688991,"coord":{"lat":1.41828,"lon":-75.877541},"country":"CO","name":"Belen de los Andaquies"},{"_id":3689003,"coord":{"lat":5.98892,"lon":-72.912537},"country":"CO","name":"Belen"},{"_id":3689006,"coord":{"lat":1.59787,"lon":-77.013992},"country":"CO","name":"Belen"},{"_id":3689026,"coord":{"lat":9.70413,"lon":-73.279297},"country":"CO","name":"Becerril"},{"_id":3689157,"coord":{"lat":8.94597,"lon":-74.106468},"country":"CO","name":"Barranco de Loba"},{"_id":3689167,"coord":{"lat":4.56963,"lon":-72.966759},"country":"CO","name":"Barranca de Upia"},{"_id":3689228,"coord":{"lat":1.67154,"lon":-78.139778},"country":"CO","name":"Barbacoas"},{"_id":3689232,"coord":{"lat":3.15333,"lon":-75.053062},"country":"CO","name":"Baraya"},{"_id":3689291,"coord":{"lat":4.95167,"lon":-75.957222},"country":"CO","name":"Balboa"},{"_id":3689292,"coord":{"lat":2.03956,"lon":-77.216843},"country":"CO","name":"Balboa"},{"_id":3689336,"coord":{"lat":5.41164,"lon":-76.415199},"country":"CO","name":"Bagado"},{"_id":3689507,"coord":{"lat":10.2522,"lon":-75.019798},"country":"CO","name":"Arroyohondo"},{"_id":3689551,"coord":{"lat":5.03103,"lon":-74.886818},"country":"CO","name":"Guayabal"},{"_id":3689559,"coord":{"lat":6.15639,"lon":-75.787216},"country":"CO","name":"Armenia"},{"_id":3689611,"coord":{"lat":5.73127,"lon":-75.14257},"country":"CO","name":"Argelia"},{"_id":3689613,"coord":{"lat":4.72342,"lon":-76.119087},"country":"CO","name":"Argelia"},{"_id":3689615,"coord":{"lat":2.25563,"lon":-77.248756},"country":"CO","name":"Argelia"},{"_id":3689653,"coord":{"lat":8.45928,"lon":-73.943314},"country":"CO","name":"Arenal"},{"_id":3689689,"coord":{"lat":5.75463,"lon":-73.436691},"country":"CO","name":"Arcabuco"},{"_id":3689693,"coord":{"lat":8.85051,"lon":-76.426941},"country":"CO","name":"Arboletes"},{"_id":3689740,"coord":{"lat":5.27123,"lon":-75.49044},"country":"CO","name":"Aranzazu"},{"_id":3689771,"coord":{"lat":5.51972,"lon":-72.887497},"country":"CO","name":"Aquitania"},{"_id":3689793,"coord":{"lat":5.10645,"lon":-75.943176},"country":"CO","name":"Apia"},{"_id":3689802,"coord":{"lat":4.62996,"lon":-75.09539},"country":"CO","name":"Anzoategui"},{"_id":3689816,"coord":{"lat":6.55687,"lon":-75.828056},"country":"CO","name":"Antioquia"},{"_id":3689841,"coord":{"lat":4.83362,"lon":-74.499496},"country":"CO","name":"Anolaima"},{"_id":3689877,"coord":{"lat":6.11072,"lon":-75.709229},"country":"CO","name":"Angelopolis"},{"_id":3689915,"coord":{"lat":1.2703,"lon":-77.515747},"country":"CO","name":"Ancuya"},{"_id":3689979,"coord":{"lat":4.78405,"lon":-74.76268},"country":"CO","name":"Ambalema"},{"_id":3690010,"coord":{"lat":6.91016,"lon":-75.077637},"country":"CO","name":"Amalfi"},{"_id":3690030,"coord":{"lat":4.56612,"lon":-74.962288},"country":"CO","name":"Alvarado"},{"_id":3690102,"coord":{"lat":2.06278,"lon":-75.787216},"country":"CO","name":"Altamira"},{"_id":3690136,"coord":{"lat":1.917,"lon":-76.852333},"country":"CO","name":"Almaguer"},{"_id":3690160,"coord":{"lat":2.52295,"lon":-75.314919},"country":"CO","name":"Algeciras"},{"_id":3690172,"coord":{"lat":10.18694,"lon":-74.575279},"country":"CO","name":"Algarrobo"},{"_id":3690226,"coord":{"lat":0.88283,"lon":-77.701027},"country":"CO","name":"Aldana"},{"_id":3690237,"coord":{"lat":4.67472,"lon":-75.782501},"country":"CO","name":"Alcala"},{"_id":3690250,"coord":{"lat":11.16099,"lon":-72.592377},"country":"CO","name":"Albania"},{"_id":3690262,"coord":{"lat":1.32866,"lon":-75.878242},"country":"CO","name":"Albania"},{"_id":3690264,"coord":{"lat":4.87661,"lon":-74.437683},"country":"CO","name":"Alban"},{"_id":3690549,"coord":{"lat":8.56818,"lon":-74.554047},"country":"CO","name":"Achi"},{"_id":3690552,"coord":{"lat":1.83606,"lon":-75.85498},"country":"CO","name":"Acevedo"},{"_id":3690572,"coord":{"lat":8.50633,"lon":-77.27784},"country":"CO","name":"Acandi"},{"_id":3690582,"coord":{"lat":6.63148,"lon":-76.064438},"country":"CO","name":"Abriaqui"},{"_id":3690584,"coord":{"lat":8.08065,"lon":-73.220543},"country":"CO","name":"Abrego"},{"_id":3732273,"coord":{"lat":7.17,"lon":-73.093063},"country":"CO","name":"Los Santos"},{"_id":3732964,"coord":{"lat":3.5251,"lon":-74.021561},"country":"CO","name":"Lejanias"},{"_id":3733434,"coord":{"lat":2.77411,"lon":-72.86834},"country":"CO","name":"El Dorado"},{"_id":3733861,"coord":{"lat":1.03327,"lon":-75.91906},"country":"CO","name":"Curillo"},{"_id":3735680,"coord":{"lat":1.5209,"lon":-77.262062},"country":"CO","name":"Santacruz"},{"_id":3738301,"coord":{"lat":8.57562,"lon":-73.094887},"country":"CO","name":"El Tarra"},{"_id":3763578,"coord":{"lat":3.38464,"lon":-74.044243},"country":"CO","name":"Mesetas"},{"_id":3766939,"coord":{"lat":6.5213,"lon":-76.972343},"country":"CO","name":"Bellavista"},{"_id":3769623,"coord":{"lat":4.88556,"lon":-73.368889},"country":"CO","name":"Chivor"},