{"countryCityList":[{"_id":3746183,"coord":{"lat":23.13833,"lon":-82.364166},"country":"CU","name":"Centro Habana"},{"_id":3566062,"coord":{"lat":21.35,"lon":-77.849998},"country":"CU","name":"Provincia de Camagüey"},{"_id":3566067,"coord":{"lat":21.380831,"lon":-77.916939},"country":"CU","name":"Camaguey"},{"_id":3564175,"coord":{"lat":21.9,"lon":-78.599998},"country":"CU","name":"Provincia de Ciego de Ávila"},{"_id":3564178,"coord":{"lat":21.84,"lon":-78.76194},"country":"CU","name":"Ciego de Avila"},{"_id":3550595,"coord":{"lat":21.1,"lon":-76.900002},"country":"CU","name":"Las Tunas"},{"_id":3550598,"coord":{"lat":20.96167,"lon":-76.951111},"country":"CU","name":"Las Tunas"},{"_id":3556965,"coord":{"lat":20.799999,"lon":-75.75},"country":"CU","name":"Provincia de Holguín"},{"_id":3556969,"coord":{"lat":20.88722,"lon":-76.263062},"country":"CU","name":"Holguin"},{"_id":3558052,"coord":{"lat":20.25,"lon":-77},"country":"CU","name":"Provincia Granma"},{"_id":3567597,"coord":{"lat":20.379169,"lon":-76.643333},"country":"CU","name":"Bayamo"},{"_id":3536725,"coord":{"lat":20.25,"lon":-76},"country":"CU","name":"Provincia de Santiago de Cuba"},{"_id":3536729,"coord":{"lat":20.024719,"lon":-75.821938},"country":"CU","name":"Santiago de Cuba"},{"_id":3534168,"coord":{"lat":22.5,"lon":-80},"country":"CU","name":"Provincia de Villa Clara"},{"_id":3537900,"coord":{"lat":22.16667,"lon":-79.76667},"country":"CU","name":"Santa Clara"},{"_id":3558744,"coord":{"lat":22.103889,"lon":-79.721672},"country":"CU","name":"Fomento"},{"_id":7668824,"coord":{"lat":22.813999,"lon":-82.756058},"country":"CU","name":"Provincia Artemisa"},{"_id":3541999,"coord":{"lat":22.34083,"lon":-80.55722},"country":"CU","name":"Rodas"},{"_id":3556077,"coord":{"lat":20.96917,"lon":-76.299438},"country":"CU","name":"Jobabo"},{"_id":3557801,"coord":{"lat":22.92639,"lon":-82.6875},"country":"CU","name":"Guanajay"},{"_id":3558315,"coord":{"lat":21.10972,"lon":-76.131668},"country":"CU","name":"Gibara"},{"_id":3746938,"coord":{"lat":20.751671,"lon":-76.026939},"country":"CU","name":"Baguanos"},{"_id":3564073,"coord":{"lat":23.08333,"lon":-82.300003},"country":"CU","name":"Provincia de La Habana"},{"_id":3553478,"coord":{"lat":23.13302,"lon":-82.383041},"country":"CU","name":"Havana"},{"_id":3547394,"coord":{"lat":22.66667,"lon":-81.166672},"country":"CU","name":"Provincia de Matanzas"},{"_id":3547398,"coord":{"lat":23.041109,"lon":-81.577499},"country":"CU","name":"Matanzas"},{"_id":3544091,"coord":{"lat":22.4175,"lon":-83.698059},"country":"CU","name":"Pinar del Rio"},{"_id":3540665,"coord":{"lat":22,"lon":-79.25},"country":"CU","name":"Provincia de Sancti Spíritus"},{"_id":3540667,"coord":{"lat":21.92972,"lon":-79.442497},"country":"CU","name":"Sancti Spiritus"},{"_id":3564124,"coord":{"lat":22.146111,"lon":-80.435562},"country":"CU","name":"Cienfuegos"},{"_id":3533826,"coord":{"lat":22.327221,"lon":-79.237778},"country":"CU","name":"Yaguajay"},{"_id":3539093,"coord":{"lat":20.1875,"lon":-75.85083},"country":"CU","name":"San Luis"},{"_id":3557758,"coord":{"lat":22.202499,"lon":-84.087502},"country":"CU","name":"Guane"},{"_id":3566356,"coord":{"lat":22.520559,"lon":-79.466942},"country":"CU","name":"Caibarien"},{"_id":3542759,"coord":{"lat":23.15,"lon":-82.26667},"country":"CU","name":"Rancho Pekita"},{"_id":3562981,"coord":{"lat":22,"lon":-79.5},"country":"CU","name":"Republic of Cuba"},{"_id":3544088,"coord":{"lat":22.41667,"lon":-83.833328},"country":"CU","name":"Provincia de Pinar del Río"},{"_id":3547258,"coord":{"lat":22.26667,"lon":-83.383331},"country":"CU","name":"Media Luna"},{"_id":3564120,"coord":{"lat":22.299999,"lon":-80.5},"country":"CU","name":"Provincia de Cienfuegos"},{"_id":3539201,"coord":{"lat":22.4,"lon":-80.550003},"country":"CU","name":"San Lino"},{"_id":3537511,"coord":{"lat":22.4,"lon":-83.583328},"country":"CU","name":"Santa Juana"},{"_id":3542351,"coord":{"lat":23.01667,"lon":-82.349998},"country":"CU","name":"Residencial Porta"},{"_id":3566714,"coord":{"lat":22.98333,"lon":-82.400002},"country":"CU","name":"Buenavista"},{"_id":3569185,"coord":{"lat":23.066669,"lon":-81.416672},"country":"CU","name":"Almanza"},{"_id":3534452,"coord":{"lat":21.783331,"lon":-79.98333},"country":"CU","name":"Venegas"},{"_id":3539232,"coord":{"lat":22.1,"lon":-84.150002},"country":"CU","name":"San Julián"},{"_id":3550852,"coord":{"lat":22.47917,"lon":-79.925003},"country":"CU","name":"Las Minas"},{"_id":3556608,"coord":{"lat":21.83333,"lon":-82.481941},"country":"CU","name":"Municipio Especial Isla de la Juventud"},{"_id":3534002,"coord":{"lat":21.85,"lon":-82.816673},"country":"CU","name":"Vista del Río"},{"_id":3562914,"coord":{"lat":20.299999,"lon":-77.083328},"country":"CU","name":"Cuentas Claras"},{"_id":3746599,"coord":{"lat":20.647779,"lon":-74.921669},"country":"CU","name":"Rolo Monterrey"},{"_id":3549480,"coord":{"lat":20.78694,"lon":-76.340828},"country":"CU","name":"Los Ángeles"},{"_id":3552838,"coord":{"lat":22.98333,"lon":-82.416672},"country":"CU","name":"La Luisa"},{"_id":3557685,"coord":{"lat":20.25,"lon":-74.75},"country":"CU","name":"Provincia de Guantánamo"},{"_id":3543939,"coord":{"lat":20.084999,"lon":-75.147499},"country":"CU","name":"Platanal"},{"_id":3766955,"coord":{"lat":19.96806,"lon":-75.832222},"country":"CU","name":"Playa de Aguadores"},{"_id":3754913,"coord":{"lat":21.42333,"lon":-77.854721},"country":"CU","name":"El Próximo"},{"_id":3535431,"coord":{"lat":22.133329,"lon":-80.416672},"country":"CU","name":"Tejar la Palma"},{"_id":3539662,"coord":{"lat":22.01667,"lon":-78.800003},"country":"CU","name":"San José"},{"_id":3545365,"coord":{"lat":20.4,"lon":-76.599998},"country":"CU","name":"Padrón"},{"_id":3552028,"coord":{"lat":20.346939,"lon":-74.504723},"country":"CU","name":"La Playa"},{"_id":3536192,"coord":{"lat":21.63139,"lon":-82.959717},"country":"CU","name":"Siguanea"},{"_id":3533753,"coord":{"lat":20.27528,"lon":-76.953331},"country":"CU","name":"Yara"},{"_id":3534094,"coord":{"lat":22.61639,"lon":-83.707779},"country":"CU","name":"Vinales"},{"_id":3534363,"coord":{"lat":21.259439,"lon":-78.146393},"country":"CU","name":"Vertientes"},{"_id":3534432,"coord":{"lat":21.735279,"lon":-78.796387},"country":"CU","name":"Venezuela"},{"_id":3534632,"coord":{"lat":23.15361,"lon":-81.251389},"country":"CU","name":"Varadero"},{"_id":3534761,"coord":{"lat":22.79528,"lon":-81.537498},"country":"CU","name":"Union de Reyes"},{"_id":3534915,"coord":{"lat":21.801941,"lon":-79.984169},"country":"CU","name":"Trinidad"},{"_id":3536259,"coord":{"lat":21.235001,"lon":-77.52639},"country":"CU","name":"Sibanicu"},{"_id":3536640,"coord":{"lat":22.58667,"lon":-80.243607},"country":"CU","name":"Santo Domingo"},{"_id":3536724,"coord":{"lat":22.969999,"lon":-82.38694},"country":"CU","name":"Santiago de las Vegas"},{"_id":3537840,"coord":{"lat":20.71472,"lon":-77.99556},"country":"CU","name":"Santa Cruz del Sur"},{"_id":7668827,"coord":{"lat":22.96155,"lon":-82.147179},"country":"CU","name":"Provincia Mayabeque"},{"_id":3537845,"coord":{"lat":23.153891,"lon":-81.923607},"country":"CU","name":"Santa Cruz del Norte"},{"_id":3537906,"coord":{"lat":22.4,"lon":-79.966667},"country":"CU","name":"Santa Clara"},{"_id":3539560,"coord":{"lat":22.96139,"lon":-82.151108},"country":"CU","name":"San Jose de las Lajas"},{"_id":3540680,"coord":{"lat":22.71417,"lon":-83.048058},"country":"CU","name":"San Cristobal"},{"_id":3540885,"coord":{"lat":22.891109,"lon":-82.499168},"country":"CU","name":"San Antonio de los Banos"},{"_id":3541440,"coord":{"lat":22.806669,"lon":-80.075562},"country":"CU","name":"Sagua la Grande"},{"_id":3541446,"coord":{"lat":20.58194,"lon":-75.241386},"country":"CU","name":"Sagua de Tanamo"},{"_id":3542137,"coord":{"lat":20.366671,"lon":-75.01667},"country":"CU","name":"Rio Guayabal de Yateras"},{"_id":3542167,"coord":{"lat":20.56028,"lon":-76.916107},"country":"CU","name":"Rio Cauto"},{"_id":3542455,"coord":{"lat":22.49472,"lon":-79.54583},"country":"CU","name":"Remedios"},{"_id":3542744,"coord":{"lat":22.37722,"lon":-80.148888},"country":"CU","name":"Ranchuelo"},{"_id":3543299,"coord":{"lat":21.195,"lon":-76.602783},"country":"CU","name":"Puerto Padre"},{"_id":3543498,"coord":{"lat":21.946939,"lon":-78.428329},"country":"CU","name":"Primero de Enero"},{"_id":3543961,"coord":{"lat":22.311939,"lon":-79.653328},"country":"CU","name":"Placetas"},{"_id":3544393,"coord":{"lat":22.769171,"lon":-81.01889},"country":"CU","name":"Perico"},{"_id":3544607,"coord":{"lat":22.727221,"lon":-81.290001},"country":"CU","name":"Pedro Betancourt"},{"_id":3545040,"coord":{"lat":22.241671,"lon":-80.390282},"country":"CU","name":"Palmira"},{"_id":3545064,"coord":{"lat":20.21722,"lon":-75.998894},"country":"CU","name":"Palma Soriano"},{"_id":3545841,"coord":{"lat":21.54528,"lon":-77.264442},"country":"CU","name":"Nuevitas"},{"_id":3545867,"coord":{"lat":21.883329,"lon":-82.800003},"country":"CU","name":"Nueva Gerona"},{"_id":3545981,"coord":{"lat":20.04306,"lon":-77.582779},"country":"CU","name":"Niquero"},{"_id":3546434,"coord":{"lat":22.10944,"lon":-78.627502},"country":"CU","name":"Moron"},{"_id":3546791,"coord":{"lat":20.65694,"lon":-74.940277},"country":"CU","name":"Moa"},{"_id":3546894,"coord":{"lat":21.48333,"lon":-77.616669},"country":"CU","name":"Minas"},{"_id":3547260,"coord":{"lat":20.141939,"lon":-77.434998},"country":"CU","name":"Media Luna"},{"_id":3547600,"coord":{"lat":22.987499,"lon":-82.753609},"country":"CU","name":"Mariel"},{"_id":3547867,"coord":{"lat":20.34333,"lon":-77.116669},"country":"CU","name":"Manzanillo"},{"_id":3547976,"coord":{"lat":22.149441,"lon":-79.97361},"country":"CU","name":"Manicaragua"},{"_id":3548529,"coord":{"lat":22.91139,"lon":-81.85611},"country":"CU","name":"Madruga"},{"_id":3548993,"coord":{"lat":22.587219,"lon":-83.248611},"country":"CU","name":"Los Palacios"},{"_id":3551608,"coord":{"lat":22.871389,"lon":-82.423889},"country":"CU","name":"La Salud"},{"_id":3555907,"coord":{"lat":22.80444,"lon":-81.194443},"country":"CU","name":"Jovellanos"},{"_id":3556168,"coord":{"lat":20.366671,"lon":-76.427223},"country":"CU","name":"Jiguani"},{"_id":3556334,"coord":{"lat":21.94194,"lon":-79.169998},"country":"CU","name":"Jatibonico"},{"_id":3556351,"coord":{"lat":23.04306,"lon":-82.010834},"country":"CU","name":"Jaruco"},{"_id":3556437,"coord":{"lat":22.526939,"lon":-81.128609},"country":"CU","name":"Jaguey Grande"},{"_id":3557332,"coord":{"lat":20.254999,"lon":-76.538612},"country":"CU","name":"Guisa"},{"_id":3557347,"coord":{"lat":22.79056,"lon":-82.50528},"country":"CU","name":"Guira de Melena"},{"_id":3557378,"coord":{"lat":22.836109,"lon":-82.028061},"country":"CU","name":"Gueines"},{"_id":3557689,"coord":{"lat":20.14444,"lon":-75.209167},"country":"CU","name":"Guantanamo"},{"_id":3557923,"coord":{"lat":21.049999,"lon":-77.349998},"country":"CU","name":"Guaimaro"},{"_id":3558771,"coord":{"lat":21.524719,"lon":-78.22583},"country":"CU","name":"Florida"},{"_id":3559318,"coord":{"lat":21.852501,"lon":-78.116943},"country":"CU","name":"Esmeralda"},{"_id":3559416,"coord":{"lat":22.61694,"lon":-79.871109},"country":"CU","name":"Encrucijada"},{"_id":3562827,"coord":{"lat":22.149441,"lon":-80.202217},"country":"CU","name":"Cumanayagua"},{"_id":3562895,"coord":{"lat":20.64389,"lon":-75.935562},"country":"CU","name":"Cueto"},{"_id":3563145,"coord":{"lat":22.34111,"lon":-80.26667},"country":"CU","name":"Cruces"},{"_id":3563317,"coord":{"lat":22.981939,"lon":-80.585564},"country":"CU","name":"Corralillo"},{"_id":3563504,"coord":{"lat":20.297779,"lon":-76.241386},"country":"CU","name":"Contramaestre"},{"_id":3563559,"coord":{"lat":22.504721,"lon":-83.513611},"country":"CU","name":"Consolacion del Sur"},{"_id":3563609,"coord":{"lat":21.876671,"lon":-79.840279},"country":"CU","name":"Condado"},{"_id":3563843,"coord":{"lat":22.71917,"lon":-80.90583},"country":"CU","name":"Colon"},{"_id":3563856,"coord":{"lat":20.98806,"lon":-77.429718},"country":"CU","name":"Colombia"},{"_id":3564114,"coord":{"lat":22.645,"lon":-80.046112},"country":"CU","name":"Cifuentes"},{"_id":3564394,"coord":{"lat":22.19278,"lon":-78.913612},"country":"CU","name":"Chambas"},{"_id":3565432,"coord":{"lat":23.0375,"lon":-81.20472},"country":"CU","name":"Cardenas"},{"_id":3565951,"coord":{"lat":20.234171,"lon":-77.278893},"country":"CU","name":"Campechuela"},{"_id":3566054,"coord":{"lat":22.48333,"lon":-79.75},"country":"CU","name":"Camajuani"},{"_id":3566134,"coord":{"lat":22.533331,"lon":-80.906113},"country":"CU","name":"Calimete"},{"_id":3566603,"coord":{"lat":22.07889,"lon":-79.499168},"country":"CU","name":"Cabaiguan"},{"_id":3567546,"coord":{"lat":22.92861,"lon":-82.388611},"country":"CU","name":"Bejucal"},{"_id":3567612,"coord":{"lat":22.98278,"lon":-82.546387},"country":"CU","name":"Bauta"},{"_id":3567823,"coord":{"lat":21.696671,"lon":-78.632782},"country":"CU","name":"Baragua"},{"_id":3567834,"coord":{"lat":20.34667,"lon":-74.495827},"country":"CU","name":"Baracoa"},{"_id":3567869,"coord":{"lat":20.9625,"lon":-75.718613},"country":"CU","name":"Banes"},{"_id":3567995,"coord":{"lat":22.90361,"lon":-83.159172},"country":"CU","name":"Bahia Honda"},{"_id":3568312,"coord":{"lat":22.813061,"lon":-82.76194},"country":"CU","name":"Artemisa"},{"_id":3569136,"coord":{"lat":22.80583,"lon":-82.584167},"country":"CU","name":"Alquizar"},{"_id":3569370,"coord":{"lat":23.158331,"lon":-82.276939},"country":"CU","name":"Alamar"},{"_id":3569546,"coord":{"lat":22.385,"lon":-80.85083},"country":"CU","name":"Aguada de Pasajeros"},{"_id":3569741,"coord":{"lat":22.2775,"lon":-80.567497},"country":"CU","name":"Abreus"},{"_id":3533556,"coord":{"lat":21.996111,"lon":-79.366943},"country":"CU","name":"Zaza del Medio"},{"_id":3538758,"coord":{"lat":22.784439,"lon":-81.91333},"country":"CU","name":"San Nicolas"},{"_id":3539092,"coord":{"lat":22.27861,"lon":-83.761108},"country":"CU","name":"San Luis"},{"_id":3540618,"coord":{"lat":22.646669,"lon":-83.36972},"country":"CU","name":"San Diego de los Banos"},{"_id":3542753,"coord":{"lat":22.88056,"lon":-80.39167},"country":"CU","name":"Rancho Veloz"},{"_id":3542965,"coord":{"lat":22.823059,"lon":-82.355003},"country":"CU","name":"Quivican"},{"_id":3543077,"coord":{"lat":22.78528,"lon":-80.253609},"country":"CU","name":"Quemado de Guines"},{"_id":3547181,"coord":{"lat":22.78813,"lon":-82.151382},"country":"CU","name":"Melena del Sur"},{"_id":3547519,"coord":{"lat":22.9475,"lon":-80.92028},"country":"CU","name":"Marti"},{"_id":3547930,"coord":{"lat":22.288891,"lon":-84.284439},"country":"CU","name":"Mantua"},{"_id":3548000,"coord":{"lat":22.58806,"lon":-80.914436},"country":"CU","name":"Manguito"},{"_id":3548099,"coord":{"lat":21.3125,"lon":-76.937782},"country":"CU","name":"Manati"},{"_id":3549463,"coord":{"lat":22.72806,"lon":-80.72139},"country":"CU","name":"Los Arabos"},{"_id":3556406,"coord":{"lat":22.97917,"lon":-82.17028},"country":"CU","name":"Jamaica"},{"_id":3547180,"coord":{"lat":22.78821,"lon":-82.151131},"country":"CU","name":"Municipio de Melena del Sur"},{"_id":3557678,"coord":{"lat":22.809999,"lon":-82.203056},"country":"CU","name":"Guara"},{"_id":3558032,"coord":{"lat":22.811119,"lon":-82.147476},"country":"CU","name":"Manalich"},{"_id":3559235,"coord":{"lat":22.450001,"lon":-80.099998},"country":"CU","name":"Esperanza"},{"_id":3561408,"coord":{"lat":20.048889,"lon":-75.946