{"countryCityList":[{"_id":360542,"coord":{"lat":30.61618,"lon":31.73514},"country":"EG","name":"Al Qurayn"},{"_id":361495,"coord":{"lat":29.61972,"lon":31.2575},"country":"EG","name":"Al Ayyat"},{"_id":362882,"coord":{"lat":30.910179,"lon":30.174379},"country":"EG","name":"Abu al Matamir"},{"_id":350789,"coord":{"lat":30.17922,"lon":31.205601},"country":"EG","name":"Qalyub"},{"_id":355795,"coord":{"lat":29.84144,"lon":31.30084},"country":"EG","name":"Halwan"},{"_id":356933,"coord":{"lat":26.054939,"lon":32.163288},"country":"EG","name":"Farshut"},{"_id":356945,"coord":{"lat":31.329769,"lon":31.715071},"country":"EG","name":"Faraskur"},{"_id":356989,"coord":{"lat":30.730061,"lon":31.801821},"country":"EG","name":"Faqus"},{"_id":358095,"coord":{"lat":30.754219,"lon":31.439251},"country":"EG","name":"Diyarb Najm"},{"_id":358108,"coord":{"lat":31.133051,"lon":30.64649},"country":"EG","name":"Disuq"},{"_id":358115,"coord":{"lat":26.12467,"lon":32.475979},"country":"EG","name":"Dishna"},{"_id":358172,"coord":{"lat":31.088711,"lon":31.594271},"country":"EG","name":"Dikirnis"},{"_id":358269,"coord":{"lat":27.556021,"lon":30.80764},"country":"EG","name":"Dayrut"},{"_id":358274,"coord":{"lat":27.64176,"lon":30.846621},"country":"EG","name":"Dayr Mawas"},{"_id":358970,"coord":{"lat":30.93976,"lon":30.813379},"country":"EG","name":"Basyun"},{"_id":359173,"coord":{"lat":29.074409,"lon":31.097851},"country":"EG","name":"Bani Suwayf"},{"_id":359280,"coord":{"lat":30.459061,"lon":31.178579},"country":"EG","name":"Banha"},{"_id":359576,"coord":{"lat":30.12303,"lon":31.13571},"country":"EG","name":"Awsim"},{"_id":359710,"coord":{"lat":30.544479,"lon":31.78525},"country":"EG","name":"At Tall al Kabir"},{"_id":359797,"coord":{"lat":29.700001,"lon":32.299999},"country":"EG","name":"Muḩāfaz̧at as Suways"},{"_id":360048,"coord":{"lat":30.298571,"lon":30.976351},"country":"EG","name":"Ashmun"},{"_id":360464,"coord":{"lat":29.33778,"lon":31.205561},"country":"EG","name":"Al Wasitah"},{"_id":7603259,"coord":{"lat":25.700001,"lon":32.650002},"country":"EG","name":"Muḩāfaz̧at al Uqşur"},{"_id":360531,"coord":{"lat":26.104259,"lon":34.277931},"country":"EG","name":"Al Qusayr"},{"_id":360612,"coord":{"lat":30.618799,"lon":31.460991},"country":"EG","name":"Al Qanayat"},{"_id":360615,"coord":{"lat":30.19327,"lon":31.13703},"country":"EG","name":"Al Qanatir al Khayriyah"},{"_id":360754,"coord":{"lat":31.15815,"lon":31.937},"country":"EG","name":"Al Manzilah"},{"_id":360928,"coord":{"lat":30.21035,"lon":31.36812},"country":"EG","name":"Al Khankah"},{"_id":360995,"coord":{"lat":30.00808,"lon":31.21093},"country":"EG","name":"Al Jizah"},{"_id":361103,"coord":{"lat":30.718769,"lon":31.56299},"country":"EG","name":"Al Ibrahimiyah"},{"_id":361179,"coord":{"lat":29.9,"lon":31.25},"country":"EG","name":"Al Hawamidiyah"},{"_id":361329,"coord":{"lat":28.82431,"lon":30.899481},"country":"EG","name":"Al Fashn"},{"_id":361394,"coord":{"lat":28.34919,"lon":28.86591},"country":"EG","name":"Al Bawiti"},{"_id":361435,"coord":{"lat":26.23568,"lon":32.003471},"country":"EG","name":"Al Balyana"},{"_id":361457,"coord":{"lat":30.43026,"lon":31.03681},"country":"EG","name":"Al Bajur"},{"_id":361478,"coord":{"lat":26.992571,"lon":31.415541},"country":"EG","name":"Al Badari"},{"_id":361546,"coord":{"lat":31.13159,"lon":33.798439},"country":"EG","name":"Al Arish"},{"_id":361661,"coord":{"lat":26.56217,"lon":31.745029},"country":"EG","name":"Akhmim"},{"_id":361702,"coord":{"lat":30.94154,"lon":31.29151},"country":"EG","name":"Aja"},{"_id":361827,"coord":{"lat":30.827909,"lon":30.536329},"country":"EG","name":"Ad Dilinjat"},{"_id":362277,"coord":{"lat":27.9312,"lon":30.838409},"country":"EG","name":"Abu Qurqas"},{"_id":362485,"coord":{"lat":30.72508,"lon":31.67148},"country":"EG","name":"Abu Kabir"},{"_id":362973,"coord":{"lat":27.2696,"lon":31.151051},"country":"EG","name":"Abnub"},{"_id":419435,"coord":{"lat":31.20829,"lon":31.63554},"country":"EG","name":"Az Zarqa"},{"_id":7521348,"coord":{"lat":29.60018,"lon":32.316711},"country":"EG","name":"Ain Sukhna"},{"_id":359678,"coord":{"lat":28.23638,"lon":33.625401},"country":"EG","name":"Tor"},{"_id":7910966,"coord":{"lat":30.51478,"lon":30.34355},"country":"EG","name":"Beheira"},{"_id":346030,"coord":{"lat":30.714199,"lon":31.244249},"country":"EG","name":"Zifta"},{"_id":347236,"coord":{"lat":30.353939,"lon":31.20071},"country":"EG","name":"Toukh"},{"_id":347542,"coord":{"lat":29.476391,"lon":30.961189},"country":"EG","name":"Tamiyah"},{"_id":347634,"coord":{"lat":26.7693,"lon":31.50214},"country":"EG","name":"Tahta"},{"_id":347749,"coord":{"lat":28.91667,"lon":30.85},"country":"EG","name":"Sumusta as Sultani"},{"_id":348112,"coord":{"lat":31.271049,"lon":30.78665},"country":"EG","name":"Sidi Salim"},{"_id":349114,"coord":{"lat":31.19544,"lon":31.521271},"country":"EG","name":"Shirbin"},{"_id":349156,"coord":{"lat":30.312691,"lon":31.320181},"country":"EG","name":"Shibin al Qanatir"},{"_id":349715,"coord":{"lat":30.960329,"lon":31.24332},"country":"EG","name":"Samannud"},{"_id":349717,"coord":{"lat":28.31214,"lon":30.71007},"country":"EG","name":"Samalut"},{"_id":350370,"coord":{"lat":30.564819,"lon":31.15777},"country":"EG","name":"Quwaysina"},{"_id":350376,"coord":{"lat":30.97225,"lon":30.956141},"country":"EG","name":"Qutur"},{"_id":350422,"coord":{"lat":25.91407,"lon":32.763618},"country":"EG","name":"Kousa"},{"_id":352344,"coord":{"lat":31.12294,"lon":31.6399},"country":"EG","name":"Minyat an Nasr"},{"_id":352354,"coord":{"lat":30.46579,"lon":30.931641},"country":"EG","name":"Minuf"},{"_id":352628,"coord":{"lat":28.418989,"lon":30.77924},"country":"EG","name":"Matay"},{"_id":352679,"coord":{"lat":30.360559,"lon":31.3776},"country":"EG","name":"Mashtul as Suq"},{"_id":352913,"coord":{"lat":27.3104,"lon":30.970039},"country":"EG","name":"Manfalut"},{"_id":353219,"coord":{"lat":29.816669,"lon":31.049999},"country":"EG","name":"Madinat Sittah Uktubar"},{"_id":353828,"coord":{"lat":30.76096,"lon":30.69733},"country":"EG","name":"Kawm Hamadah"},{"_id":354105,"coord":{"lat":30.79336,"lon":31.62575},"country":"EG","name":"Kafr Saqr"},{"_id":354502,"coord":{"lat":31.1143,"lon":30.940121},"country":"EG","name":"Kafr ash Shaykh"},{"_id":354775,"coord":{"lat":31.13385,"lon":30.128429},"country":"EG","name":"Kafr ad Dawwar"},{"_id":354981,"coord":{"lat":26.673189,"lon":31.497601},"country":"EG","name":"Juhaynah"},{"_id":355392,"coord":{"lat":31.5084,"lon":31.841061},"country":"EG","name":"Izbat al Burj"},{"_id":355420,"coord":{"lat":29.2376,"lon":30.78944},"country":"EG","name":"Itsa"},{"_id":355648,"coord":{"lat":29.35804,"lon":30.681419},"country":"EG","name":"Ibshaway"},{"_id":355939,"coord":{"lat":30.671301,"lon":31.588011},"country":"EG","name":"Hihya"},{"_id":356000,"coord":{"lat":30.9128,"lon":30.29018},"country":"EG","name":"Hawsh Isa"},{"_id":356806,"coord":{"lat":31.202909,"lon":30.55018},"country":"EG","name":"Fuwah"},{"_id":358600,"coord":{"lat":29.148161,"lon":31.127331},"country":"EG","name":"Bush"},{"_id":358821,"coord":{"lat":31.21452,"lon":31.357981},"country":"EG","name":"Bilqas Qism Awwal"},{"_id":359953,"coord":{"lat":30.59618,"lon":30.89875},"country":"EG","name":"Ash Shuhada"},{"_id":360526,"coord":{"lat":27.440201,"lon":30.818411},"country":"EG","name":"Al Qusiyah"},{"_id":360686,"coord":{"lat":28.10988,"lon":30.750299},"country":"EG","name":"Al Minya"},{"_id":360716,"coord":{"lat":31.182871,"lon":32.031078},"country":"EG","name":"Al Matariyah"},{"_id":360773,"coord":{"lat":26.47686,"lon":31.803499},"country":"EG","name":"Al Manshah"},{"_id":361029,"coord":{"lat":31.180861,"lon":31.865179},"country":"EG","name":"Al Jamaliyah"},{"_id":361213,"coord":{"lat":31.31146,"lon":31.147659},"country":"EG","name":"Al Hamul"},{"_id":6692512,"coord":{"lat":27.394171,"lon":33.678249},"country":"EG","name":"El Gouna"},{"_id":6692518,"coord":{"lat":26.99123,"lon":33.899521},"country":"EG","name":"Makadi Bay"},{"_id":357994,"coord":{"lat":27,"lon":30},"country":"EG","name":"Arab Republic of Egypt"},{"_id":360688,"coord":{"lat":28.1,"lon":30},"country":"EG","name":"Muḩāfaz̧at al Minyā"},{"_id":432887,"coord":{"lat":28.1054,"lon":30.603649},"country":"EG","name":"Al Amal (Nimrah Thamāniyah)"},{"_id":361323,"coord":{"lat":29.299999,"lon":30.5},"country":"EG","name":"Muḩāfaz̧at al Fayyūm"},{"_id":359416,"coord":{"lat":29.139429,"lon":31.012251},"country":"EG","name":"Bāhā"},{"_id":361056,"coord":{"lat":30.6,"lon":32.400002},"country":"EG","name":"Muḩāfaz̧at al Ismā‘īlīyah"},{"_id":349598,"coord":{"lat":30.375561,"lon":32.291111},"country":"EG","name":"Sarābiyūm"},{"_id":361370,"coord":{"lat":30.6,"lon":30.200001},"country":"EG","name":"Muḩāfaz̧at al Buḩayrah"},{"_id":408911,"coord":{"lat":30.581699,"lon":30.07633},"country":"EG","name":"Al Wiḩdah"},{"_id":357678,"coord":{"lat":30.5644,"lon":32.260559},"country":"EG","name":"‘Izbat Abū ‘Aţwah"},{"_id":358448,"coord":{"lat":31.039169,"lon":30.469139},"country":"EG","name":"Damanhur"},{"_id":355182,"coord":{"lat":29,"lon":33.799999},"country":"EG","name":"Muḩāfaz̧at Janūb Sīnā’"},{"_id":349340,"coord":{"lat":27.85183,"lon":34.304989},"country":"EG","name":"Sharm ash Shaykh"},{"_id":360631,"coord":{"lat":30.049999,"lon":31.65},"country":"EG","name":"Muḩāfaz̧at al Qāhirah"},{"_id":7922173,"coord":{"lat":30.050699,"lon":31.251961},"country":"EG","name":"Al ‘Atabah"},{"_id":361059,"coord":{"lat":31,"lon":29.75},"country":"EG","name":"Muḩāfaz̧at al Iskandarīyah"},{"_id":361058,"coord":{"lat":31.215639,"lon":29.955271},"country":"EG","name":"Alexandria"},{"_id":360015,"coord":{"lat":31.200001,"lon":29.91667},"country":"EG","name":"Ash Shāţibī"},{"_id":361320,"coord":{"lat":29.30995,"lon":30.841801},"country":"EG","name":"Al Fayyum"},{"_id":361294,"coord":{"lat":30.9,"lon":31},"country":"EG","name":"Muḩāfaz̧at al Gharbīyah"},{"_id":347497,"coord":{"lat":30.788469,"lon":31.001921},"country":"EG","name":"Tanda"},{"_id":361468,"coord":{"lat":27.186239,"lon":33.788448},"country":"EG","name":"Muḩāfaz̧at al Baḩr al Aḩmar"},{"_id":6692521,"coord":{"lat":27.25425,"lon":33.82682},"country":"EG","name":"Port el Ghalib"},{"_id":354365,"coord":{"lat":30.8248,"lon":30.81805},"country":"EG","name":"Kafr az Zayyat"},{"_id":360016,"coord":{"lat":30.700001,"lon":31.799999},"country":"EG","name":"Muḩāfaz̧at ash Sharqīyah"},{"_id":359493,"coord":{"lat":30.587681,"lon":31.502001},"country":"EG","name":"Az Zaqaziq"},{"_id":360621,"coord":{"lat":30.299999,"lon":31.25},"country":"EG","name":"Muḩāfaz̧at al Qalyūbīyah"},{"_id":351022,"coord":{"lat":30.466669,"lon":31.183331},"country":"EG","name":"Nişf Atrīb"},{"_id":350546,"coord":{"lat":25.799999,"lon":32.75},"country":"EG","name":"Muḩāfaz̧at Qinā"},{"_id":350550,"coord":{"lat":26.164181,"lon":32.726711},"country":"EG","name":"Qina"},{"_id":357542,"coord":{"lat":29.865339,"lon":31.30526},"country":"EG","name":"‘Ezbet el-Auqât"},{"_id":359781,"coord":{"lat":27.200001,"lon":31.1},"country":"EG","name":"Muḩāfaz̧at Asyūţ"},{"_id":359783,"coord":{"lat":27.18096,"lon":31.18368},"country":"EG","name":"Asyut"},{"_id":347794,"coord":{"lat":26.5,"lon":31.700001},"country":"EG","name":"Muḩāfaz̧at Sūhāj"},{"_id":347796,"coord":{"lat":26.55695,"lon":31.69478},"country":"EG","name":"Suhaj"},{"_id":358044,"coord":{"lat":31.35,"lon":31.75},"country":"EG","name":"Muḩāfaz̧at Dumyāţ"},{"_id":358048,"coord":{"lat":31.416479,"lon":31.81332},"country":"EG","name":"Damietta"},{"_id":359787,"coord":{"lat":23.299999,"lon":32.900002},"country":"EG","name":"Muḩāfaz̧at Aswān"},{"_id":359792,"coord":{"lat":24.09343,"lon":32.90704},"country":"EG","name":"Aswan"},{"_id":358617,"coord":{"lat":31.1,"lon":32.299999},"country":"EG","name":"Muḩāfaz̧at Būr Sa‘īd"},{"_id":412814,"coord":{"lat":31.26667,"lon":32.299999},"country":"EG","name":"Syria"},{"_id":351483,"coord":{"lat":25.683331,"lon":32.633331},"country":"EG","name":"Naj‘ al Khuţbah"},{"_id":361849,"coord":{"lat":31.1,"lon":31.6},"country":"EG","name":"Muḩāfaz̧at ad Daqahlīyah"},{"_id":347591,"coord":{"lat":31.0539,"lon":31.377871},"country":"EG","name":"Talkha"},{"_id":349852,"coord":{"lat":26.76667,"lon":31.5},"country":"EG","name":"Sāḩil Ţahţā"},{"_id":359212,"coord":{"lat":28.503599,"lon":30.8004},"country":"EG","name":"Bani Mazar"},{"_id":359171,"coord":{"lat":28.9,"lon":30.6},"country":"EG","name":"Muḩāfaz̧at Banī Suwayf"},{"_id":361024,"coord":{"lat":29.066669,"lon":31.08333},"country":"EG","name":"Al Janādilah"},{"_id":360829,"coord":{"lat":30.974501,"lon":31.164989},"country":"EG","name":"Al Mahallah al Kubra"},{"_id":360689,"coord":{"lat":30.5,"lon":31},"country":"EG","name":"Muḩāfaz̧at al Minūfīyah"},{"_id":347612,"coord":{"lat":30.68025,"lon":30.942921},"country":"EG","name":"Tala"},{"_id":353223,"coord":{"lat":30.36742,"lon":30.508711},"country":"EG","name":"Madīnat as Sādāt"},{"_id":362004,"coord":{"lat":27.044109,"lon":31.31897},"country":"EG","name":"Abu Tij"},{"_id":7916170,"coord":{"lat":30.125549,"lon":31.23937},"country":"EG","name":"Masākin al Akhshāb wa ash Shāy"},{"_id":354076,"coord":{"lat":30.549721,"lon":31.24444},"country":"EG","name":"Kafr Shukr"},{"_id":358620,"coord":{"lat":26.729179,"lon":33.936508},"country":"EG","name":"Bur Safajah"},{"_id":349158,"coord":{"lat":30.55258,"lon":31.009041},"country":"EG","name":"Shibin al Kawm"},{"_id":352951,"coord":{"lat":27.7314,"lon":30.84165},"country":"EG","name":"Mallawi"},{"_id":360761,"coord":{"lat":31.036369,"lon":31.38069},"country":"EG","name":"Al Mansurah"},{"_id":362610,"coord":{"lat":30.533331,"lon":31.66667},"country":"EG","name":"Abū Ḩammād al Maḩaţţah"},{"_id":355628,"coord":{"lat":31.307819,"lon":30.299009},"country":"EG","name":"Idku"},{"_id":350203,"coord":{"lat":31.40444,"lon":30.416389},"country":"EG","name":"Rosetta"},{"_id":351434,"coord":{"lat":26.04949,"lon":32.241421},"country":"EG","name":"Naj Hammadi"},{"_id":355026,"coord":{"lat":26.338261,"lon":31.891609},"country":"EG","name":"Jirja"},{"_id":360997,"coord":{"lat":29.997761,"lon":31.05286},"country":"EG","name":"Muḩāfaz̧at al Jīzah"},{"_id":359900,"coord":{"lat":29.56472,"lon":31.281111},"country":"EG","name":"As Saff"},{"_id":358840,"coord":{"lat":30.420389,"lon":31.562229},"country":"EG","name":"Bilbays"},{"_id":346315,"coord":{"lat":29.029169,"lon":34.67083},"country":"EG","name":"Wāsiţ"},{"_id":353802,"coord":{"lat":24.47669,"lon":32.946259},"country":"EG","name":"Kawm Umbu"},{"_id":355015,"coord":{"lat":30.463051,"lon":30.84684},"country":"EG","name":"Jizayy"},{"_id":354500,"coord":{"lat":31.299999,"lon":30.9},"country":"EG","name":"Muḩāfaz̧at Kafr ash Shaykh"},{"_id":359304,"coord":{"lat":31.55463,"lon":31.09094},"country":"EG","name":"Balṭîm"},{"_id":411165,"coord":{"lat":24.98028,"lon":32.874722},"country":"EG","name":"Idfu"},{"_id":352603,"coord":{"lat":29.700001,"lon":27.5},"country":"EG","name":"Muḩāfaz̧at Maţrūḩ"},{"_id":352733,"coord":{"lat":31.352539,"lon":27.245279},"country":"EG","name":"Marsa Matruh"},{"_id":7522531,"coord":{"lat":30.12191,"lon":31.40551},"country":"EG","name":"testing"},{"_id":359927,"coord":{"lat":29.48028,"lon":31.04417},"country":"EG","name":"Aşlān"},{"_id":355005,"coord":{"lat":28.1984,"lon":33.631371},"country":"EG","name":"Al Jubayl"},{"_id":351388,"coord":{"lat":24,"lon":32.866669},"country":"EG","name":"Naj‘ Tinjār"},{"_id":7280514,"coord":{"lat":27.913811,"lon":34.329529},"country":"EG","name":"Naama"},{"_id":414338,"coord":{"lat":28.664721,"lon":33.87167},"country":"EG","name":"‘Uqrat Şafḩah"},{"_id":410366,"coord":{"lat":31.26573,"lon":32.27438},"country":"EG","name":"Al Manākh"},{"_id":361133,"coord":{"lat":25.66667,"lon":32.666672},"country":"EG","name":"Al Ḩubayl"},{"_id":361291,"coord":{"lat":27.25738,"lon":33.812908},"country":"EG","name":"Al Ghardaqah"},{"_id":362041,"coord":{"lat":22.345699,"lon":31.61624},"country":"EG","name":"Abu Sunbul"},{"_id":358333,"coord":{"lat":30.9,"lon":29.683331},"country":"EG","name":"Dawwār Abū al ‘Āşī"},{"_id":415505,"coord":{"lat":31.17889,"lon":29.936859},"country":"EG","name":"‘Izbat Nādī aş Şayd"},{"_id":359256,"coord":{"lat":27.198879,"lon":31.049351},"country":"EG","name":"Banī Ghālib"},{"_id":349401,"coord":{"lat":30.5,"lon":33.700001},"country":"EG","name":"Muḩāfaz̧at Shamāl Sīnā’"},{"_id":357790,"coord":{"lat":31.133329,"lon":33.816669},"country":"EG","name":"El-Qushlâqât"},{"_id":355449,"coord":{"lat":25.29336,"lon":32.55402},"country":"EG","name":"Isna"},{"_id":358619,"coord":{"lat":31.25654,"lon":32.284119},"country":"EG","name":"Port Said"},{"_id":359796,"coord":{"lat":29.973709,"lon":32.526272},"country":"EG","name":"Suez"},{"_id":360502,"coord":{"lat":25.698931,"lon":32.642101},"country":"EG","name":"Luxor"},{"_id":360630,"coord":{"lat":30.06263,"lon":31.24967},"country":"EG","name":"Cairo"},{"_id":361055,"coord":{"lat":30.604271,"lon":32.272251},"country":"EG","name":"Ismailia"},{"_id":347863,"coord":{"lat":29.20409,"lon":25.51952},"country":"EG","name":"Siwah"},{"_id":360483,"coord":{"lat":24.799999,"lon":28.9},"country":"EG","name":"Muḩāfaz̧at al Wādī al Jadīd"},{"_id":350661,"coord":{"lat":27.056801,"lon":27.96979},"country":"EG","name":"Qasr al Farafirah"},{"_id":350893,"coord":{"lat":29.04681,"lon":34.663399},"country":"EG","name":"Nuwaybia"},{"_id":352736,"coord":{"lat":25.075729,"lon":34.891811},"country":"EG","name":"Marsa Alam"},{"_id":358245,"coord":{"lat":28.50098,"lon":34.513378},"country":"EG","name":"Dhahab"},{"_id":360923,"coord":{"lat":2