{"countryCityList":[{"_id":448500,"coord":{"lat":15.25,"lon":37.5},"country":"ER","name":"Zoba Gash-Barka"},{"_id":331743,"coord":{"lat":15.11667,"lon":38.5},"country":"ER","name":"Mai Albo"},{"_id":330867,"coord":{"lat":15.3,"lon":37.5},"country":"ER","name":"Mescul"},{"_id":344674,"coord":{"lat":15.33333,"lon":39.216671},"country":"ER","name":"Agametta"},{"_id":448501,"coord":{"lat":15.33333,"lon":38.916672},"country":"ER","name":"Zoba Ma’ākel"},{"_id":448497,"coord":{"lat":16.5,"lon":37.5},"country":"ER","name":"Zoba Ānseba"},{"_id":333287,"coord":{"lat":15.77778,"lon":38.458061},"country":"ER","name":"Keren"},{"_id":342711,"coord":{"lat":15.11389,"lon":37.592781},"country":"ER","name":"Barentu"},{"_id":448499,"coord":{"lat":13.75,"lon":41.5},"country":"ER","name":"Zoba Debubawī K’eyih Bahrī"},{"_id":331697,"coord":{"lat":13,"lon":42.216671},"country":"ER","name":"Mai-ti"},{"_id":344211,"coord":{"lat":15.11667,"lon":36.48333},"country":"ER","name":"Aligider"},{"_id":338010,"coord":{"lat":15,"lon":39},"country":"ER","name":"State of Eritrea"},{"_id":343300,"coord":{"lat":15.33333,"lon":38.933331},"country":"ER","name":"Asmera"},{"_id":448502,"coord":{"lat":16,"lon":39},"country":"ER","name":"Zoba Semēnawī K’eyih Bahrī"},{"_id":330546,"coord":{"lat":15.60972,"lon":39.450001},"country":"ER","name":"Massawa"},{"_id":448498,"coord":{"lat":14.83333,"lon":38.833328},"country":"ER","name":"Zoba Debub"},{"_id":344901,"coord":{"lat":14.88722,"lon":38.815281},"country":"ER","name":"Mendefera"},{"_id":343386,"coord":{"lat":13.00917,"lon":42.739441},"country":"ER","name":"Assab"},{"_id":327651,"coord":{"lat":15.11,"lon":36.657501},"country":"ER","name":"Teseney"},{"_id":338345,"coord":{"lat":13.92972,"lon":41.692501},"country":"ER","name":"Edd"},{"_id":339537,"coord":{"lat":15.07,"lon":39.047501},"country":"ER","name":"Dekemhare"},{"_id":344426,"coord":{"lat":15.54861,"lon":37.886669},"country":"ER","name":"Akordat"},{"_id":345046,"coord":{"lat":14.84444,"lon":39.37722},"country":"ER","name":"Adi Keyh"}],"countryCode":"ER"