{"countryCode":"ET","countryName":"Ethiopia","countryFilePath":"ET.json","countryCityList":[{"_id":343846,"name":"Angetu","country":"ET","coord":{"lon":39.48333,"lat":6.33333}},{"_id":329586,"name":"Robit","country":"ET","coord":{"lon":39.633331,"lat":12.01667}},{"_id":331180,"name":"Mekele","country":"ET","coord":{"lon":39.475281,"lat":13.49667}},{"_id":332880,"name":"Kolito","country":"ET","coord":{"lon":38.083328,"lat":7.31667}},{"_id":330811,"name":"Metahara","country":"ET","coord":{"lon":39.916672,"lat":8.9}},{"_id":332746,"name":"Korem","country":"ET","coord":{"lon":39.522781,"lat":12.50583}},{"_id":336372,"name":"Giyon","country":"ET","coord":{"lon":37.98333,"lat":8.53333}},{"_id":336496,"name":"Gimbi","country":"ET","coord":{"lon":35.833328,"lat":9.16667}},{"_id":336931,"name":"Genet","country":"ET","coord":{"lon":38.5,"lat":9.06667}},{"_id":337712,"name":"Finote Selam","country":"ET","coord":{"lon":37.26667,"lat":10.7}},{"_id":338726,"name":"Dodola","country":"ET","coord":{"lon":39.183331,"lat":6.98333}},{"_id":341297,"name":"Butajira","country":"ET","coord":{"lon":38.366669,"lat":8.11667}},{"_id":343409,"name":"Asaita","country":"ET","coord":{"lon":41.439442,"lat":11.56361}},{"_id":343413,"name":"Asasa","country":"ET","coord":{"lon":39.200001,"lat":7.1}},{"_id":343593,"name":"Areka","country":"ET","coord":{"lon":37.700001,"lat":7.06667}},{"_id":7667785,"name":"Koka","country":"ET","coord":{"lon":39.0308,"lat":8.43442}},{"_id":330814,"name":"Mēta","country":"ET","coord":{"lon":41.5075,"lat":9.34556}},{"_id":343137,"name":"Hawassa","country":"ET","coord":{"lon":38.466671,"lat":7.05}},{"_id":340128,"name":"Dalla","country":"ET","coord":{"lon":40.916672,"lat":7.71667}},{"_id":326036,"name":"Yabelo","country":"ET","coord":{"lon":38.083328,"lat":4.88333}},{"_id":326206,"name":"Werota","country":"ET","coord":{"lon":37.700001,"lat":11.91667}},{"_id":326308,"name":"Wenji","country":"ET","coord":{"lon":39.283329,"lat":8.45}},{"_id":327694,"name":"Tippi","country":"ET","coord":{"lon":35.450001,"lat":7.2}},{"_id":328689,"name":"Shashemene","country":"ET","coord":{"lon":38.599998,"lat":7.2}},{"_id":328709,"name":"Shambu","country":"ET","coord":{"lon":37.099998,"lat":9.56667}},{"_id":328716,"name":"Shakiso","country":"ET","coord":{"lon":38.916672,"lat":5.75}},{"_id":329114,"name":"Sebeta","country":"ET","coord":{"lon":38.616669,"lat":8.91667}},{"_id":330120,"name":"Nejo","country":"ET","coord":{"lon":35.5,"lat":9.5}},{"_id":330186,"name":"Nazret","country":"ET","coord":{"lon":39.26667,"lat":8.55}},{"_id":330491,"name":"Mojo","country":"ET","coord":{"lon":39.116669,"lat":8.6}},{"_id":330764,"name":"Metu","country":"ET","coord":{"lon":35.583328,"lat":8.3}},{"_id":331038,"name":"Mendi","country":"ET","coord":{"lon":35.099998,"lat":9.8}},{"_id":331416,"name":"Maychew","country":"ET","coord":{"lon":39.542221,"lat":12.7875}},{"_id":333373,"name":"Kombolcha","country":"ET","coord":{"lon":39.743389,"lat":11.08155}},{"_id":333750,"name":"Jinka","country":"ET","coord":{"lon":36.650002,"lat":5.65}},{"_id":334227,"name":"Inda Silase","country":"ET","coord":{"lon":38.28289,"lat":14.10307}},{"_id":444184,"name":"Hārarī Hizb Kilil","country":"ET","coord":{"lon":42.166672,"lat":9.25}},{"_id":335035,"name":"Harer","country":"ET","coord":{"lon":42.125832,"lat":9.30944}},{"_id":337010,"name":"Gelemso","country":"ET","coord":{"lon":40.51667,"lat":8.81667}},{"_id":337152,"name":"Gebre Guracha","country":"ET","coord":{"lon":38.400002,"lat":9.8}},{"_id":444183,"name":"Gambela Regional State","country":"ET","coord":{"lon":34.5,"lat":7.83333}},{"_id":337771,"name":"Fiche","country":"ET","coord":{"lon":38.73333,"lat":9.8}},{"_id":338998,"name":"Dila","country":"ET","coord":{"lon":38.316669,"lat":6.41667}},{"_id":339666,"name":"Debre Zeyit","country":"ET","coord":{"lon":38.98333,"lat":8.75}},{"_id":339686,"name":"Debre Tabor","country":"ET","coord":{"lon":38.01667,"lat":11.85}},{"_id":341397,"name":"Bure","country":"ET","coord":{"lon":37.066669,"lat":10.7}},{"_id":341877,"name":"Boditi","country":"ET","coord":{"lon":37.866669,"lat":6.96667}},{"_id":342190,"name":"Bichena","country":"ET","coord":{"lon":38.200001,"lat":10.45}},{"_id":342559,"name":"Bedesa","country":"ET","coord":{"lon":40.783329,"lat":8.9}},{"_id":342567,"name":"Bedele","country":"ET","coord":{"lon":36.35302,"lat":8.456}},{"_id":343402,"name":"Asbe Teferi","country":"ET","coord":{"lon":40.866669,"lat":9.08333}},{"_id":344923,"name":"Adis Zemen","country":"ET","coord":{"lon":37.783329,"lat":12.11667}},{"_id":444185,"name":"Oromīya Kilil","country":"ET","coord":{"lon":39.0,"lat":8.0}},{"_id":342490,"name":"Bekeksa","country":"ET","coord":{"lon":40.23333,"lat":8.43333}},{"_id":325579,"name":"Ziway","country":"ET","coord":{"lon":38.716671,"lat":7.93333}},{"_id":325780,"name":"Yirga Alem","country":"ET","coord":{"lon":38.416672,"lat":6.75}},{"_id":333103,"name":"Kibre Mengist","country":"ET","coord":{"lon":38.98333,"lat":5.88333}},{"_id":333356,"name":"Kemise","country":"ET","coord":{"lon":39.866669,"lat":10.71667}},{"_id":336350,"name":"Goba","country":"ET","coord":{"lon":39.98333,"lat":7.01667}},{"_id":337405,"name":"Gambela","country":"ET","coord":{"lon":34.583328,"lat":8.25}},{"_id":337853,"name":"Felege Neway","country":"ET","coord":{"lon":36.883331,"lat":6.3}},{"_id":338554,"name":"Dubti","country":"ET","coord":{"lon":41.085281,"lat":11.73611}},{"_id":339448,"name":"Dembi Dolo","country":"ET","coord":{"lon":34.799999,"lat":8.53333}},{"_id":339823,"name":"Debark","country":"ET","coord":{"lon":37.89806,"lat":13.15611}},{"_id":341742,"name":"Bonga","country":"ET","coord":{"lon":36.23333,"lat":7.28333}},{"_id":342641,"name":"Bati","country":"ET","coord":{"lon":40.01667,"lat":11.18333}},{"_id":344620,"name":"Hagere Maryam","country":"ET","coord":{"lon":38.23333,"lat":5.63333}},{"_id":344661,"name":"Agaro","country":"ET","coord":{"lon":36.650002,"lat":7.85}},{"_id":345149,"name":"Adigrat","country":"ET","coord":{"lon":39.462002,"lat":14.277}},{"_id":345353,"name":"Addiet Canna","country":"ET","coord":{"lon":37.48333,"lat":11.26667}},{"_id":345704,"name":"Abomsa","country":"ET","coord":{"lon":39.98333,"lat":9.98333}},{"_id":332938,"name":"Kofele","country":"ET","coord":{"lon":38.783329,"lat":7.06667}},{"_id":337996,"name":"Federal Democratic Republic of Ethiopia","country":"ET","coord":{"lon":38.0,"lat":8.0}},{"_id":332817,"name":"Konso","country":"ET","coord":{"lon":37.48333,"lat":5.25}},{"_id":444179,"name":"Āfar Kilil","country":"ET","coord":{"lon":41.5,"lat":12.0}},{"_id":340268,"name":"Dafara","country":"ET","coord":{"lon":42.133331,"lat":12.43333}},{"_id":444178,"name":"Ādīs Ābeba Āstedader","country":"ET","coord":{"lon":38.75,"lat":9.0}},{"_id":333881,"name":"Jemo","country":"ET","coord":{"lon":38.666672,"lat":9.0}},{"_id":333772,"name":"Jima","country":"ET","coord":{"lon":36.833328,"lat":7.66667}},{"_id":444188,"name":"Southern Nations, Nationalities, and People's Regional State","country":"ET","coord":{"lon":36.727299,"lat":6.05862}},{"_id":444180,"name":"Āmara Kilil","country":"ET","coord":{"lon":38.5,"lat":11.5}},{"_id":342884,"name":"Bahir Dar","country":"ET","coord":{"lon":37.39077,"lat":11.59364}},{"_id":336014,"name":"Gonder","country":"ET","coord":{"lon":37.466671,"lat":12.6}},{"_id":444186,"name":"Sumalē Kilil","country":"ET","coord":{"lon":44.0,"lat":7.0}},{"_id":333795,"name":"Jijiga","country":"ET","coord":{"lon":42.799999,"lat":9.35}},{"_id":335288,"name":"Hagere Hiywet","country":"ET","coord":{"lon":37.849998,"lat":8.98333}},{"_id":339219,"name":"Dese","country":"ET","coord":{"lon":39.633331,"lat":11.13333}},{"_id":339734,"name":"Debre Birhan","country":"ET","coord":{"lon":39.533329,"lat":9.68333}},{"_id":444182,"name":"Dire Dawa Region","country":"ET","coord":{"lon":41.866669,"lat":9.6}},{"_id":338832,"name":"Dire Dawa","country":"ET","coord":{"lon":41.866112,"lat":9.59306}},{"_id":444181,"name":"Bīnshangul Gumuz Kilil","country":"ET","coord":{"lon":35.5,"lat":11.0}},{"_id":343292,"name":"Asosa","country":"ET","coord":{"lon":34.533329,"lat":10.06667}},{"_id":336231,"name":"Godo","country":"ET","coord":{"lon":39.76667,"lat":5.28333}},{"_id":444187,"name":"Tigray Kilil","country":"ET","coord":{"lon":38.833328,"lat":14.16667}},{"_id":332351,"name":"Kwīhā","country":"ET","coord":{"lon":39.545502,"lat":13.47914}},{"_id":333516,"name":"K’ebrī Dehar","country":"ET","coord":{"lon":44.278061,"lat":6.74}},{"_id":335316,"name":"Hadew","country":"ET","coord":{"lon":42.669441,"lat":9.36361}},{"_id":335943,"name":"Gore","country":"ET","coord":{"lon":35.533329,"lat":8.15}},{"_id":336259,"name":"Godē","country":"ET","coord":{"lon":43.597778,"lat":5.88722}},{"_id":339258,"name":"Deresgē","country":"ET","coord":{"lon":37.433331,"lat":12.51667}},{"_id":336454,"name":"Ginir","country":"ET","coord":{"lon":40.700001,"lat":7.13333}},{"_id":329490,"name":"Sabīyan","country":"ET","coord":{"lon":41.846668,"lat":9.6}},{"_id":339708,"name":"Debre Markos","country":"ET","coord":{"lon":37.73333,"lat":10.35}},{"_id":330787,"name":"Met’enē","country":"ET","coord":{"lon":39.700001,"lat":11.06667}},{"_id":339540,"name":"Dek’ē","country":"ET","coord":{"lon":37.333328,"lat":11.63333}},{"_id":342856,"name":"Bako","country":"ET","coord":{"lon":36.566669,"lat":5.78333}},{"_id":337146,"name":"Gebre Tela","country":"ET","coord":{"lon":38.75732,"lat":14.16813}},{"_id":343143,"name":"Āwarē","country":"ET","coord":{"lon":44.15667,"lat":8.25611}},{"_id":343663,"name":"Arba Minch","country":"ET","coord":{"lon":37.549999,"lat":6.03333}},{"_id":344982,"name":"Ādīs","country":"ET","coord":{"lon":38.76667,"lat":8.95}},{"_id":344420,"name":"Aksum","country":"ET","coord":{"lon":38.724442,"lat":14.12448}},{"_id":344979,"name":"Addis Ababa","country":"ET","coord":{"lon":38.746891,"lat":9.02497}},{"_id":326259,"name":"Were Ilu","country":"ET","coord":{"lon":39.433331,"lat":10.6}},{"_id":326321,"name":"Wendo","country":"ET","coord":{"lon":38.416672,"lat":6.6}},{"_id":327162,"name":"Turmi","country":"ET","coord":{"lon":36.48333,"lat":4.96667}},{"_id":327234,"name":"Tulu Bolo","country":"ET","coord":{"lon":38.216671,"lat":8.66667}},{"_id":328316,"name":"Sirre","country":"ET","coord":{"lon":39.48333,"lat":8.31667}},{"_id":328880,"name":"Sendafa","country":"ET","coord":{"lon":39.033329,"lat":9.15}},{"_id":330534,"name":"Mizan Teferi","country":"ET","coord":{"lon":35.583328,"lat":6.98333}},{"_id":331259,"name":"Mega","country":"ET","coord":{"lon":38.299999,"lat":4.05}},{"_id":331968,"name":"Lobuni","country":"ET","coord":{"lon":36.099998,"lat":4.83333}},{"_id":332129,"name":"Leku","country":"ET","coord":{"lon":38.450001,"lat":6.86667}},{"_id":332288,"name":"Lalibela","country":"ET","coord":{"lon":39.033329,"lat":12.03333}},{"_id":334529,"name":"Huruta","country":"ET","coord":{"lon":39.349998,"lat":8.15}},{"_id":334700,"name":"Hirna","country":"ET","coord":{"lon":41.099998,"lat":9.21667}},{"_id":335286,"name":"Hagere Selam","country":"ET","coord":{"lon":38.51667,"lat":6.48333}},{"_id":335733,"name":"Guder","country":"ET","coord":{"lon":37.76667,"lat":8.96667}},{"_id":336526,"name":"Gidole","country":"ET","coord":{"lon":37.366669,"lat":5.65}},{"_id":336745,"name":"Gewane","country":"ET","coord":{"lon":40.645279,"lat":10.16639}},{"_id":337083,"name":"Gedo","country":"ET","coord":{"lon":37.450001,"lat":9.01667}},{"_id":339551,"name":"Dejen","country":"ET","coord":{"lon":38.133331,"lat":10.16667}},{"_id":339629,"name":"Deder","country":"ET","coord":{"lon":41.450001,"lat":9.31667}},{"_id":339671,"name":"Debre Werk","country":"ET","coord":{"lon":38.166672,"lat":10.66667}},{"_id":339692,"name":"Debre Sina","country":"ET","coord":{"lon":39.76667,"lat":9.85}},{"_id":340358,"name":"Dabat","country":"ET","coord":{"lon":37.764999,"lat":12.98417}},{"_id":343134,"name":"Awash","country":"ET","coord":{"lon":40.166672,"lat":8.98333}},{"_id":344976,"name":"Adis Alem","country":"ET","coord":{"lon":38.400002,"lat":9.03333}},{"_id":6913519,"name":"Semera","country":"ET","coord":{"lon":41.200981,"lat":11.50099}}]}
