{"countryCityList":[{"_id":343846,"coord":{"lat":6.33333,"lon":39.48333},"country":"ET","name":"Angetu"},{"_id":329586,"coord":{"lat":12.01667,"lon":39.633331},"country":"ET","name":"Robit"},{"_id":331180,"coord":{"lat":13.49667,"lon":39.475281},"country":"ET","name":"Mekele"},{"_id":332880,"coord":{"lat":7.31667,"lon":38.083328},"country":"ET","name":"Kolito"},{"_id":330811,"coord":{"lat":8.9,"lon":39.916672},"country":"ET","name":"Metahara"},{"_id":332746,"coord":{"lat":12.50583,"lon":39.522781},"country":"ET","name":"Korem"},{"_id":336372,"coord":{"lat":8.53333,"lon":37.98333},"country":"ET","name":"Giyon"},{"_id":336496,"coord":{"lat":9.16667,"lon":35.833328},"country":"ET","name":"Gimbi"},{"_id":336931,"coord":{"lat":9.06667,"lon":38.5},"country":"ET","name":"Genet"},{"_id":337712,"coord":{"lat":10.7,"lon":37.26667},"country":"ET","name":"Finote Selam"},{"_id":338726,"coord":{"lat":6.98333,"lon":39.183331},"country":"ET","name":"Dodola"},{"_id":341297,"coord":{"lat":8.11667,"lon":38.366669},"country":"ET","name":"Butajira"},{"_id":343409,"coord":{"lat":11.56361,"lon":41.439442},"country":"ET","name":"Asaita"},{"_id":343413,"coord":{"lat":7.1,"lon":39.200001},"country":"ET","name":"Asasa"},{"_id":343593,"coord":{"lat":7.06667,"lon":37.700001},"country":"ET","name":"Areka"},{"_id":7667785,"coord":{"lat":8.43442,"lon":39.0308},"country":"ET","name":"Koka"},{"_id":330814,"coord":{"lat":9.34556,"lon":41.5075},"country":"ET","name":"Mēta"},{"_id":343137,"coord":{"lat":7.05,"lon":38.466671},"country":"ET","name":"Hawassa"},{"_id":340128,"coord":{"lat":7.71667,"lon":40.916672},"country":"ET","name":"Dalla"},{"_id":326036,"coord":{"lat":4.88333,"lon":38.083328},"country":"ET","name":"Yabelo"},{"_id":326206,"coord":{"lat":11.91667,"lon":37.700001},"country":"ET","name":"Werota"},{"_id":326308,"coord":{"lat":8.45,"lon":39.283329},"country":"ET","name":"Wenji"},{"_id":327694,"coord":{"lat":7.2,"lon":35.450001},"country":"ET","name":"Tippi"},{"_id":328689,"coord":{"lat":7.2,"lon":38.599998},"country":"ET","name":"Shashemene"},{"_id":328709,"coord":{"lat":9.56667,"lon":37.099998},"country":"ET","name":"Shambu"},{"_id":328716,"coord":{"lat":5.75,"lon":38.916672},"country":"ET","name":"Shakiso"},{"_id":329114,"coord":{"lat":8.91667,"lon":38.616669},"country":"ET","name":"Sebeta"},{"_id":330120,"coord":{"lat":9.5,"lon":35.5},"country":"ET","name":"Nejo"},{"_id":330186,"coord":{"lat":8.55,"lon":39.26667},"country":"ET","name":"Nazret"},{"_id":330491,"coord":{"lat":8.6,"lon":39.116669},"country":"ET","name":"Mojo"},{"_id":330764,"coord":{"lat":8.3,"lon":35.583328},"country":"ET","name":"Metu"},{"_id":331038,"coord":{"lat":9.8,"lon":35.099998},"country":"ET","name":"Mendi"},{"_id":331416,"coord":{"lat":12.7875,"lon":39.542221},"country":"ET","name":"Maychew"},{"_id":333373,"coord":{"lat":11.08155,"lon":39.743389},"country":"ET","name":"Kombolcha"},{"_id":333750,"coord":{"lat":5.65,"lon":36.650002},"country":"ET","name":"Jinka"},{"_id":334227,"coord":{"lat":14.10307,"lon":38.28289},"country":"ET","name":"Inda Silase"},{"_id":444184,"coord":{"lat":9.25,"lon":42.166672},"country":"ET","name":"Hārarī Hizb Kilil"},{"_id":335035,"coord":{"lat":9.30944,"lon":42.125832},"country":"ET","name":"Harer"},{"_id":337010,"coord":{"lat":8.81667,"lon":40.51667},"country":"ET","name":"Gelemso"},{"_id":337152,"coord":{"lat":9.8,"lon":38.400002},"country":"ET","name":"Gebre Guracha"},{"_id":444183,"coord":{"lat":7.83333,"lon":34.5},"country":"ET","name":"Gambela Regional State"},{"_id":337771,"coord":{"lat":9.8,"lon":38.73333},"country":"ET","name":"Fiche"},{"_id":338998,"coord":{"lat":6.41667,"lon":38.316669},"country":"ET","name":"Dila"},{"_id":339666,"coord":{"lat":8.75,"lon":38.98333},"country":"ET","name":"Debre Zeyit"},{"_id":339686,"coord":{"lat":11.85,"lon":38.01667},"country":"ET","name":"Debre Tabor"},{"_id":341397,"coord":{"lat":10.7,"lon":37.066669},"country":"ET","name":"Bure"},{"_id":341877,"coord":{"lat":6.96667,"lon":37.866669},"country":"ET","name":"Boditi"},{"_id":342190,"coord":{"lat":10.45,"lon":38.200001},"country":"ET","name":"Bichena"},{"_id":342559,"coord":{"lat":8.9,"lon":40.783329},"country":"ET","name":"Bedesa"},{"_id":342567,"coord":{"lat":8.456,"lon":36.35302},"country":"ET","name":"Bedele"},{"_id":343402,"coord":{"lat":9.08333,"lon":40.866669},"country":"ET","name":"Asbe Teferi"},{"_id":344923,"coord":{"lat":12.11667,"lon":37.783329},"country":"ET","name":"Adis Zemen"},{"_id":444185,"coord":{"lat":8,"lon":39},"country":"ET","name":"Oromīya Kilil"},{"_id":342490,"coord":{"lat":8.43333,"lon":40.23333},"country":"ET","name":"Bekeksa"},{"_id":325579,"coord":{"lat":7.93333,"lon":38.716671},"country":"ET","name":"Ziway"},{"_id":325780,"coord":{"lat":6.75,"lon":38.416672},"country":"ET","name":"Yirga Alem"},{"_id":333103,"coord":{"lat":5.88333,"lon":38.98333},"country":"ET","name":"Kibre Mengist"},{"_id":333356,"coord":{"lat":10.71667,"lon":39.866669},"country":"ET","name":"Kemise"},{"_id":336350,"coord":{"lat":7.01667,"lon":39.98333},"country":"ET","name":"Goba"},{"_id":337405,"coord":{"lat":8.25,"lon":34.583328},"country":"ET","name":"Gambela"},{"_id":337853,"coord":{"lat":6.3,"lon":36.883331},"country":"ET","name":"Felege Neway"},{"_id":338554,"coord":{"lat":11.73611,"lon":41.085281},"country":"ET","name":"Dubti"},{"_id":339448,"coord":{"lat":8.53333,"lon":34.799999},"country":"ET","name":"Dembi Dolo"},{"_id":339823,"coord":{"lat":13.15611,"lon":37.89806},"country":"ET","name":"Debark"},{"_id":341742,"coord":{"lat":7.28333,"lon":36.23333},"country":"ET","name":"Bonga"},{"_id":342641,"coord":{"lat":11.18333,"lon":40.01667},"country":"ET","name":"Bati"},{"_id":344620,"coord":{"lat":5.63333,"lon":38.23333},"country":"ET","name":"Hagere Maryam"},{"_id":344661,"coord":{"lat":7.85,"lon":36.650002},"country":"ET","name":"Agaro"},{"_id":345149,"coord":{"lat":14.277,"lon":39.462002},"country":"ET","name":"Adigrat"},{"_id":345353,"coord":{"lat":11.26667,"lon":37.48333},"country":"ET","name":"Addiet Canna"},{"_id":345704,"coord":{"lat":9.98333,"lon":39.98333},"country":"ET","name":"Abomsa"},{"_id":332938,"coord":{"lat":7.06667,"lon":38.783329},"country":"ET","name":"Kofele"},{"_id":337996,"coord":{"lat":8,"lon":38},"country":"ET","name":"Federal Democratic Republic of Ethiopia"},{"_id":332817,"coord":{"lat":5.25,"lon":37.48333},"country":"ET","name":"Konso"},{"_id":444179,"coord":{"lat":12,"lon":41.5},"country":"ET","name":"Āfar Kilil"},{"_id":340268,"coord":{"lat":12.43333,"lon":42.133331},"country":"ET","name":"Dafara"},{"_id":444178,"coord":{"lat":9,"lon":38.75},"country":"ET","name":"Ādīs Ābeba Āstedader"},{"_id":333881,"coord":{"lat":9,"lon":38.666672},"country":"ET","name":"Jemo"},{"_id":333772,"coord":{"lat":7.66667,"lon":36.833328},"country":"ET","name":"Jima"},{"_id":444188,"coord":{"lat":6.05862,"lon":36.727299},"country":"ET","name":"Southern Nations, Nationalities, and People's Regional State"},{"_id":444180,"coord":{"lat":11.5,"lon":38.5},"country":"ET","name":"Āmara Kilil"},{"_id":342884,"coord":{"lat":11.59364,"lon":37.39077},"country":"ET","name":"Bahir Dar"},{"_id":336014,"coord":{"lat":12.6,"lon":37.466671},"country":"ET","name":"Gonder"},{"_id":444186,"coord":{"lat":7,"lon":44},"country":"ET","name":"Sumalē Kilil"},{"_id":333795,"coord":{"lat":9.35,"lon":42.799999},"country":"ET","name":"Jijiga"},{"_id":335288,"coord":{"lat":8.98333,"lon":37.849998},"country":"ET","name":"Hagere Hiywet"},{"_id":339219,"coord":{"lat":11.13333,"lon":39.633331},"country":"ET","name":"Dese"},{"_id":339734,"coord":{"lat":9.68333,"lon":39.533329},"country":"ET","name":"Debre Birhan"},{"_id":444182,"coord":{"lat":9.6,"lon":41.866669},"country":"ET","name":"Dire Dawa Region"},{"_id":338832,"coord":{"lat":9.59306,"lon":41.866112},"country":"ET","name":"Dire Dawa"},{"_id":444181,"coord":{"lat":11,"lon":35.5},"country":"ET","name":"Bīnshangul Gumuz Kilil"},{"_id":343292,"coord":{"lat":10.06667,"lon":34.533329},"country":"ET","name":"Asosa"},{"_id":336231,"coord":{"lat":5.28333,"lon":39.76667},"country":"ET","name":"Godo"},{"_id":444187,"coord":{"lat":14.16667,"lon":38.833328},"country":"ET","name":"Tigray Kilil"},{"_id":332351,"coord":{"lat":13.47914,"lon":39.545502},"country":"ET","name":"Kwīhā"},{"_id":333516,"coord":{"lat":6.74,"lon":44.278061},"country":"ET","name":"K’ebrī Dehar"},{"_id":335316,"coord":{"lat":9.36361,"lon":42.669441},"country":"ET","name":"Hadew"},{"_id":335943,"coord":{"lat":8.15,"lon":35.533329},"country":"ET","name":"Gore"},{"_id":336259,"coord":{"lat":5.88722,"lon":43.597778},"country":"ET","name":"Godē"},{"_id":339258,"coord":{"lat":12.51667,"lon":37.433331},"country":"ET","name":"Deresgē"},{"_id":336454,"coord":{"lat":7.13333,"lon":40.700001},"country":"ET","name":"Ginir"},{"_id":329490,"coord":{"lat":9.6,"lon":41.846668},"country":"ET","name":"Sabīyan"},{"_id":339708,"coord":{"lat":10.35,"lon":37.73333},"country":"ET","name":"Debre Markos"},{"_id":330787,"coord":{"lat":11.06667,"lon":39.700001},"country":"ET","name":"Met’enē"},{"_id":339540,"coord":{"lat":11.63333,"lon":37.333328},"country":"ET","name":"Dek’ē"},{"_id":342856,"coord":{"lat":5.78333,"lon":36.566669},"country":"ET","name":"Bako"},{"_id":337146,"coord":{"lat":14.16813,"lon":38.75732},"country":"ET","name":"Gebre Tela"},{"_id":343143,"coord":{"lat":8.25611,"lon":44.15667},"country":"ET","name":"Āwarē"},{"_id":343663,"coord":{"lat":6.03333,"lon":37.549999},"country":"ET","name":"Arba Minch"},{"_id":344982,"coord":{"lat":8.95,"lon":38.76667},"country":"ET","name":"Ādīs"},{"_id":344420,"coord":{"lat":14.12448,"lon":38.724442},"country":"ET","name":"Aksum"},{"_id":344979,"coord":{"lat":9.02497,"lon":38.746891},"country":"ET","name":"Addis Ababa"},{"_id":326259,"coord":{"lat":10.6,"lon":39.433331},"country":"ET","name":"Were Ilu"},{"_id":326321,"coord":{"lat":6.6,"lon":38.416672},"country":"ET","name":"Wendo"},{"_id":327162,"coord":{"lat":4.96667,"lon":36.48333},"country":"ET","name":"Turmi"},{"_id":327234,"coord":{"lat":8.66667,"lon":38.216671},"country":"ET","name":"Tulu Bolo"},{"_id":328316,"coord":{"lat":8.31667,"lon":39.48333},"country":"ET","name":"Sirre"},{"_id":328880,"coord":{"lat":9.15,"lon":39.033329},"country":"ET","name":"Sendafa"},{"_id":330534,"coord":{"lat":6.98333,"lon":35.583328},"country":"ET","name":"Mizan Teferi"},{"_id":331259,"coord":{"lat":4.05,"lon":38.299999},"country":"ET","name":"Mega"},{"_id":331968,"coord":{"lat":4.83333,"lon":36.099998},"country":"ET","name":"Lobuni"},{"_id":332129,"coord":{"lat":6.86667,"lon":38.450001},"country":"ET","name":"Leku"},{"_id":332288,"coord":{"lat":12.03333,"lon":39.033329},"country":"ET","name":"Lalibela"},{"_id":334529,"coord":{"lat":8.15,"lon":39.349998},"country":"ET","name":"Huruta"},{"_id":334700,"coord":{"lat":9.21667,"lon":41.099998},"country":"ET","name":"Hirna"},{"_id":335286,"coord":{"lat":6.48333,"lon":38.51667},"country":"ET","name":"Hagere Selam"},{"_id":335733,"coord":{"lat":8.96667,"lon":37.76667},"country":"ET","name":"Guder"},{"_id":336526,"coord":{"lat":5.65,"lon":37.366669},"country":"ET","name":"Gidole"},{"_id":336745,"coord":{"lat":10.16639,"lon":40.645279},"country":"ET","name":"Gewane"},{"_id":337083,"coord":{"lat":9.01667,"lon":37.450001},"country":"ET","name":"Gedo"},{"_id":339551,"coord":{"lat":10.16667,"