{"countryCityList":[{"_id":3017680,"coord":{"lat":44.913849,"lon":6.6239},"country":"FR","name":"Forville"},{"_id":3007202,"coord":{"lat":43.248611,"lon":6.17341},"country":"FR","name":"La Portanière"},{"_id":6441676,"coord":{"lat":47.816669,"lon":7.33333},"country":"FR","name":"Wittenheim"},{"_id":6438569,"coord":{"lat":50.700001,"lon":3.21667},"country":"FR","name":"Wattrelos"},{"_id":6454050,"coord":{"lat":48.133331,"lon":-1.2},"country":"FR","name":"Vitré"},{"_id":6446231,"coord":{"lat":48.666672,"lon":2.38333},"country":"FR","name":"Viry-Châtillon"},{"_id":6452039,"coord":{"lat":48.73333,"lon":2.41667},"country":"FR","name":"Villeneuve-le-Roi"},{"_id":6453748,"coord":{"lat":47.216671,"lon":2.08333},"country":"FR","name":"Vierzon"},{"_id":6446218,"coord":{"lat":48.75,"lon":2.26667},"country":"FR","name":"Verrières-le-Buisson"},{"_id":6457368,"coord":{"lat":48.7617,"lon":2.3006},"country":"FR","name":"Arrondissement d'Antony"},{"_id":6425695,"coord":{"lat":43.583328,"lon":7.05},"country":"FR","name":"Vallauris"},{"_id":6438526,"coord":{"lat":50.716671,"lon":3.15},"country":"FR","name":"Tourcoing"},{"_id":6446342,"coord":{"lat":49.033329,"lon":2.21667},"country":"FR","name":"Taverny"},{"_id":6446340,"coord":{"lat":48.98333,"lon":2.3},"country":"FR","name":"Soisy-sous-Montmorency"},{"_id":6438498,"coord":{"lat":50.366669,"lon":3.11667},"country":"FR","name":"Sin-le-Noble"},{"_id":6451981,"coord":{"lat":48.816669,"lon":2.2},"country":"FR","name":"Sèvres"},{"_id":6427088,"coord":{"lat":43.633331,"lon":5.1},"country":"FR","name":"Salon-de-Provence"},{"_id":6455342,"coord":{"lat":48.900002,"lon":2.33333},"country":"FR","name":"Saint-Ouen"},{"_id":6441760,"coord":{"lat":45.700001,"lon":4.86667},"country":"FR","name":"Saint-Fons"},{"_id":6454369,"coord":{"lat":49.099998,"lon":6.7},"country":"FR","name":"Saint-Avold"},{"_id":6454153,"coord":{"lat":47.200001,"lon":-1.56667},"country":"FR","name":"Rezé"},{"_id":6454341,"coord":{"lat":48.066669,"lon":-2.98333},"country":"FR","name":"Pontivy"},{"_id":6454014,"coord":{"lat":44.799999,"lon":-0.61667},"country":"FR","name":"Pessac"},{"_id":6446184,"coord":{"lat":48.716671,"lon":2.25},"country":"FR","name":"Palaiseau"},{"_id":6443784,"coord":{"lat":48.76667,"lon":2.66667},"country":"FR","name":"Ozoir-la-Ferrière"},{"_id":6441724,"coord":{"lat":45.716671,"lon":4.8},"country":"FR","name":"Oullins"},{"_id":6446721,"coord":{"lat":43.599998,"lon":7},"country":"FR","name":"Mougins"},{"_id":6446177,"coord":{"lat":48.666672,"lon":2.35},"country":"FR","name":"Morsang-sur-Orge"},{"_id":6430140,"coord":{"lat":44.566669,"lon":4.75},"country":"FR","name":"Montélimar"},{"_id":6453858,"coord":{"lat":47.51667,"lon":6.8},"country":"FR","name":"Montbéliard"},{"_id":6452024,"coord":{"lat":48.799999,"lon":2.43333},"country":"FR","name":"Maisons-Alfort"},{"_id":6430468,"coord":{"lat":49.216671,"lon":1.16667},"country":"FR","name":"Louviers"},{"_id":6452023,"coord":{"lat":48.7467,"lon":2.4893},"country":"FR","name":"Limeil-Brévannes"},{"_id":6457185,"coord":{"lat":48.900002,"lon":2.51667},"country":"FR","name":"Les Pavillons-sous-Bois"},{"_id":6432528,"coord":{"lat":43.566669,"lon":3.9},"country":"FR","name":"Lattes"},{"_id":6446146,"coord":{"lat":48.653931,"lon":2.39382},"country":"FR","name":"Grigny"},{"_id":6446274,"coord":{"lat":49.032001,"lon":2.474},"country":"FR","name":"Goussainville"},{"_id":6454157,"coord":{"lat":47.689201,"lon":2.6297},"country":"FR","name":"Gien"},{"_id":6451993,"coord":{"lat":48.883331,"lon":2.53333},"country":"FR","name":"Gagny"},{"_id":6455107,"coord":{"lat":45.383331,"lon":4.3},"country":"FR","name":"Firminy"},{"_id":6433192,"coord":{"lat":45.133331,"lon":5.71667},"country":"FR","name":"Échirolles"},{"_id":6441821,"coord":{"lat":45.7686,"lon":4.9598},"country":"FR","name":"Décines-Charpieu"},{"_id":6455404,"coord":{"lat":48.51667,"lon":2.65},"country":"FR","name":"Dammarie-les-Lys"},{"_id":6455339,"coord":{"lat":48.916672,"lon":2.25},"country":"FR","name":"Colombes"},{"_id":6453697,"coord":{"lat":45.700001,"lon":-0.33333},"country":"FR","name":"Cognac"},{"_id":6428545,"coord":{"lat":47.283329,"lon":5},"country":"FR","name":"Chenôve"},{"_id":6443604,"coord":{"lat":48.883331,"lon":2.6},"country":"FR","name":"Chelles"},{"_id":6618272,"coord":{"lat":48.121201,"lon":-1.603},"country":"FR","name":"Cesson-Sévigné"},{"_id":3028097,"coord":{"lat":49.558578,"lon":1.62803},"country":"FR","name":"Cayenne"},{"_id":6439436,"coord":{"lat":50.48333,"lon":2.96667},"country":"FR","name":"Carvin"},{"_id":6452010,"coord":{"lat":48.76667,"lon":2.48333},"country":"FR","name":"Bonneuil-sur-Marne"},{"_id":6455331,"coord":{"lat":47.633331,"lon":6.86667},"country":"FR","name":"Belfort"},{"_id":6447202,"coord":{"lat":49.278599,"lon":-0.703},"country":"FR","name":"Bayeux"},{"_id":6613166,"coord":{"lat":48.866669,"lon":2.41667},"country":"FR","name":"Bagnolet"},{"_id":6450845,"coord":{"lat":46.950001,"lon":4.3},"country":"FR","name":"Autun"},{"_id":6448311,"coord":{"lat":43.650002,"lon":0.58333},"country":"FR","name":"Auch"},{"_id":6451006,"coord":{"lat":45.916672,"lon":6.15},"country":"FR","name":"Annecy-le-Vieux"},{"_id":6452610,"coord":{"lat":48.799999,"lon":2.41667},"country":"FR","name":"Alfortville"},{"_id":6455394,"coord":{"lat":48.68174,"lon":2.16932},"country":"FR","name":"Les Ulis"},{"_id":6434715,"coord":{"lat":47.916672,"lon":1.86667},"country":"FR","name":"Saint-Jean-de-la-Ruelle"},{"_id":6434515,"coord":{"lat":47.216671,"lon":-1.65},"country":"FR","name":"Saint-Herblain"},{"_id":6614010,"coord":{"lat":45.433331,"lon":4.4},"country":"FR","name":"Saint-Étienne"},{"_id":6433106,"coord":{"lat":47.400002,"lon":0.66667},"country":"FR","name":"Saint-Cyr-sur-Loire"},{"_id":6455259,"coord":{"lat":48.856461,"lon":2.35236},"country":"FR","name":"Paris"},{"_id":3031132,"coord":{"lat":50.75,"lon":1.83333},"country":"FR","name":"Arrondissement de Boulogne-sur-Mer"},{"_id":6439779,"coord":{"lat":50.700001,"lon":1.58333},"country":"FR","name":"Outreau"},{"_id":2989170,"coord":{"lat":47.27095,"lon":-1.6219},"country":"FR","name":"Orvault"},{"_id":2994149,"coord":{"lat":49.083328,"lon":6.16667},"country":"FR","name":"Arrondissement de Metz-Ville"},{"_id":6455403,"coord":{"lat":48.76667,"lon":1.91667},"country":"FR","name":"Maurepas"},{"_id":6453527,"coord":{"lat":49.566669,"lon":3.61667},"country":"FR","name":"Laon"},{"_id":6457117,"coord":{"lat":43.150002,"lon":6.06667},"country":"FR","name":"La Crau"},{"_id":6457183,"coord":{"lat":48.931198,"lon":2.3966},"country":"FR","name":"La Courneuve"},{"_id":6613140,"coord":{"lat":48.816669,"lon":2.33333},"country":"FR","name":"Gentilly"},{"_id":6451968,"coord":{"lat":48.849998,"lon":2.18333},"country":"FR","name":"Garches"},{"_id":6454404,"coord":{"lat":50.666672,"lon":3.15},"country":"FR","name":"Croix"},{"_id":6449087,"coord":{"lat":47.216671,"lon":-1.73333},"country":"FR","name":"Couëron"},{"_id":3027857,"coord":{"lat":47.8097,"lon":7.17699},"country":"FR","name":"Cernay"},{"_id":2991935,"coord":{"lat":44.880569,"lon":-0.42181},"country":"FR","name":"Montussan"},{"_id":2978954,"coord":{"lat":49.764488,"lon":4.77193},"country":"FR","name":"Saint-Laurent"},{"_id":2981274,"coord":{"lat":47.743961,"lon":3.64922},"country":"FR","name":"Saint-Bris-le-Vineux"},{"_id":6426205,"coord":{"lat":42.76667,"lon":1.75},"country":"FR","name":"Garanou"},{"_id":2985244,"coord":{"lat":44,"lon":6},"country":"FR","name":"Région Provence-Alpes-Côte d'Azur"},{"_id":2970749,"coord":{"lat":43.5,"lon":6.33333},"country":"FR","name":"Département du Var"},{"_id":2990918,"coord":{"lat":43.083328,"lon":2.83333},"country":"FR","name":"Arrondissement de Narbonne"},{"_id":6431494,"coord":{"lat":43.299999,"lon":1.23333},"country":"FR","name":"Carbonne"},{"_id":3028652,"coord":{"lat":43.298569,"lon":1.2252},"country":"FR","name":"Carbonne"},{"_id":2995468,"coord":{"lat":43.333328,"lon":5.5},"country":"FR","name":"Arrondissement de Marseille"},{"_id":2977584,"coord":{"lat":43.37009,"lon":5.05324},"country":"FR","name":"Saint-Pierre"},{"_id":6440420,"coord":{"lat":43.383331,"lon":-1.03333},"country":"FR","name":"Ilharre"},{"_id":6455460,"coord":{"lat":44.033329,"lon":5.98333},"country":"FR","name":"Les Mées"},{"_id":6451408,"coord":{"lat":44.033329,"lon":1.1},"country":"FR","name":"Castelsarrasin"},{"_id":6431472,"coord":{"lat":44.066669,"lon":4.48333},"country":"FR","name":"Vallabrix"},{"_id":2997026,"coord":{"lat":44.095612,"lon":-0.15561},"country":"FR","name":"Lussolle"},{"_id":6433931,"coord":{"lat":44.25,"lon":-1.11667},"country":"FR","name":"Pontenx-les-Forges"},{"_id":2986198,"coord":{"lat":44.241341,"lon":-1.12095},"country":"FR","name":"Pontenx-les-Forges"},{"_id":2976739,"coord":{"lat":44.294289,"lon":-1.0588},"country":"FR","name":"Saint-Trosse"},{"_id":2987966,"coord":{"lat":45.166672,"lon":0.58333},"country":"FR","name":"Arrondissement de Périgueux"},{"_id":3006201,"coord":{"lat":45.583328,"lon":5.41667},"country":"FR","name":"Arrondissement de La Tour-du-Pin"},{"_id":6433202,"coord":{"lat":45.583328,"lon":5.18333},"country":"FR","name":"Four"},{"_id":6440004,"coord":{"lat":45.666672,"lon":3.2},"country":"FR","name":"Corent"},{"_id":3013736,"coord":{"lat":46,"lon":6.33333},"country":"FR","name":"Département de la Haute-Savoie"},{"_id":3017372,"coord":{"lat":47,"lon":6},"country":"FR","name":"Région Franche-Comté"},{"_id":3012051,"coord":{"lat":46.833328,"lon":5.83333},"country":"FR","name":"Département du Jura"},{"_id":6428320,"coord":{"lat":47.01667,"lon":2.35},"country":"FR","name":"Trouy"},{"_id":2971553,"coord":{"lat":47.011532,"lon":2.36018},"country":"FR","name":"Trouy"},{"_id":3020989,"coord":{"lat":47.166672,"lon":6.41667},"country":"FR","name":"Département du Doubs"},{"_id":2986301,"coord":{"lat":46.833328,"lon":6.25},"country":"FR","name":"Arrondissement de Pontarlier"},{"_id":3009708,"coord":{"lat":47.269642,"lon":-0.06694},"country":"FR","name":"La Croix Verte"},{"_id":6442051,"coord":{"lat":47.450001,"lon":6.2},"country":"FR","name":"Ormenans"},{"_id":3030293,"coord":{"lat":48,"lon":-3},"country":"FR","name":"Région Bretagne"},{"_id":3027257,"coord":{"lat":49,"lon":4.5},"country":"FR","name":"Région Champagne-Ardenne"},{"_id":3012874,"coord":{"lat":48.5,"lon":2.5},"country":"FR","name":"Région Île-de-France"},{"_id":6443664,"coord":{"lat":48.549999,"lon":2.95},"country":"FR","name":"Fontenailles"},{"_id":3036244,"coord":{"lat":49.47876,"lon":3.13397},"country":"FR","name":"Audignicourt"},{"_id":2974304,"coord":{"lat":49.916672,"lon":2.5},"country":"FR","name":"Département de la Somme"},{"_id":3033018,"coord":{"lat":50.07756,"lon":1.50348},"country":"FR","name":"Bethencourt-sur-Mer"},{"_id":2998554,"coord":{"lat":42.589142,"lon":1.79931},"country":"FR","name":"L'Hospitalet-près-l'Andorre"},{"_id":3008452,"coord":{"lat":48.01667,"lon":1.21667},"country":"FR","name":"L'Allier"},{"_id":3231369,"coord":{"lat":49.484718,"lon":0.13472},"country":"FR","name":"L'Eure"},{"_id":6426295,"coord":{"lat":42.98333,"lon":1.15},"country":"FR","name":"Saint-Girons"},{"_id":6454071,"coord":{"lat":45.187199,"lon":5.7266},"country":"FR","name":"Grenoble"},{"_id":6440623,"coord":{"lat":43.383331,"lon":-0.35},"country":"FR","name":"Serres-Castet"},{"_id":6442609,"coord":{"lat":48.349998,"lon":0.38333},"country":"FR","name":"Mamers"},{"_id":6446923,"coord":{"lat":48.23333,"lon":4.71667},"country":"FR","name":"Bar-sur-Aube"},{"_id":6446433,"coord":{"lat":49.683331,"lon":3.43333},"country":"FR","name":"Anguilcourt-le-Sart"},{"_id":6454885,"coord":{"lat":48.716671,"lon":2.5},"country":"FR","name":"Yerres"},{"_id":2991213,"coord":{"lat":47.666672,"lon":7.41667},"country":"FR","name":"Arrondissement de Mulhouse"},{"_id":6441466,"coord":{"lat":47.583328,"lon":7.51667},"country":"FR","name":"Hésingue"},{"_id":3001464,"coord":{"lat":48.061192,"lon":-1.34529},"country":"FR","name":"Les Chenais"},{"_id":2976008,"coord":{"lat":44.916672,"lon":1.08333},"country":"FR","name":"Arrondissement de Sarlat-la-Canéda"},{"_id":6448939,"coord":{"lat":47.583328,"lon":1.65},"country":"FR","name":"Dhuizon"},{"_id":3021458,"coord":{"lat":47.587238,"lon":1.65809},"country":"FR","name":"Dhuizon"},{"_id":2997523,"coord":{"lat":44.333328,"lon":0.5},"country":"FR","name":"Département du Lot-et-Garonne"},{"_id":3038633,"coord":{"lat":44.166672,"lon":0.58333},"country":"FR","name":"Arrondissement d'Agen"},{"_id":6435033,"coord":{"lat":44.23333,"lon":0.68333},"country":"FR","name":"Pont-du-Casse"},{"_id":2986220,"coord":{"lat":44.228668,"lon":0.67924},"country":"FR","name":"Pont-du-Casse"},{"_id":6452003,"coord":{"lat":48.866669,"lon":2.48333},"country":"FR","name":"Rosny-sous-Bois"},{"_id":3014755,"coord":{"lat":45.498638,"lon":6.53655},"country":"FR","name":"Grégny"},{"_id":6453802,"coord":{"lat":48.533329,"lon":-2.78333},"country":"FR","name":"Plérin"},{"_id":2984512,"coord":{"lat":48.583328,"lon":1.91667},"country":"FR","name":"Arrondissement de Rambouillet"},{"_id":6444068,"coord":{"lat":48.833328,"lon":1.9},"country":"FR","name":"Saint-Germain-de-la-Grange"},{"_id":3038111,"coord":{"lat":46.5,"lon":3},"country":"FR","name":"Département de l'Allier"},{"_id":6433935,"coord":{"lat":43.599998,"lon":-1},"country":"FR","name":"Pouillon"},{"_id":6452533,"coord":{"lat":46.283329,"lon":-0.41667},"country":"FR","name":"Aiffres"},{"_id":3038555,"coord":{"lat":46.294491,"lon":-0.42101},"country":"FR","name":"Aiffres"},{"_id":3021371,"coord":{"lat":47.416672,"lon":5},"country":"FR","name":"Arrondissement de Dijon"},{"_id":6428723,"coord":{"lat":47.51667,"lon":5.13333},"country":"FR","name":"Marcilly-sur-Tille"},{"_id":2995940,"coord":{"lat":47.516998,"lon":5.12979},"country":"FR","name":"Marcilly-sur-Tille"},{"_id":6431696,"coord":{"lat":43.700001,"lon":1.25},"country":"FR","name":"Montaigut-sur-Save"},{"_id":6452423,"coord":{"lat":50.533329,"lon":2.95},"country":"FR","name":"Allennes-les-Marais"},{"_id":2984741,"coord":{"lat":47.484119,"lon":-3.11962},"country":"FR","name":"Quiberon"},{"_id":6445401,"coord":{"lat":45.683331,"lon":1.18333},"country":"FR","name":"Nexon"},{"_id":2997857,"coord":{"lat":47.916672,"lon":2.33333},"country":"FR","name":"Département du Loiret"},{"_id":3008622,"coord":{"lat":47.99955,"lon":3.08377},"country":"FR","name":"La Jacqueminière"},{"_id":6429107,"coord":{"lat":48.466671,"lon":-2.08333},"country":"FR","name":"Quévert"},{"_id":6438285,"coord":{"lat":50.716671,"lon":2.53333},"country":"FR","name":"Hazebrouck"},{"_id":6441813,"coord":{"lat":45.76667,"lon":4.88333},"country":"FR","name":"Villeurbanne"},{"_id":3030299,"coord":{"lat":48.5,"lon":-4.5},"country":"FR","name":"Arrondissement de Brest"},{"_id":6455273,"coord":{"lat":49.900002,"lon":2.3},"country":"FR","name":"Amiens"},{"_id":6441375,"coord":{"lat":48.583328,"lon":7.75},"country":"FR","name":"Strasbourg"},{"_id":6451976,"coord":{"lat":48.891842,"lon":2.20714},"country":"FR","name":"Nanterre"},{"_id":2989247,"coord":{"lat":48.666672,"lon":0.08333},"country":"FR","name":"Département de l'Orne"},{"_id":6452018,"coord":{"lat":48.783329,"lon":2.46667},"country":"FR","name":"Créteil"},{"_id":6455341,"coord":{"lat":48.933331,"lon":2.36667},"country":"FR","name":"Saint-Denis"},{"_id":6440000,"coord":{"lat":45.783329,"lon":3.08333},"country":"FR","name":"Clermont-Ferrand"},{"_id":3024635,"coord":{"lat":45.779659,"lon":3.08628},"country":"FR","name":"Clermont-Ferrand"},{"_id":2973384,"coord":{"lat":43.25,"lon":0.16667},"country":"FR","name":"Arrondissement de Tarbes"},{"_id":6454430,"coord":{"lat":49.383331,"lon":2.4},"country":"FR","name":"Clermont"},{"_id":6440996,"coord":{"lat":42.697639,"lon":2.89541},"country":"FR","name":"Perpignan"},{"_id":3029094,"coord":{"lat":49.166672,"lon":-0.5},"country":"FR","name":"Département du Calvados"},{"_id":6456407,"coord":{"lat":48,"lon":0.2},"country":"FR","name":"Le Mans"},{"_id":3003603,"coord":{"lat":48,"lon":0.2},"country":"FR","name":"Le Mans"},{"_id":6454251,"coord":{"lat":49.265099,"lon":4.0292},"country":"FR","name":"Reims"},{"_id":6452436,"coord":{"lat":48.75,"lon":-0.01667},"country":"FR","name":"Argentan"},{"_id":2983360,"coord":{"lat":46,"lon":4},"country":"FR","name":"Arrondissement de Roanne"},{"_id":6613992,"coord":{"lat":46.033329,"lon":4.06667},"country":"FR","name":"Roanne"},{"_id":6453924,"coord":{"lat":48.450001,"lon":-4.25},"country":"FR","name":"Landerneau"},{"_id":3034005,"coord":{"lat":49.416672,"lon":2},"country":"FR","name":"Arrondissement de Beauvais"},{"_id":2968819,"coord":{"lat":48.823582,"lon":2.19311},"country":"FR","name":"Ville-dAvray"},{"_id":6443660,"coord":{"lat":48.400002,"lon":2.7},"country":"FR","name":"Fontainebleau"},{"_id":3027453,"coord":{"lat":45.775589,"lon":3.0631},"country":"FR","name":"Chamalieres"},{"_id":6453805,"coord":{"lat":48.51667,"lon":-2.78333},"country":"FR","name":"Saint-Brieuc"},{"_id":2990371,"coord":{"lat":47.083328,"lon":3.5},"country":"FR","name":"Département de la Nièvre"},{"_id":3006414,"coord":{"lat":43.098179,"lon":5.88472},"country":"FR","name":"La Seyne-sur-Mer"},{"_id":6454207,"coord":{"lat":49.049999,"lon":-1.43333},"country":"FR","name":"Coutances"},{"_id":3022826,"coord":{"lat":49.049999,"lon":-1.43333},"country":"FR","name":"Coutances"},{"_id":2993358,"coord":{"lat":49.174969,"lon":-0.32238},"country":"FR","name":"Mondeville"},{"_id":6453923,"coord":{"lat":48.2103,"lon":1.1906},"country":"FR","name":"Yèvres"},{"_id":6454554,"coord":{"lat":48.74176,"lon":7.36127},"country":"FR","name":"Saverne"},{"_id":6454301,"coord":{"lat":48.589199,"lon":6.5024},"country":"FR","name":"Lunéville"},{"_id":2985020,"coord":{"lat":45.083328,"lon":3.83333},"country":"FR","name":"Arrondissement du Puy"},{"_id":6449052,"coord":{"lat":44.997372,"lon":3.91754},"country":"FR","name":"Coubon"},{"_id":3023379,"coord":{"lat":44.997311,"lon":3.91783},"country":"FR","name":"Coubon"},{"_id":3026612,"coord":{"lat":49.833328,"lon":4.5},"country":"FR","name":"Arrondissement de Charleville-Mézières"},{"_id":3031676,"coord":{"lat":46,"lon":6.66667},"country":"FR","name":"Arrondissement de Bonneville"},{"_id":6435667,"coord":{"lat":49.533329,"lon":-1.75},"country":"FR","name":"Sotteville"},{"_id":2983423,"coord":{"lat":49.287708,"lon":-0.26054},"country":"FR","name":"Riva-Bella"},{"_id":2979071,"coord":{"lat":46.083328,"lon":6.08333},"country":"FR","name":"Arrondissement de Saint-Julien-en-Genevois"},{"_id":6433846,"coord":{"lat":43.599998,"lon":-1.41667},"country":"FR","name":"Labenne"},{"_id":3029799,"coord":{"lat":44.87981,"lon":-0.61219},"country":"FR","name":"Bruges"},{"_id":6432490,"coord":{"lat":44.849998,"lon":-0.46667},"country":"FR","name":"Tresses"},{"_id":3010626,"coord":{"lat":44.977791,"lon":-1.0762},"country":"FR","name":"Lacanau"},{"_id":3020034,"coord":{"lat":48.166672,"lon":6.5},"country":"FR","name":"Arrondissement d'Épinal"},{"_id":3016474,"coord":{"lat":48.911079,"lon":-1.3506},"country":"FR","name":"Gavray"},{"_id":3034873,"coord":{"lat":49.13221,"lon":-0.47795},"country":"FR","name":"Baron-sur-Odon"},{"_id":2990139,"coord":{"lat":45.5,"lon":0.83333},"country":"FR","name":"Arrondissement de Nontron"},{"_id":3032668,"coord":{"lat":42.625889,"lon":9.43324},"country":"FR","name":"Biguglia"},{"_id":2982692,"coord":{"lat":49.212349,"lon":-0.47319},"country":"FR","name":"Rots"},{"_id":3038333,"coord":{"lat":42,"lon":8.91667},"country":"FR","name":"Arrondissement d'Ajaccio"},{"_id":3022569,"coord":{"lat":49.233589,"lon":2.88807},"country":"FR","name":"Crepy-en-Valois"},{"_id":6432503,"coord":{"lat":44.6661,"lon":-0.3808},"country":"FR","name":"Virelade"},{"_id":3026227,"coord":{"lat":43.383331,"lon":5.16667},"country":"FR","name":"Chateauneuf-les-Martigues"},{"_id":6448871,"coord":{"lat":43.799999,"lon":-0.35},"country":"FR","name":"Castandet"},{"_id":2978891,"coord":{"lat":43.670971,"lon":7.17606},"country":"FR","name":"Saint-Laurent-du-Var"},{"_id":6454095,"coord":{"lat":45.51667,"lon":4.86667},"country":"FR","name":"Vienne"},{"_id":6613145,"coord":{"lat":48.966671,"lon":2.43333},"country":"FR","name":"Bonneuil-en-France"},{"_id":2967318,"coord":{"lat":47.8078,"lon":7.33702},"country":"FR","name":"Wittenheim"},{"_id":2970962,"coord":{"lat":43.57803,"lon":7.05451},"country":"FR","name":"Vallauris"},{"_id":2974494,"coord":{"lat":50.361591,"lon":3.13113},"country":"FR","name":"Sin-le-Noble"},{"_id":2975050,"coord":{"lat":48.200001,"lon":3.28333},"country":"FR","name":"Sens"},{"_id":2977356,"coord":{"lat":45.696121,"lon":4.93892},"country":"FR","name":"Saint-Priest"},{"_id":2977388,"coord":{"lat":51.031158,"lon":2.33984},"country":"FR","name":"Saint-Pol-sur-Mer"},{"_id":6433124,"coord":{"lat":47.383331,"lon":0.73333},"country":"FR","name":"Saint-Pierre-des-Corps"},{"_id":2977491,"coord":{"lat":47.38623,"lon":0.74849},"country":"FR","name":"Saint-Pierre-des-Corps"},{"_id":2978100,"coord":{"lat":43.452141,"lon":5.86219},"country":"FR","name":"Saint-Maximin-la-Sainte-Baume"},{"_id":2978317,"coord":{"lat":45.165279,"lon":5.76337},"country":"FR","name":"Saint-Martin-dHeres"},{"_id":2979316,"coord":{"lat":47.91127,"lon":1.86483},"country":"FR","name":"Saint-Jean-de-la-Ruelle"},{"_id":6434714,"coord":{"lat":47.912399,"lon":1.9718},"country":"FR","name":"Saint-Jean-de-Braye"},{"_id":2979341,"coord":{"lat":47.913029,"lon":1.97705},"country":"FR","name":"Saint-Jean-de-Braye"},{"_id":2980097,"coord":{"lat":45.708801,"lon":4.86057},"country":"FR","name":"Saint-Fons"},{"_id":2980340,"coord":{"lat":45.75,"lon":-0.63333},"country":"FR","name":"Saintes"},{"_id":2980586,"coord":{"lat":45.736919,"lon":4.79688},"country":"FR","name":"Sainte-Foy-les-Lyon"},{"_id":2980636,"coord":{"lat":45.23333,"lon":5.68333},"country":"FR","name":"Saint-Egreve"},{"_id":2980827,"coord":{"lat":48.283329,"lon":6.95},"country":"FR","name":"Saint-Die-des-Vosges"},{"_id":2980935,"coord":{"lat":47.400002,"lon":0.66667},"country":"FR","name":"Saint-Cyr-sur-Loire"},{"_id":2981839,"coord":{"lat":50.447182,"lon":3.43076},"country":"FR","name":"Saint-Amand-les-Eaux"},{"_id":2986160,"coord":{"lat":48.066669,"lon":-2.98333},"country":"FR","name":"Pontivy"},{"_id":2986732,"coord":{"lat":47.73333,"lon":-3.43333},"country":"FR","name":"Ploemeur"},{"_id":2987825,"coord":{"lat":43.69252,"lon":5.50285},"country":"FR","name":"Pertuis"},{"_id":2988758,"coord":{"lat":48.716671,"lon":2.25},"country":"FR","name":"Palaiseau"},{"_id":2988936,"coord":{"lat":50.705349,"lon":1.5897},"country":"FR","name":"Outreau"},{"_id":2988998,"coord":{"lat":45.717739,"lon":4.80382},"country":"FR","name":"Oullins"},{"_id":6614508,"coord":{"lat":49.638599,"lon":-1.6147},"country":"FR","name":"Cherbourg-Octeville"},{"_id":2989755,"coord":{"lat":49.626122,"lon":-1.64349},"country":"FR","name":"Octeville"},{"_id":6454450,"coord":{"lat":49.583328,"lon":3},"country":"FR","name":"Noyon"},{"_id":2989877,"coord":{"lat":49.583328,"lon":3},"country":"FR","name":"Noyon"},{"_id":2990355,"coord":{"lat":46.323132,"lon":-0.45877},"country":"FR","name":"Niort"},{"_id":2991772,"coord":{"lat":48.583328,"lon":-3.83333},"country":"FR","name":"Morlaix"},{"_id":2992367,"coord":{"lat":49.545181,"lon":0.18769},"country":"FR","name":"Montivilliers"},{"_id":2992402,"coord":{"lat":49.094349,"lon":6.15167},"country":"FR","name":"Montigny-les-Metz"},{"_id":2993875,"coord":{"lat":44.099998,"lon":3.08333},"country":"FR","name":"Millau"},{"_id":2994048,"coord":{"lat":45.76667,"lon":5},"country":"FR","name":"Meyzieu"},{"_id":2994087,"coord":{"lat":45.219879,"lon":5.79007},"country":"FR","name":"Meylan"},{"_id":2994935,"coord":{"lat":48.299999,"lon":-0.61667},"country":"FR","name":"Mayenne"},{"_id":2995121,"coord":{"lat":43.618099,"lon":4.00739},"country":"FR","name":"Mauguio"},{"_id":2997246,"coord":{"lat":48.436901,"lon":1.46359},"country":"FR","name":"Luce"},{"_id":2997336,"coord":{"lat":49.216671,"lon":1.16667},"country":"FR","name":"Louviers"},{"_id":6441200,"coord":{"lat":48.55838,"lon":7.68253},"country":"FR","name":"Lingolsheim"},{"_id":3000648,"coord":{"lat":46.866669,"lon":-1.01667},"country":"FR","name":"Les Herbiers"},{"_id":3002465,"coord":{"lat":45.043659,"lon":3.88523},"country":"FR","name":"Le Puy-en-Velay"},{"_id":3002570,"coord":{"lat":43.961189,"lon":4.86008},"country":"FR","name":"Le Pontet"},{"_id":3005066,"coord":{"lat":44.866001,"lon":-0.59411},"country":"FR","name":"Le Bouscat"},{"_id":3006121,"coord":{"lat":43.56752,"lon":3.9046},"country":"FR","name":"Lattes"},{"_id":3007794,"coord":{"lat":47.761318,"lon":-3.33965},"country":"FR","name":"Lanester"},{"_id":3009791,"coord":{"lat":43.149811,"lon":6.07425},"country":"FR","name":"La Crau"},{"_id":3010237,"coord":{"lat":47.295841,"lon":-1.55309},"country":"FR","name":"La Chapelle-sur-Erdre"},{"_id":3013681,"coord":{"lat":50.250771,"lon":3.92143},"country":"FR","name":"Hautmont"},{"_id":6434601,"coord":{"lat":47.933331,"lon":1.91667},"country":"FR","name":"Fleury-les-Aubrais"},{"_id":3018455,"coord":{"lat":45.387321,"lon":4.29074},"country":"FR","name":"Firminy"},{"_id":3021263,"coord":{"lat":47.099998,"lon":5.5},"country":"FR","name":"Dole"},{"_id":3022700,"coord":{"lat":45.900002,"lon":6.1},"country":"FR","name":"Cran-Gevrier"},{"_id":3023240,"coord":{"lat":48.81451,"lon":3.08498},"country":"FR","name":"Coulommiers"},{"_id":3023324,"coord":{"lat":47.21508,"lon":-1.72171},"country":"FR","name":"Coueron"},{"_id":3023356,"coord":{"lat":51.022881,"lon":2.39359},"country":"FR","name":"Coudekerque-Branche"},{"_id":3026141,"coord":{"lat":46.799999,"lon":0.53333},"country":"FR","name":"Chatellerault"},{"_id":3027767,"coord":{"lat":48.121201,"lon":-1.603},"country":"FR","name":"Cesson-Sevigne"},{"_id":3028134,"coord":{"lat":43.831249,"lon":5.03586},"country":"FR","name":"Cavaillon"},{"_id":3028486,"coord":{"lat":50.492352,"lon":2.95815},"country":"FR","name":"Carvin"},{"_id":3028535,"coord":{"lat":47.298222,"lon":-1.49024},"country":"FR","name":"Carquefou"},{"_id":3028779,"coord":{"lat":49.440651,"lon":1.02459},"country":"FR","name":"Canteleu"},{"_id":3029825,"coord":{"lat":50.48333,"lon":2.55},"country":"FR","name":"Bruay-la-Buissiere"},{"_id":3030985,"coord":{"lat":44.956009,"lon":4.91023},"country":"FR","name":"Bourg-les-Valence"},{"_id":2988443,"coord":{"lat":42.748901,"lon":9.44974},"country":"FR","name":"Pantine"},{"_id":3007670,"coord":{"lat":43.666672,"lon":3.16667},"country":"FR","name":"Région Languedoc-Roussillon"},{"_id":6447142,"coord":{"lat":43.299999,"lon":5.4},"country":"FR","name":"Marseille"},{"_id":3034473,"coord":{"lat":43.333328,"lon":-1.41667},"country":"FR","name":"Arrondissement de Bayonne"},{"_id":3021381,"coord":{"lat":44.083328,"lon":6.25},"country":"FR","name":"Arrondissement de Digne"},{"_id":2992770,"coord":{"lat":44,"lon":-0.66667},"country":"FR","name":"Arrondissement de Mont-de-Marsan"},{"_id":3027939,"coord":{"lat":47.5,"lon":1.75},"country":"FR","name":"Région Centre"},{"_id":3025480,"coord":{"lat":47,"lon":2.5},"country":"FR","name":"Département du Cher"},{"_id":3031004,"coord":{"lat":47.25,"lon":2.41667},"country":"FR","name":"Arrondissement de Bourges"},{"_id":3007476,"coord":{"lat":49.566669,"lon":3.66667},"country":"FR","name":"Arrondissement de Laon"},{"_id":6446449,"coord":{"lat":49.48333,"lon":3.13333},"country":"FR","name":"Audignicourt"},{"_id":6451333,"coord":{"lat":50.083328,"lon":1.5},"country":"FR","name":"Béthencourt-sur-Mer"},{"_id":6616756,"coord":{"lat":45.526501,"lon":4.2605},"country":"FR","name":"Andrézieux-Bouthéon"},{"_id":6440225,"coord":{"lat":45.633331,"lon":3.11667},"country":"FR","name":"Saint-Sandoux"},{"_id":6452585,"coord":{"lat":48.349998,"lon":6.15},"country":"FR","name":"Ambacourt"},{"_id":3019599,"coord":{"lat":48.5,"lon":2.25},"country":"FR","name":"Département de l'Essonne"},{"_id":2982966,"coord":{"lat":47.416672,"lon":1.83333},"country":"FR","name":"Arrondissement de Romorantin-Lanthenay"},{"_id":3011841,"coord":{"lat":48.004559,"lon":-4.09275},"country":"FR","name":"Kerfeunteun"},{"_id":3021669,"coord":{"lat":43.75,"lon":-1.16667},"country":"FR","name":"Arrondissement de Dax"},{"_id":3021501,"coord":{"lat":46.5,"lon":-0.25},"country":"FR","name":"Département des Deux-Sèvres"},{"_id":2990354,"coord":{"lat":46.333328,"lon":-0.33333},"country":"FR","name":"Arrondissement de Niort"},{"_id":3013738,"coord":{"lat":44.666672,"lon":6.5},"country":"FR","name":"Département des Hautes-Alpes"},{"_id":3213095,"coord":{"lat":42.70694,"lon":9.45},"country":"FR","name":"Le Fango"},{"_id":3021353,"coord":{"lat":48.416672,"lon":-2.25},"country":"FR","name":"Arrondissement de Dinan"},{"_id":3006783,"coord":{"lat":46.25,"lon":-1},"country":"FR","name":"Arrondissement de La Rochelle"},{"_id":6428099,"coord":{"lat":46.150002,"lon":-0.96667},"country":"FR","name":"Saint-Médard-d'Aunis"},{"_id":2978080,"coord":{"lat":46.15889,"lon":-0.97121},"country":"FR","name":"Saint-Médard-d'Aunis"},{"_id":3037853,"coord":{"lat":49.916672,"lon":2.16667},"country":"FR","name":"Arrondissement d'Amiens"},{"_id":2973781,"coord":{"lat":48.583328,"lon":7.75},"country":"FR","name":"Arrondissement de Strasbourg-Ville"},{"_id":6457369,"coord":{"lat":48.896,"lon":2.2159},"country":"FR","name":"Arrondissement de Nanterre"},{"_id":3037050,"coord":{"lat":48.75,"lon":-0.16667},"country":"FR","name":"Arrondissement d'Argentan"},{"_id":6457373,"coord":{"lat":48.791599,"lon":2.4463},"country":"FR","name":"Arrondissement de Créteil"},{"_id":2980915,"coord":{"lat":48.916672,"lon":2.33333},"country":"FR","name":"Arrondissement de Saint-Denis"},{"_id":3012142,"coord":{"lat":43.568451,"lon":7.1073},"country":"FR","name":"Juan-les-Pins"},{"_id":6440938,"coord":{"lat":43.23333,"lon":0.08333},"country":"FR","name":"Tarbes"},{"_id":2987913,"coord":{"lat":42.75,"lon":2.75},"country":"FR","name":"Arrondissement de Perpignan"},{"_id":3029240,"coord":{"lat":49.083328,"lon":-0.41667},"country":"FR","name":"Arrondissement de Caen"},{"_id":6613907,"coord":{"lat":48.683331,"lon":2.61667},"country":"FR","name":"Brie-Comte-Robert"},{"_id":2996175,"coord":{"lat":48,"lon":0.25},"country":"FR","name":"Arrondissement du Mans"},{"_id":6454415,"coord":{"lat":50.616669,"lon":3.01667},"country":"FR","name":"Loos"},{"_id":3036364,"coord":{"lat":45.751572,"lon":3.11251},"country":"FR","name":"Aubiere"},{"_id":2969440,"coord":{"lat":45.528961,"lon":1.12515},"country":"FR","name":"Viale"},{"_id":6451985,"coord":{"lat":48.816669,"lon":2.18333},"country":"FR","name":"Ville-d'Avray"},{"_id":6457362,"coord":{"lat":48.4044,"lon":2.6903},"country":"FR","name":"Arrondissement de Fontainebleau"},{"_id":6613137,"coord":{"lat":48.866669,"lon":2.43333},"country":"FR","name":"Montreuil"},{"_id":6455212,"coord":{"lat":45.783329,"lon":3.06667},"country":"FR","name":"Chamalières"},{"_id":2990473,"coord":{"lat":46.916672,"lon":3.33333},"country":"FR","name":"Arrondissement de Nevers"},{"_id":6444057,"coord":{"lat":48.650002,"lon":1.83333},"country":"FR","name":"Rambouillet"},{"_id":6456548,"coord":{"lat":43.099998,"lon":5.88333},"country":"FR","name":"La Seyne-sur-Mer"},{"_id":6427331,"coord":{"lat":49.166672,"lon":-0.31667},"country":"FR","name":"Mondeville"},{"_id":3026284,"coord":{"lat":48.166672,"lon":1.41667},"country":"FR","name":"Arrondissement de Châteaudun"},{"_id":2975587,"coord":{"lat":48.833328,"lon":7.25},"country":"FR","name":"Arrondissement de Saverne"},{"_id":6449102,"coord":{"lat":47.333328,"lon":-2.43333},"country":"FR","name":"Guérande"},{"_id":2992162,"coord":{"lat":45.470871,"lon":3.91444},"country":"FR","name":"Montpeloux"},{"_id":6614135,"coord":{"lat":44.883331,"lon":-0.61667},"country":"FR","name":"Bruges"},{"_id":6454004,"coord":{"lat":44.98333,"lon":-1.08333},"country":"FR","name":"Lacanau"},{"_id":6435414,"coord":{"lat":48.916672,"lon":-1.35},"country":"FR","name":"Gavray"},{"_id":6447197,"coord":{"lat":49.133331,"lon":-0.48333},"country":"FR","name":"Baron-sur-Odon"},{"_id":6448141,"coord":{"lat":42.626701,"lon":9.4202},"country":"FR","name":"Biguglia"},{"_id":6431141,"coord":{"lat":42.166672,"lon":8.8},"country":"FR","name":"Vico"},{"_id":6438651,"coord":{"lat":49.23333,"lon":2.9},"country":"FR","name":"Crépy-en-Valois"},{"_id":6614145,"coord":{"lat":43.383331,"lon":5.16667},"country":"FR","name":"Châteauneuf-les-Martigues"},{"_id":6436027,"coord":{"lat":48.73333,"lon":4.2},"country":"FR","name":"Sommesous"},{"_id":6438566,"coord":{"lat":50.666672,"lon":3.15},"country":"FR","name":"Wasquehal"},{"_id":6433470,"coord":{"lat":45.366669,"lon":5.58333},"country":"FR","name":"Voiron"},{"_id":2967758,"coord":{"lat":45.363949,"lon":5.59209},"country":"FR","name":"Voiron"},{"_id":6452043,"coord":{"lat":48.783329,"lon":2.4},"country":"FR","name":"Vitry-sur-Seine"},{"_id":6614016,"coord":{"lat":43.466671,"lon":5.25},"country":"FR","name":"Vitrolles"},{"_id":2967870,"coord":{"lat":43.459999,"lon":5.24861},"country":"FR","name":"Vitrolles"},{"_id":6444102,"coord":{"lat":48.799999,"lon":2.16667},"country":"FR","name":"Viroflay"},{"_id":6457374,"coord":{"lat":48.836102,"lon":2.4836},"country":"FR","name":"Arrondissement de Nogent-sur-Marne"},{"_id":6613142,"coord":{"lat":48.849998,"lon":2.43333},"country":"FR","name":"Vincennes"},{"_id":6452041,"coord":{"lat":48.833328,"lon":2.55},"country":"FR","name":"Villiers-sur-Marne"},{"_id":6446359,"coord":{"lat":49,"lon":2.38333},"country":"FR","name":"Villiers-le-Bel"},{"_id":6436922,"coord":{"lat":48.666672,"lon":6.15},"country":"FR","name":"Villers-lès-Nancy"},{"_id":2968368,"coord":{"lat":48.671028,"lon":6.15083},"country":"FR","name":"Villers-les-Nancy"},{"_id":6457372,"coord":{"lat":48.898602,"lon":2.5193},"country":"FR","name":"Arrondissement du Raincy"},{"_id":6452008,"coord":{"lat":48.966671,"lon":2.53333},"country":"FR","name":"Villepinte"},{"_id":6451986,"coord":{"lat":48.933331,"lon":2.31667},"country":"FR","name":"Villeneuve-la-Garenne"},{"_id":6452007,"coord":{"lat":48.883331,"lon":2.5},"country":"FR","name":"Villemomble"},{"_id":6457375,"coord":{"lat":48.778702,"lon":2.3384},"country":"FR","name":"Arrondissement de L'Haÿ-les-Roses"},{"_id":6452038,"coord":{"lat":48.799999,"lon":2.36667},"country":"FR","name":"Villejuif"},{"_id":6441811,"coord":{"lat":45.98333,"lon":4.71667},"country":"FR","name":"Villefranche-sur-Saône"},{"_id":6433461,"coord":{"lat":45.616669,"lon":5.15},"country":"FR","name":"Villefontaine"},{"_id":2968771,"coord":{"lat":45.612499,"lon":5.14558},"country":"FR","name":"Villefontaine"},{"_id":6446222,"coord":{"lat":48.700001,"lon":2.41667},"country":"FR","name":"Vigneux-sur-Seine"},{"_id":2969257,"coord":{"lat":47.216671,"lon":2.08333},"country":"FR","name":"Vierzon"},{"_id":6434558,"coord":{"lat":47.166672,"lon":-1.48333},"country":"FR","name":"Vertou"},{"_id":2969612,"coord":{"lat":47.16869,"lon":-1.46929},"country":"FR","name":"Vertou"},{"_id":6453910,"coord":{"lat":49.083328,"lon":1.48333},"country":"FR","name":"Vernon"},{"_id":6444094,"coord":{"lat":48.98333,"lon":1.98333},"country":"FR","name":"Verneuil-sur-Seine"},{"_id":6441809,"coord":{"lat":45.697498,"lon":4.8869},"country":"FR","name":"Vénissieux"},{"_id":6444093,"coord":{"lat":48.7836,"lon":2.1887},"country":"FR","name":"Vélizy-Villacoublay"},{"_id":6446349,"coord":{"lat":49.033329,"lon":2.03333},"country":"FR","name":"Vauréal"},{"_id":6441806,"coord":{"lat":45.783329,"lon":4.93333},"country":"FR","name":"Vaulx-en-Velin"},{"_id":2970456,"coord":{"lat":45.781799,"lon":4.92085},"country":"FR","name":"Vaulx-en-Velin"},{"_id":6613135,"coord":{"lat":48.819599,"lon":2.2895},"country":"FR","name":"Vanves"},{"_id":6437407,"coord":{"lat":47.654999,"lon":-2.7604},"country":"FR","name":"Vannes"},{"_id":6614585,"coord":{"lat":48.650002,"lon":6.18333},"country":"FR","name":"Vandœuvre-lès-Nancy"},{"_id":2970797,"coord":{"lat":48.650002,"lon":6.18333},"country":"FR","name":"Vandoeuvre-les-Nancy"},{"_id":6438532,"coord":{"lat":50.349998,"lon":3.53333},"country":"FR","name":"Valenciennes"},{"_id":6453882,"coord":{"lat":44.933331,"lon":4.9},"country":"FR","name":"Valence"},{"_id":6428487,"coord":{"lat":45.26667,"lon":1.76667},"country":"FR","name":"Tulle"},{"_id":6455397,"coord":{"lat":48.949558,"lon":2.5684},"country":"FR","name":"Tremblay-en-France"},{"_id":6444090,"coord":{"lat":48.783329,"lon":2},"country":"FR","name":"Trappes"},{"_id":6454060,"coord":{"lat":47.39019,"lon":0.68901},"country":"FR","name":"Tours"},{"_id":6431860,"coord":{"lat":43.583328,"lon":1.35},"country":"FR","name":"Tournefeuille"},{"_id":2972237,"coord":{"lat":43.588718,"lon":1.31922},"country":"FR","name":"Tournefeuille"},{"_id":6443873,"coord":{"lat":48.849998,"lon":2.65},"country":"FR","name":"Torcy"},{"_id":6452035,"coord":{"lat":48.76667,"lon":2.38333},"country":"FR","name":"Thiais"},{"_id":6425261,"coord":{"lat":49.650002,"lon":3.3},"country":"FR","name":"Tergnier"},{"_id":2973146,"coord":{"lat":49.656071,"lon":3.30107},"country":"FR","name":"Tergnier"},{"_id":6441798,"coord":{"lat":45.76667,"lon":4.78333},"country":"FR","name":"Tassin-la-Demi-Lune"},{"_id":6451982,"coord":{"lat":48.866669,"lon":2.23333},"country":"FR","name":"Suresnes"},{"_id":6452034,"coord":{"lat":48.76667,"lon":2.53333},"country":"FR","name":"Sucy-en-Brie"},{"_id":6452005,"coord":{"lat":48.950001,"lon":2.38333},"country":"FR","name":"Stains"},{"_id":6443537,"coord":{"lat":49.416672,"lon":1.1},"country":"FR","name":"Sotteville-lès-Rouen"},{"_id":6454803,"coord":{"lat":44,"lon":4.86667},"country":"FR","name":"Sorgues"},{"_id":2974188,"coord":{"lat":44.010231,"lon":4.87381},"country":"FR","name":"Sorgues"},{"_id":6425246,"coord":{"lat":49.381199,"lon":3.3236},"country":"FR","name":"Soissons"},{"_id":6617828,"coord":{"lat":43.0938,"lon":5.84},"country":"FR","name":"Six-Fours-les-Plages"},{"_id":2974427,"coord":{"lat":43.099998,"lon":5.85},"country":"FR","name":"Six-Fours-les-Plages"},{"_id":6443056,"coord":{"lat":45.883331,"lon":6.08333},"country":"FR","name":"Seynod"},{"_id":2974655,"coord":{"lat":45.88549,"lon":6.08831},"country":"FR","name":"Seynod"},{"_id":6452004,"coord":{"lat":48.933331,"lon":2.53333},"country":"FR","name":"Sevran"},{"_id":2975049,"coord":{"lat":48.166672,"lon":3.33333},"country":"FR","name":"Arrondissement de Sens"},{"_id":6613904,"coord":{"lat":48.200001,"lon":3.28333},"country":"FR","name":"Sens"},{"_id":6454459,"coord":{"lat":49.200001,"lon":2.58333},"country":"FR","name":"Senlis"},{"_id":2975232,"coord":{"lat":48.333328,"lon":7.41667},"country":"FR","name":"Arrondissement de Sélestat-Erstein"},{"_id":6441356,"coord":{"lat":48.25983,"lon":7.45646},"country":"FR","name":"Sélestat"},{"_id":6426109,"coord":{"lat":49.700001,"lon":4.95},"country":"FR","name":"Sedan"},{"_id":6441347,"coord":{"lat":48.607151,"lon":7.7512},"country":"FR","name":"Schiltigheim"},{"_id":6451980,"coord":{"lat":48.783329,"lon":2.28333},"country":"FR","name":"Sceaux"},{"_id":6443853,"coord":{"lat":48.566669,"lon":2.58333},"country":"FR","name":"Savigny-le-Temple"},{"_id":6435321,"coord":{"lat":47.26667,"lon":-0.08333},"country":"FR","name":"Saumur"},{"_id":6444080,"coord":{"lat":48.950001,"lon":2.18333},"country":"FR","name":"Sartrouville"},{"_id":6446337,"coord":{"lat":49,"lon":2.38333},"country":"FR","name":"Sarcelles"},{"_id":6457376,"coord":{"lat":48.946301,"lon":2.2542},"country":"FR","name":"Arrondissement d'Argenteuil"},{"_id":6446335,"coord":{"lat":48.966671,"lon":2.25},"country":"FR","name":"Sannois"},{"_id":6445067,"coord":{"lat":43.116669,"lon":5.8},"country":"FR","name":"Sanary-sur-Mer"},{"_id":2976258,"coord":{"lat":43.11784,"lon":5.80006},"country":"FR","name":"Sanary-sur-Mer"},{"_id":6443046,"coord":{"lat":45.944229,"lon":6.63162},"country":"FR","name":"Sallanches"},{"_id":2976406,"coord":{"lat":45.944229,"lon":6.63162},"country":"FR","name":"Sallanches"},{"_id":6434540,"coord":{"lat":47.207661,"lon":-1.50337},"country":"FR","name":"Saint-Sébastien-sur-Loire"},{"_id":6445063,"coord":{"lat":43.416672,"lon":6.76667},"country":"FR","name":"Saint-Raphaël"},{"_id":2977293,"coord":{"lat":49.833328,"lon":3.33333},"country":"FR","name":"Arrondissement de Saint-Quentin"},{"_id":6453541,"coord":{"lat":49.849998,"lon":3.28333},"country":"FR","name":"Saint-Quentin"},{"_id":6618456,"coord":{"lat":45.696602,"lon":4.9445},"country":"FR","name":"Saint-Priest"},{"_id":6446332,"coord":{"lat":49.049999,"lon":2.11667},"country":"FR","name":"Saint-Ouen-l'Aumône"},{"_id":6446204,"coord":{"lat":48.633331,"lon":2.3},"country":"FR","name":"Saint-Michel-sur-Orge"},{"_id":6445061,"coord":{"lat":43.450001,"lon":5.86667},"country":"FR","name":"Saint-Maximin-la-Sainte-Baume"},{"_id":6452032,"coord":{"lat":48.799999,"lon":2.5},"country":"FR","name":"Saint-Maur-des-Fossés"},{"_id":6433367,"coord":{"lat":45.166672,"lon":5.76667},"country":"FR","name":"Saint-Martin-d'Hères"},{"_id":6613141,"coord":{"lat":48.833328,"lon":2.41667},"country":"FR","name":"Saint-Mandé"},{"_id":6446330,"coord":{"lat":49.01667,"lon":2.25},"country":"FR","name":"Saint-Leu-la-Forêt"},{"_id":6442430,"coord":{"lat":46.73333,"lon":4.51667},"country":"FR","name":"Saint-Laurent-d'Andenay"},{"_id":2978771,"coord":{"lat":46.730598,"lon":4.50083},"country":"FR","name":"Saint-Leu"},{"_id":6425674,"coord":{"lat":43.666672,"lon":7.18333},"country":"FR","name":"Saint-Laurent-du-Var"},{"_id":6446329,"coord":{"lat":48.966671,"lon":2.28333},"country":"FR","name":"Saint-Gratien"},{"_id":2980339,"coord":{"lat":45.666672,"lon":-0.75},"country":"FR","name":"Arrondissement de Saintes"},{"_id":6453739,"coord":{"lat":45.75,"lon":-0.63333},"country":"FR","name":"Saintes"},{"_id":6446199,"coord":{"lat":48.633331,"lon":2.33333},"country":"FR","name":"Sainte-Geneviève-des-Bois"},{"_id":6441762,"coord":{"lat":45.73333,"lon":4.8},"country":"FR","name":"Sainte-Foy-lès-Lyon"},{"_id":6616671,"coord":{"lat":45.2313,"lon":5.6834},"country":"FR","name":"Saint-Égrève"},{"_id":6615055,"coord":{"lat":48.283329,"lon":6.95},"country":"FR","name":"Saint-Dié-des-Vosges"},{"_id":6444066,"coord":{"lat":48.799999,"lon":2.06667},"country":"FR","name":"Saint-Cyr-l'École"},{"_id":6455340,"coord":{"lat":48.8466,"lon":2.2157},"country":"FR","name":"Saint-Cloud"},{"_id":6434249,"coord":{"lat":45.466671,"lon":4.5},"country":"FR","name":"Saint-Chamond"},{"_id":2981206,"coord":{"lat":45.473652,"lon":4.52541},"country":"FR","name":"Saint-Chamond"},{"_id":6438464,"coord":{"lat":50.447701,"lon":3.428},"country":"FR","name":"Saint-Amand-les-Eaux"},{"_id":6451979,"coord":{"lat":48.883331,"lon":2.2},"country":"FR","name":"Rueil-Malmaison"},{"_id":6453735,"coord":{"lat":45.633331,"lon":-1.03333},"country":"FR","name":"Royan"},{"_id":6454707,"coord":{"lat":49.433331,"lon":1.08333},"country":"FR","name":"Rouen"},{"_id":6438449,"coord":{"lat":50.599998,"lon":3.1},"country":"FR","name":"Ronchin"},{"_id":6430196,"coord":{"lat":45.049999,"lon":5.05},"country":"FR","name":"Romans-sur-Isère"},{"_id":6455392,"coord":{"lat":48.883331,"lon":2.41667},"country":"FR","name":"Romainville"},{"_id":6443810,"coord":{"lat":48.799999,"lon":2.65},"country":"FR","name":"Roissy-en-Brie"},{"_id":6446192,"coord":{"lat":48.650002,"lon":2.41667},"country":"FR","name":"Ris-Orangis"},{"_id":6614515,"coord":{"lat":45.820801,"lon":4.8977},"country":"FR","name":"Rillieux-la-Pape"},{"_id":2983536,"coord":{"lat":45.816669,"lon":4.9},"country":"FR","name":"Rillieux-la-Pape"},{"_id":6432801,"coord":{"lat":48.113998,"lon":-1.6795},"country":"FR","name":"Rennes"},{"_id":6451978,"coord":{"lat":48.883411,"lon":2.23894},"country":"FR","name":"Puteaux"},{"_id":6447156,"coord":{"lat":43.400002,"lon":4.98333},"country":"FR","name":"Port-de-Bouc"},{"_id":2986025,"coord":{"lat":43.40657,"lon":4.9809},"country":"FR","name":"Port-de-Bouc"},{"_id":6454309,"coord":{"lat":48.900002,"lon":6.06667},"country":"FR","name":"Pont-à-Mousson"},{"_id":6454738,"coord":{"lat":48.933331,"lon":2.05},"country":"FR","name":"Poissy"},{"_id":6437335,"coord":{"lat":47.73333,"lon":-3.43333},"country":"FR","name":"Ploemeur"},{"_id":6444051,"coord":{"lat":48.816669,"lon":1.95},"country":"FR","name":"Plaisir"},{"_id":6431755,"coord":{"lat":43.566669,"lon":1.3},"country":"FR","name":"Plaisance-du-Touch"},{"_id":2986933,"coord":{"lat":43.565659,"lon":1.29749},"country":"FR","name":"Plaisance-du-Touch"},{"_id":6452002,"coord":{"lat":48.966671,"lon":2.36667},"country":"FR","name":"Pierrefitte-sur-Seine"},{"_id":3037351,"coord":{"lat":43.833328,"lon":5.33333},"country":"FR","name":"Arrondissement d'Apt"},{"_id":6455299,"coord":{"lat":43.694099,"lon":5.5034},"country":"FR","name":"Pertuis"},{"_id":6452001,"coord":{"lat":48.900002,"lon":2.4},"country":"FR","name":"Pantin"},{"_id":2988621,"coord":{"lat":48.894371,"lon":2.40935},"country":"FR","name":"Pantin"},{"_id":6424614,"coord":{"lat":46.25,"lon":5.66667},"country":"FR","name":"Oyonnax"},{"_id":2988888,"coord":{"lat":46.259171,"lon":5.65727},"country":"FR","name":"Oyonnax"},{"_id":6446317,"coord":{"lat":49.066669,"lon":2.06667},"country":"FR","name":"Osny"},{"_id":6434487,"coord":{"lat":47.26667,"lon":-1.61667},"country":"FR","name":"Orvault"},{"_id":6454880,"coord":{"lat":48.700001,"lon":2.18333},"country":"FR","name":"Orsay"},{"_id":6455343,"coord":{"lat":48.75,"lon":2.4},"country":"FR","name":"Orly"},{"_id":6434674,"coord":{"lat":47.866669,"lon":1.9},"country":"FR","name":"Olivet"},{"_id":2989611,"coord":{"lat":47.86219,"lon":1.8991},"country":"FR","name":"Olivet"},{"_id":6452000,"coord":{"lat":48.883331,"lon":2.46667},"country":"FR","name":"Noisy-le-Sec"},{"_id":6451999,"coord":{"lat":48.849998,"lon":2.56667},"country":"FR","name":"Noisy-le-Grand"},{"_id":6443774,"coord":{"lat":48.849998,"lon":2.63333},"country":"FR","name":"Noisiel"},{"_id":6452026,"coord":{"lat":48.833328,"lon":2.48333},"country":"FR","name":"Nogent-sur-Marne"},{"_id":6454744,"coord":{"lat":46.316669,"lon":-0.46667},"country":"FR","name":"Niort"},{"_id":6431349,"coord":{"lat":43.833328,"lon":4.35},"country":"FR","name":"Nîmes"},{"_id":6454924,"coord":{"lat":43.700001,"lon":7.25},"country":"FR","name":"Nice"},{"_id":6451977,"coord":{"lat":48.883331,"lon":2.26667},"country":"FR","name":"Neuilly-sur-Seine"},{"_id":6613138,"coord":{"lat":48.849998,"lon":2.53333},"country":"FR","name":"Neuilly-sur-Marne"},{"_id":6451997,"coord":{"lat":48.866669,"lon":2.51667},"country":"FR","name":"Neuilly-Plaisance"},{"_id":6454307,"coord":{"lat":48.683331,"lon":6.2},"country":"FR","name":"Nancy"},{"_id":6453959,"coord":{"lat":43.466671,"lon":1.35},"country":"FR","name":"Muret"},{"_id":2991153,"coord":{"lat":43.466671,"lon":1.35},"country":"FR","name":"Muret"},{"_id":2991551,"coord":{"lat":43.598728,"lon":7.00434},"country":"FR","name":"Mougins"},{"_id":6443351,"coord":{"lat":49.466671,"lon":1.08333},"country":"FR","name":"Mont-Saint-Aignan"},{"_id":6451975,"coord":{"lat":48.816669,"lon":2.31667},"country":"FR","name":"Montrouge"},{"_id":6443348,"coord":{"lat":49.549999,"lon":0.2},"country":"FR","name":"Montivilliers"},{"_id":6437728,"coord":{"lat":49.099998,"lon":6.15},"country":"FR","name":"Montigny-lès-Metz"},{"_id":6612927,"coord":{"lat":48.994202,"lon":2.1959},"country":"FR","name":"Montigny-lès-Cormeilles"},{"_id":6444034,"coord":{"lat":48.76667,"lon":2.03333},"country":"FR","name":"Montigny-le-Bretonneux"},{"_id":6446173,"coord":{"lat":48.700001,"lon":2.45},"country":"FR","name":"Montgeron"},{"_id":6451996,"coord":{"lat":48.900002,"lon":2.56667},"country":"FR","name":"Montfermeil"},{"_id":6444032,"coord":{"lat":48.916672,"lon":2.15},"country":"FR","name":"Montesson"},{"_id":6614893,"coord":{"lat":48.383331,"lon":2.95},"country":"FR","name":"Montereau-Fault-Yonne"},{"_id":2992671,"coord":{"lat":48.383331,"lon":2.95},"country":"FR","name":"Montereau-Fault-Yonne"},{"_id":6442326,"coord":{"lat":46.666672,"lon":4.36667},"country":"FR","name":"Montceau-les-Mines"},{"_id":6454138,"coord":{"lat":45.599998,"lon":4.05},"country":"FR","name":"Montbrison"},{"_id":2992890,"coord":{"lat":45.599998,"lon":4.05},"country":"FR","name":"Montbrison"},{"_id":6454798,"coord":{"lat":44.01667,"lon":1.35},"country":"FR","name":"Montauban"},{"_id":6617196,"coord":{"lat":50.642101,"lon":3.1085},"country":"FR","name":"Mons-en-Barœul"},{"_id":6443740,"coord":{"lat":48.616669,"lon":2.6},"country":"FR","name":"Moissy-Cramayel"},{"_id":6612797,"coord":{"lat":48.98333,"lon":2.61667},"country":"FR","name":"Mitry-Mory"},{"_id":6454959,"coord":{"lat":43.583328,"lon":5},"country":"FR","name":"Miramas"},{"_id":6426962,"coord":{"lat":44.099998,"lon":3.08333},"country":"FR","name":"Millau"},{"_id":6441828,"coord":{"lat":45.76667,"lon":5},"country":"FR","name":"Meyzieu"},{"_id":6433240,"coord":{"lat":45.208801,"lon":5.7797},"country":"FR","name":"Meylan"},{"_id":6454365,"coord":{"lat":49.120201,"lon":6.1775},"country":"FR","name":"Metz"},{"_id":6454724,"coord":{"lat":48.533329,"lon":2.66667},"country":"FR","name":"Melun"},{"_id":6454723,"coord":{"lat":48.950001,"lon":2.86667},"country":"FR","name":"Meaux"},{"_id":2994933,"coord":{"lat":48.333328,"lon":-0.66667},"country":"FR","name":"Arrondissement de Mayenne"},{"_id":6454287,"coord":{"lat":48.299999,"lon":-0.61667},"country":"FR","name":"Mayenne"},{"_id":6432549,"coord":{"lat":43.616669,"lon":4.01667},"country":"FR","name":"Mauguio"},{"_id":6454416,"coord":{"lat":50.278809,"lon":3.97473},"country":"FR","name":"Maubeuge"},{"_id":6454879,"coord":{"lat":48.73333,"lon":2.28333},"country":"FR","name":"Massy"},{"_id":6454958,"coord":{"lat":43.400002,"lon":5.05},"country":"FR","name":"Martigues"},{"_id":6444014,"coord":{"lat":48.866669,"lon":2.08333},"country":"FR","name":"Marly-le-Roi"},{"_id":6614574,"coord":{"lat":50.666672,"lon":3.08333},"country":"FR","name":"Marcq-en-Barœul"},{"_id":6444009,"coord":{"lat":48.966671,"lon":1.71667},"country":"FR","name":"Mantes-la-Ville"},{"_id":2996255,"coord":{"lat":43.549999,"lon":6.93333},"country":"FR","name":"Mandelieu-la-Napoule"},{"_id":6451972,"coord":{"lat":48.816669,"lon":2.3},"country":"FR","name":"Malakoff"},{"_id":6612769,"coord":{"lat":46.299999,"lon":4.83333},"country":"FR","name":"Mâcon"},{"_id":6454031,"coord":{"lat":43.683331,"lon":4.13333},"country":"FR","name":"Lunel"},{"_id":2997116,"coord":{"lat":43.67778,"lon":4.13611},"country":"FR","name":"Lunel"},{"_id":6454530,"coord":{"lat":43.099998,"lon":-0.05},"country":"FR","name":"Lourdes"},{"_id":6437298,"coord":{"lat":47.75,"lon":-3.36667},"country":"FR","name":"Lorient"},{"_id":6433608,"coord":{"lat":46.666672,"lon":5.55},"country":"FR","name":"Lons-le-Saunier"},{"_id":6443716,"coord":{"lat":48.833328,"lon":2.61667},"country":"FR","name":"Lognes"},{"_id":6451995,"coord":{"lat":48.916672,"lon":2.55},"country":"FR","name":"Livry-Gargan"},{"_id":6614369,"coord":{"lat":43.916672,"lon":5.05},"country":"FR","name":"L'Isle-sur-la-Sorgue"},{"_id":2998127,"coord":{"lat":43.919151,"lon":5.05092},"country":"FR","name":"LIsle-sur-la-Sorgue"},{"_id":6444000,"coord":{"lat":48.98333,"lon":1.73333},"country":"FR","name":"Limay"},{"_id":6618369,"coord":{"lat":50.422501,"lon":2.7782},"country":"FR","name":"Liévin"},{"_id":6614252,"coord":{"lat":48.783329,"lon":2.33333},"country":"FR","name":"L'Haÿ-les-Roses"},{"_id":6455417,"coord":{"lat":48.900002,"lon":2.11667},"country":"FR","name":"Le Vésinet"},{"_id":6451971,"coord":{"lat":48.900002,"lon":2.28333},"country":"FR","name":"Levallois-Perret"},{"_id":6456578,"coord":{"lat":46.5,"lon":-1.78333},"country":"FR","name":"Les Sables-d'Olonne"},{"_id":6615124,"coord":{"lat":43.410278,"lon":5.31306},"country":"FR","name":"Les Pennes-Mirabeau"},{"_id":3000047,"coord":{"lat":43.410278,"lon":5.31306},"country":"FR","name":"Les Pennes-Mirabeau"},{"_id":6456503,"coord":{"lat":49,"lon":1.91667},"country":"FR","name":"Les Mureaux"},{"_id":6457184,"coord":{"lat":48.883331,"lon":2.43333},"country":"FR","name":"Les Lilas"},{"_id":6456561,"coord":{"lat":46.866669,"lon":-1.01667},"country":"FR","name":"Les Herbiers"},{"_id":6456496,"coord":{"lat":48.816669,"lon":1.98333},"country":"FR","name":"Les Clayes-sous-Bois"},{"_id":6456018,"coord":{"lat":45.043732,"lon":3.88548},"country":"FR","name":"Le Puy-en-Velay"},{"_id":6614030,"coord":{"lat":48.883331,"lon":2.4},"country":"FR","name":"Le Pré-Saint-Gervais"},{"_id":6457132,"coord":{"lat":43.966671,"lon":4.85},"country":"FR","name":"Le Pontet"},{"_id":6457188,"coord":{"lat":48.816669,"lon":2.56667},"country":"FR","name":"Le Plessis-Trévise"},{"_id":6457182,"coord":{"lat":48.783329,"lon":2.26667},"country":"FR","name":"Le Plessis-Robinson"},{"_id":6456462,"coord":{"lat":49.433331,"lon":1.03333},"country":"FR","name":"Le Petit-Quevilly"},{"_id":6614566,"coord":{"lat":48.849998,"lon":2.5},"country":"FR","name":"Le Perreux-sur-Marne"},{"_id":6456504,"coord":{"lat":48.900002,"lon":2.1},"country":"FR","name":"Le Pecq"},{"_id":6618371,"coord":{"lat":50.431499,"lon":2.8331},"country":"FR","name":"Lens"},{"_id":6456483,"coord":{"lat":48.533329,"lon":2.63333},"country":"FR","name":"Le Mée-sur-Seine"},{"_id":6457187,"coord":{"lat":48.816669,"lon":2.36667},"country":"FR","name":"Le Kremlin-Bicêtre"},{"_id":6456448,"coord":{"lat":49.406399,"lon":1.0529},"country":"FR","name":"Le Grand-Quevilly"},{"_id":3035882,"coord":{"lat":46.916672,"lon":4.25},"country":"FR","name":"Arrondissement d'Autun"},{"_id":6614182,"coord":{"lat":46.799999,"lon":4.43333},"country":"FR","name":"Le Creusot"},{"_id":6455402,"coord":{"lat":48.820499,"lon":2.1311},"country":"FR","name":"Le Chesnay"},{"_id":6456674,"coord":{"lat":43.566669,"lon":7.01667},"country":"FR","name":"Le Cannet"},{"_id":6456834,"coord":{"lat":44.866669,"lon":-0.61667},"country":"FR","name":"Le Bouscat"},{"_id":6457205,"coord":{"lat":48.933331,"lon":2.45},"country":"FR","name":"Le Blanc-Mesnil"},{"_id":6436699,"coord":{"lat":48.683331,"lon":6.15},"country":"FR","name":"Laxou"},{"_id":3005417,"coord":{"lat":48.683151,"lon":6.148},"country":"FR","name":"Laxou"},{"_id":6449873,"coord":{"lat":47.765461,"lon":-3.34491},"country":"FR","name":"Lanester"},{"_id":6438313,"coord":{"lat":50.650002,"lon":3.03333},"country":"FR","name":"Lambersart"},{"_id":6614176,"coord":{"lat":50.650002,"lon":3.06667},"country":"FR","name":"La Madeleine"},{"_id":6455408,"coord":{"lat":48.878101,"lon":2.7071},"country":"FR","name":"Lagny-sur-Marne"},{"_id":6457181,"coord":{"lat":48.900002,"lon":2.25},"country":"FR","name":"La Garenne-Colombes"},{"_id":6617825,"coord":{"lat":43.124401,"lon":6.011},"country":"FR","name":"La Garde"},{"_id":3009223,"coord":{"lat":43.122768,"lon":6.00745},"country":"FR","name":"La Garde"},{"_id":6456718,"coord":{"lat":43.166672,"lon":5.6},"country":"FR","name":"La Ciotat"},{"_id":6456914,"coord":{"lat":47.299999,"lon":-1.55},"country":"FR","name":"La Chapelle-sur-Erdre"},{"_id":6456495,"coord":{"lat":48.849998,"lon":2.15},"country":"FR","name":"La Celle-Saint-Cloud"},{"_id":6612925,"coord":{"lat":49.01667,"lon":2.03333},"country":"FR","name":"Jouy-le-Moutier"},{"_id":6433030,"coord":{"lat":47.349998,"lon":0.66667},"country":"FR","name":"Joué-lès-Tours"},{"_id":6452022,"coord":{"lat":48.816669,"lon":2.46667},"country":"FR","name":"Joinville-le-Pont"},{"_id":6440053,"coord":{"lat":45.549999,"lon":3.25},"country":"FR","name":"Issoire"},{"_id":6441484,"coord":{"lat":47.783329,"lon":7.33333},"country":"FR","name":"Illzach"},{"_id":6441162,"coord":{"lat":48.529388,"lon":7.71661},"country":"FR","name":"Illkirch-Graffenstaden"},{"_id":6612809,"coord":{"lat":48.916672,"lon":2.2},"country":"FR","name":"Houilles"},{"_id":6427260,"coord":{"lat":49.200001,"lon":-0.31667},"country":"FR","name":"Hérouville-Saint-Clair"},{"_id":6612924,"coord":{"lat":49,"lon":2.16667},"country":"FR","name":"Herblay"},{"_id":6439604,"coord":{"lat":50.416672,"lon":2.93333},"country":"FR","name":"Hénin-Beaumont"},{"_id":6454411,"coord":{"lat":50.650002,"lon":3.2},"country":"FR","name":"Hem"},{"_id":2972809,"coord":{"lat":49.333328,"lon":6.08333},"country":"FR","name":"Arrondissement de Thionville-Ouest"},{"_id":6437579,"coord":{"lat":49.333328,"lon":6.05},"country":"FR","name":"Hayange"},{"_id":6438281,"coord":{"lat":50.251099,"lon":3.92272},"country":"FR","name":"Hautmont"},{"_id":6617159,"coord":{"lat":49.3587,"lon":6.1892},"country":"FR","name":"Yutz"},{"_id":6454410,"coord":{"lat":50.599998,"lon":2.98333},"country":"FR","name":"Haubourdin"},{"_id":6438272,"coord":{"lat":50.783329,"lon":3.13333},"country":"FR","name":"Halluin"},{"_id":6443985,"coord":{"lat":48.76667,"lon":2.06667},"country":"FR","name":"Guyancourt"},{"_id":6447740,"coord":{"lat":46.166672,"lon":1.86667},"country":"FR","name":"Guéret"},{"_id":3014383,"coord":{"lat":46.166672,"lon":1.86667},"country":"FR","name":"Gueret"},{"_id":6454920,"coord":{"lat":43.666672,"lon":6.91667},"country":"FR","name":"Grasse"},{"_id":6438266,"coord":{"lat":51.012501,"lon":2.28333},"country":"FR","name":"Grande-Synthe"},{"_id":3015160,"coord":{"lat":51.0154,"lon":2.29975},"country":"FR","name":"Grande-Synthe"},{"_id":6454889,"coord":{"lat":48.98333,"lon":2.45},"country":"FR","name":"Gonesse"},{"_id":6450768,"coord":{"lat":45.583328,"lon":4.76667},"country":"FR","name":"Givors"},{"_id":3015902,"coord":{"lat":45.584148,"lon":4.77256},"country":"FR","name":"Givors"},{"_id":3016097,"coord":{"lat":47.693321,"lon":2.63094},"country":"FR","name":"Gien"},{"_id":6451969,"coord":{"lat":48.933331,"lon":2.3},"country":"FR","name":"Gennevilliers"},{"_id":6612922,"coord":{"lat":48.967911,"lon":2.39781},"country":"FR","name":"Garges-lès-Gonesse"},{"_id":6447128,"coord":{"lat":43.450001,"lon":5.46667},"country":"FR","name":"Gardanne"},{"_id":3016667,"coord":{"lat":43.45491,"lon":5.46913},"country":"FR","name":"Gardanne"},{"_id":6613139,"coord":{"lat":48.75,"lon":2.31667},"country":"FR","name":"Fresnes"},{"_id":6446266,"coord":{"lat":48.98333,"lon":2.23333},"country":"FR","name":"Franconville"},{"_id":6447126,"coord":{"lat":43.433331,"lon":4.95},"country":"FR","name":"Fos-sur-Mer"},{"_id":6454357,"coord":{"lat":49.183331,"lon":6.9},"country":"FR","name":"Forbach"},{"_id":6452019,"coord":{"lat":48.849998,"lon":2.48333},"country":"FR","name":"Fontenay-sous-Bois"},{"_id":6451967,"coord":{"lat":48.783329,"lon":2.28333},"country":"FR","name":"Fontenay-aux-Roses"},{"_id":6454069,"coord":{"lat":45.183331,"lon":5.66667},"country":"FR","name":"Fontaine"},{"_id":3018095,"coord":{"lat":45.198391,"lon":5.68265},"country":"FR","name":"Fontaine"},{"_id":6432224,"coord":{"lat":44.833328,"lon":-0.53333},"country":"FR","name":"Floirac"},{"_id":3018246,"coord":{"lat":44.832378,"lon":-0.51411},"country":"FR","name":"Floirac"},{"_id":6454689,"coord":{"lat":49.75,"lon":0.36667},"country":"FR","name":"Fécamp"},{"_id":6614164,"coord":{"lat":50.5989,"lon":3.0743},"country":"FR","name":"Faches-Thumesnil"},{"_id":6454878,"coord":{"lat":48.633331,"lon":2.45},"country":"FR","name":"Évry"},{"_id":6453890,"coord":{"lat":49.024311,"lon":1.15223},"country":"FR","name":"Évreux"},{"_id":6456916,"coord":{"lat":47.285999,"lon":-2.3914},"country":"FR","name":"La Baule-Escoublac"},{"_id":6446263,"coord":{"lat":48.98333,"lon":2.26667},"country":"FR","name":"Ermont"},{"_id":6612921,"coord":{"lat":49.01667,"lon":2.1},"country":"FR","name":"Éragny"},{"_id":6451992,"coord":{"lat":48.950001,"lon":2.31667},"country":"FR","name":"Épinay-sur-Seine"},{"_id":6445533,"coord":{"lat":48.183331,"lon":6.45},"country":"FR","name":"Épinal"},{"_id":6443956,"coord":{"lat":48.783329,"lon":1.95},"country":"FR","name":"Élancourt"},{"_id":6450758,"coord":{"lat":45.76667,"lon":4.76667},"country":"FR","name":"Écully"},{"_id":3020392,"coord":{"lat":45.77726,"lon":4.77481},"country":"FR","name":"Ecully"},{"_id":6446255,"coord":{"lat":49,"lon":2.28333},"country":"FR","name":"Eaubonne"},{"_id":6454876,"coord":{"lat":48.683331,"lon":2.41667},"country":"FR","name":"Draveil"},{"_id":6614518,"coord":{"lat":48.095451,"lon":-4.32758},"country":"FR","name":"Douarnenez"},{"_id":6454407,"coord":{"lat":50.366669,"lon":3.06667},"country":"FR","name":"Douai"},{"_id":6446254,"coord":{"lat":49.033329,"lon":2.33333},"country":"FR","name":"Domont"},{"_id":6454103,"coord":{"lat":47.099998,"lon":5.5},"country":"FR","name":"Dole"},{"_id":6453767,"coord":{"lat":47.316669,"lon":5.01667},"country":"FR","name":"Dijon"},{"_id":6612788,"coord":{"lat":49.9212,"lon":1.0781},"country":"FR","name":"Dieppe"},{"_id":6446253,"coord":{"lat":48.98333,"lon":2.33333},"country":"FR","name":"Deuil-la-Barre"},{"_id":6454406,"coord":{"lat":50.333328,"lon":3.38333},"country":"FR","name":"Denain"},{"_id":3021605,"coord":{"lat":50.3293,"lon":3.3943},"country":"FR","name":"Denain"},{"_id":3021662,"coord":{"lat":45.76899,"lon":4.97277},"country":"FR","name":"Decines-Charpieu"},{"_id":6431537,"coord":{"lat":43.533329,"lon":1.36667},"country":"FR","name":"Cugnaux"},{"_id":3022151,"coord":{"lat":43.53635,"lon":1.34428},"country":"FR","name":"Cugnaux"},{"_id":6614158,"coord":{"lat":45.900002,"lon":6.1},"country":"FR","name":"Cran-Gevrier"},{"_id":6455399,"coord":{"lat":48.896721,"lon":2.25666},"country":"FR","name":"Courbevoie"},{"_id":6443622,"coord":{"lat":48.816669,"lon":3.08333},"country":"FR","name":"Coulommiers"},{"_id":6438174,"coord":{"lat":51.033329,"lon":2.4},"country":"FR","name":"Coudekerque-Branche"},{"_id":6612920,"coord":{"lat":48.98333,"lon":2.2},"country":"FR","name":"Cormeilles-en-Parisis"},{"_id":6446125,"coord":{"lat":48.599998,"lon":2.48333},"country":"FR","name":"Corbeil-Essonnes"},{"_id":6443946,"coord":{"lat":48.996899,"lon":2.0951},"country":"FR","name":"Conflans-Sainte-Honorine"},{"_id":6448064,"coord":{"lat":47.866669,"lon":-3.91667},"country":"FR","name":"Concarneau"},{"_id":6454431,"coord":{"lat":49.417938,"lon":2.82606},"country":"FR","name":"Compiègne"},{"_id":6612792,"coord":{"lat":48.666672,"lon":2.56667},"country":"FR","name":"Combs-la-Ville"},{"_id":2986293,"coord":{"lat":48.798,"lon":2.6063},"country":"FR","name":"Pontault-Combault"},{"_id":6431531,"coord":{"lat":43.616669,"lon":1.35},"country":"FR","name":"Colomiers"},{"_id":3024223,"coord":{"lat":43.612469,"lon":1.33278},"country":"FR","name":"Colomiers"},{"_id":6455258,"coord":{"lat":46.062511,"lon":6.57497},"country":"FR","name":"Cluses"},{"_id":6451988,"coord":{"lat":48.916672,"lon":2.55},"country":"FR","name":"Clichy-sous-Bois"},{"_id":6455396,"coord":{"lat":48.900002,"lon":2.3},"country":"FR","name":"Clichy"},{"_id":6451966,"coord":{"lat":48.799999,"lon":2.26667},"country":"FR","name":"Clamart"},{"_id":6452017,"coord":{"lat":48.76667,"lon":2.41667},"country":"FR","name":"Choisy-le-Roi"},{"_id":6446124,"coord":{"lat":48.700001,"lon":2.3},"country":"FR","name":"Chilly-Mazarin"},{"_id":6452016,"coord":{"lat":48.76667,"lon":2.35},"country":"FR","name":"Chevilly-Larue"},{"_id":3025466,"coord":{"lat":49.639839,"lon":-1.61636},"country":"FR","name":"Cherbourg-Octeville"},{"_id":3025496,"coord":{"lat":47.293228,"lon":5.00457},"country":"FR","name":"Chenove"},{"_id":6452015,"coord":{"lat":48.799999,"lon":2.51667},"country":"FR","name":"Chennevières-sur-Marne"},{"_id":6455391,"coord":{"lat":48.799999,"lon":2.2},"country":"FR","name":"Chaville"},{"_id":6443940,"coord":{"lat":48.883331,"lon":2.15},"country":"FR","name":"Chatou"},{"_id":6455338,"coord":{"lat":48.799999,"lon":2.28333},"country":"FR","name":"Châtillon"},{"_id":6613133,"coord":{"lat":48.76667,"lon":2.26667},"country":"FR","name":"Châtenay-Malabry"},{"_id":3026140,"coord":{"lat":46.833328,"lon":0.33333},"country":"FR","name":"Arrondissement de Châtellerault"},{"_id":6451666,"coord":{"lat":46.817101,"lon":0.5462},"country":"FR","name":"Châtellerault"},{"_id":6448033,"coord":{"lat":48.070801,"lon":1.3382},"country":"FR","name":"Châteaudun"},{"_id":6448031,"coord":{"lat":48.450001,"lon":1.5},"country":"FR","name":"Chartres"},{"_id":6452014,"coord":{"lat":48.816669,"lon":2.41667},"country":"FR","name":"Charenton-le-Pont"},{"_id":6458579,"coord":{"lat":48.849998,"lon":2.6},"country":"FR","name":"Champs-sur-Marne"},{"_id":6452013,"coord":{"lat":48.816669,"lon":2.51667},"country":"FR","name":"Champigny-sur-Marne"},{"_id":6451605,"coord":{"lat":46.849998,"lon":-1.88333},"country":"FR","name":"Challans"},{"_id":3027513,"coord":{"lat":46.843632,"lon":-1.8749},"country":"FR","name":"Challans"},{"_id":6454886,"coord":{"lat":49.033329,"lon":2.06667},"country":"FR","name":"Cergy"},{"_id":6432185,"coord":{"lat":44.849998,"lon":-0.53333},"country":"FR","name":"Cenon"},{"_id":3027950,"coord":{"lat":44.8559,"lon":-0.51839},"country":"FR","name":"Cenon"},{"_id":6613679,"coord":{"lat":43.900002,"lon":5.28333},"country":"FR","name":"Roussillon"},{"_id":3028133,"coord":{"lat":43.916672,"lon":5.28333},"country":"FR","name":"Cavaillon"},{"_id":6614137,"coord":{"lat":43.833328,"lon":5.03333},"country":"FR","name":"Cavaillon"},{"_id":6451369,"coord":{"lat":43.599998,"lon":2.25},"country":"FR","name":"Castres"},{"_id":6448480,"coord":{"lat":43.633331,"lon":3.9},"country":"FR","name":"Castelnau-le-Lez"},{"_id":3028337,"coord":{"lat":43.633331,"lon":3.9},"country":"FR","name":"Castelnau-le-Lez"},{"_id":6443933,"coord":{"lat":48.950001,"lon":2.03333},"country":"FR","name":"Carrières-sous-Poissy"},{"_id":6449079,"coord":{"lat":47.299999,"lon":-1.5},"country":"FR","name":"Carquefou"},{"_id":6451534,"coord":{"lat":44.049999,"lon":5.05},"country":"FR","name":"Carpentras"},{"_id":6443130,"coord":{"lat":49.450001,"lon":1.03333},"country":"FR","name":"Canteleu"},{"_id":6446684,"coord":{"lat":43.549999,"lon":7.01667},"country":"FR","name":"Cannes"},{"_id":6450723,"coord":{"lat":45.799999,"lon":4.85},"country":"FR","name":"Caluire-et-Cuire"},{"_id":6618424,"coord":{"lat":50.947201,"lon":1.8566},"country":"FR","name":"Calais"},{"_id":6449211,"coord":{"lat":44.4491,"lon":1.43766},"country":"FR","name":"Cahors"},{"_id":6446682,"coord":{"lat":43.666672,"lon":7.15},"country":"FR","name":"Cagnes-sur-Mer"},{"_id":3029227,"coord":{"lat":43.6646,"lon":7.15339},"country":"FR","name":"Cagnes-sur-Mer"},{"_id":6455401,"coord":{"lat":48.783329,"lon":2.33333},"country":"FR","name":"Cachan"},{"_id":6452011,"coord":{"lat":48.833328,"lon":2.51667},"country":"FR","name":"Bry-sur-Marne"},{"_id":6446110,"coord":{"lat":48.700001,"lon":2.5},"country":"FR","name":"Brunoy"},{"_id":6617278,"coord":{"lat":50.480999,"lon":2.5487},"country":"FR","name":"Bruay-la-Buissière"},{"_id":6446106,"coord":{"lat":48.611382,"lon":2.30554},"country":"FR","name":"Brétigny-sur-Orge"},{"_id":6448047,"coord":{"lat":48.391171,"lon":-4.48521},"country":"FR","name":"Brest"},{"_id":3030302,"coord":{"lat":46.916672,"lon":-0.5},"country":"FR","name":"Arrondissement de Bressuire"},{"_id":6455270,"coord":{"lat":46.849998,"lon":-0.48333},"country":"FR","name":"Bressuire"},{"_id":6614456,"coord":{"lat":45.591301,"lon":5.2802},"country":"FR","name":"Bourgoin-Jallieu"},{"_id":3030960,"coord":{"lat":45.583328,"lon":5.28333},"country":"FR","name":"Bourgoin"},{"_id":6447897,"coord":{"lat":44.950001,"lon":4.88333},"country":"FR","name":"Bourg-lès-Valence"},{"_id":6451963,"coord":{"lat":48.783329,"lon":2.31667},"country":"FR","name":"Bourg-la-Reine"},{"_id":6446395,"coord":{"lat":46.200001,"lon":5.21667},"country":"FR","name":"Bourg-en-Bresse"},{"_id":6439391,"coord":{"lat":50.716671,"lon":1.61667},"country":"FR","name":"Boulogne-sur-Mer"},{"_id":3031268,"coord":{"lat":47.17762,"lon":-1.62143},"country":"FR","name":"Bouguenais"},{"_id":6451987,"coord":{"lat":48.900002,"lon":2.46667},"country":"FR","name":"Bondy"},{"_id":6452612,"coord":{"lat":48.75,"lon":2.51667},"country":"FR","name":"Boissy-Saint-Léger"},{"_id":6614115,"coord":{"lat":48.916672,"lon":2.26667},"country":"FR","name":"Bois-Colombes"},{"_id":6452608,"coord":{"lat":48.900002,"lon":2.45},"country":"FR","name":"Bobigny"},{"_id":6450593,"coord":{"lat":48.616341,"lon":7.75515},"country":"FR","name":"Bischheim"},{"_id":6452064,"coord":{"lat":48.933331,"lon":2.21667},"country":"FR","name":"Bezons"},{"_id":6455063,"coord":{"lat":43.349998,"lon":3.25},"country":"FR","name":"Béziers"},{"_id":6618433,"coord":{"lat":50.529598,"lon":2.6405},"country":"FR","name":"Béthune"},{"_id":6617275,"coord":{"lat":50.4081,"lon":1.5938},"country":"FR","name":"Berck"},{"_id":3033415,"coord":{"lat":50.400002,"lon":1.6},"country":"FR","name":"Berck"},{"_id":3033416,"coord":{"lat":50.40704,"lon":1.56446},"country":"FR","name":"Berck-Plage"},{"_id":6455043,"coord":{"lat":43.616669,"lon":1.5},"country":"FR","name":"Balma"},{"_id":3035204,"coord":{"lat":43.611111,"lon":1.49944},"country":"FR","name":"Balma"},{"_id":6448187,"coord":{"lat":44.166672,"lon":4.61667},"country":"FR","name":"Bagnols-sur-Cèze"},{"_id":3035396,"coord":{"lat":44.159901,"lon":4.61776},"country":"FR","name":"Bagnols-sur-Ceze"},{"_id":6455381,"coord":{"lat":48.799999,"lon":2.3},"country":"FR","name":"Bagneux"},{"_id":6452606,"coord":{"lat":48.9366,"lon":2.4938},"country":"FR","name":"Aulnay-sous-Bois"},{"_id":6447821,"coord":{"lat":47.48333,"lon":6.83333},"country":"FR","name":"Audincourt"},{"_id":3036240,"coord":{"lat":47.483269,"lon":6.85341},"country":"FR","name":"Audincourt"},{"_id":6452605,"coord":{"lat":48.916672,"lon":2.38333},"country":"FR","name":"Aubervilliers"},{"_id":6452137,"coord":{"lat":43.283329,"lon":5.56667},"country":"FR","name":"Aubagne"},{"_id":6451944,"coord":{"lat":48.716671,"lon":2.4},"country":"FR","name":"Athis-Mons"},{"_id":6455398,"coord":{"lat":48.916672,"lon":2.28333},"country":"FR","name":"Asnières-sur-Seine"},{"_id":6618442,"coord":{"lat":50.289299,"lon":2.7809},"country":"FR","name":"Arras"},{"_id":6455353,"coord":{"lat":43.676781,"lon":4.63082},"country":"FR","name":"Arles"},{"_id":6452047,"coord":{"lat":48.950001,"lon":2.25},"country":"FR","name":"Argenteuil"},{"_id":6613168,"coord":{"lat":48.799999,"lon":2.33333},"country":"FR","name":"Arcueil"},{"_id":6452604,"coord":{"lat":48.75,"lon":2.3},"country":"FR","name":"Antony"},{"_id":6452097,"coord":{"lat":43.583328,"lon":7.11667},"country":"FR","name":"Antibes"},{"_id":6454927,"coord":{"lat":45.23333,"lon":4.66667},"country":"FR","name":"Annonay"},{"_id":3037514,"coord":{"lat":45.2397,"lon":4.67075},"country":"FR","name":"Annonay"},{"_id":6455254,"coord":{"lat":45.900002,"lon":6.11667},"country":"FR","name":"Annecy"},{"_id":6450366,"coord":{"lat":43.48333,"lon":-1.53333},"country":"FR","name":"Anglet"},{"_id":6452135,"coord":{"lat":43.333328,"lon":5.48333},"country":"FR","name":"Allauch"},{"_id":3038159,"coord":{"lat":43.335732,"lon":5.48201},"country":"FR","name":"Allauch"},{"_id":6455357,"coord":{"lat":44.133331,"lon":4.08333},"country":"FR","name":"Alès"},{"_id":6450958,"coord":{"lat":45.673679,"lon":6.387},"country":"FR","name":"Albertville"},{"_id":6452235,"coord":{"lat":41.916672,"lon":8.73333},"country":"FR","name":"Ajaccio"},{"_id":6452510,"coord":{"lat":45.688499,"lon":5.9156},"country":"FR","name":"Aix-les-Bains"},{"_id":6424473,"coord":{"lat":43.316669,"lon":3.46667},"country":"FR","name":"Agde"},{"_id":6455373,"coord":{"lat":48.966671,"lon":2.06667},"country":"FR","name":"Achères"},{"_id":6455375,"coord":{"lat":50.099998,"lon":1.83333},"country":"FR","name":"Abbeville"},{"_id":6543862,"coord":{"lat":50.616692,"lon":3.16664},"country":"FR","name":"Villeneuve-dAscq"},{"_id":6615539,"coord":{"lat":45.586109,"lon":5.27361},"country":"FR","name":"Bourgoin-Jallieu"},{"_id":2967326,"coord":{"lat":50.8853,"lon":1.66263},"country":"FR","name":"Wissant"},{"_id":6437934,"coord":{"lat":49.26667,"lon":6.1},"country":"FR","name":"Vitry-sur-Orne"},{"_id":6444796,"coord":{"lat":49.996799,"lon":2.3183},"country":"FR","name":"Villers-Bocage"},{"_id":2968758,"coord":{"lat":43.400002,"lon":1.71694},"country":"FR","name":"Villefranche-de-Lauragais"},{"_id":6616755,"coord":{"lat":47.293201,"lon":1.7711},"country":"FR","name":"Villefranche-sur-Cher"},{"_id":6435351,"coord":{"lat":47.25,"lon":-0.03333},"country":"FR","name":"Villebernier"},{"_id":6435348,"coord":{"lat":47.400002,"lon":0.05},"country":"FR","name":"Vernantes"},{"_id":6437905,"coord":{"lat":49.083328,"lon":6.7},"country":"FR","name":"Valmont"},{"_id":2971117,"coord":{"lat":43.632919,"lon":6.99911},"country":"FR","name":"Valbonne"},{"_id":6445250,"coord":{"lat":46.599998,"lon":-1.75},"country":"FR","name":"Vairé"},{"_id":6445777,"coord":{"lat":48.083328,"lon":6.35},"country":"FR","name":"Uzemain"},{"_id":6430257,"coord":{"lat":44.283329,"lon":4.93333},"country":"FR","name":"Tulette"},{"_id":6441052,"coord":{"lat":42.616669,"lon":2.81667},"country":"FR","name":"Trouillas"},{"_id":6437405,"coord":{"lat":47.683331,"lon":-2.61667},"country":"FR","name":"Treffléan"},{"_id":3032422,"coord":{"lat":46.666672,"lon":1.16667},"country":"FR","name":"Arrondissement du Blanc"},{"_id":6440945,"coord":{"lat":43.183331,"lon":0.25},"country":"FR","name":"Tournay"},{"_id":6442512,"coord":{"lat":46.683331,"lon":4.13333},"country":"FR","name":"Toulon-sur-Arroux"},{"_id":6434549,"coord":{"lat":47.26667,"lon":-1.45},"country":"FR","name":"Thouaré-sur-Loire"},{"_id":6439907,"coord":{"lat":50.75,"lon":2.2},"country":"FR","name":"Tatinghem"},{"_id":2974066,"coord":{"lat":44.897202,"lon":1.47224},"country":"FR","name":"Souillac"},{"_id":6434137,"coord":{"lat":47.450001,"lon":2.16667},"country":"FR","name":"Souesmes"},{"_id":6612501,"coord":{"lat":47.783329,"lon":-2.08333},"country":"FR","name":"Sixt-sur-Aff"},{"_id":6427869,"coord":{"lat":45.616669,"lon":0.01667},"country":"FR","name":"Sireuil"},{"_id":6441345,"coord":{"lat":48.286961,"lon":7.42229},"country":"FR","name":"Scherwiller"},{"_id":6445364,"coord":{"lat":46.383331,"lon":0.88333},"country":"FR","name":"Saulgé"},{"_id":2975949,"coord":{"lat":42.012409,"lon":8.85055},"country":"FR","name":"Sarrola-Carcopino"},{"_id":6437857,"coord":{"lat":48.73333,"lon":7.05},"country":"FR","name":"Sarrebourg"},{"_id":2975992,"coord":{"lat":48.998581,"lon":7.03074},"country":"FR","name":"Sarralbe"},{"_id":2976415,"coord":{"lat":48.421558,"lon":3.0213},"country":"FR","name":"Salins"},{"_id":2976743,"coord":{"lat":45.841339,"lon":-1.20728},"country":"FR","name":"Saint-Trojan-les-Bains"},{"_id":6454748,"coord":{"lat":46.26667,"lon":-0.5},"country":"FR","name":"Saint-Symphorien"},{"_id":6454458,"coord":{"lat":49.433331,"lon":2},"country":"FR","name":"Saint-Paul"},{"_id":6433122,"coord":{"lat":47.599998,"lon":0.48333},"country":"FR","name":"Saint-Paterne-Racan"},{"_id":6436846,"coord":{"lat":48.633331,"lon":6.3},"country":"FR","name":"Saint-Nicolas-de-Port"},{"_id":6445033,"coord":{"lat":43.965,"lon":1.4291},"country":"FR","name":"Saint-Nauphary"},{"_id":6436845,"coord":{"lat":48.700001,"lon":6.21667},"country":"FR","name":"Saint-Max"},{"_id":6435295,"coord":{"lat":47.316669,"lon":-0.8},"country":"FR","name":"Saint-Laurent-de-la-Plaine"},{"_id":6615631,"coord":{"lat":46.028702,"lon":5.39},"country":"FR","name":"Saint-Jean-le-Vieux"},{"_id":6428854,"coord":{"lat":47.099998,"lon":5.25},"country":"FR","name":"Saint-Jean-de-Losne"},{"_id":6428082,"coord":{"lat":46.26667,"lon":-0.88333},"country":"FR","name":"Saint-Jean-de-Liversay"},{"_id":6431806,"coord":{"lat":43.116669,"lon":0.73333},"country":"FR","name":"Saint-Gaudens"},{"_id":6445192,"coord":{"lat":46.849998,"lon":-1.18333},"country":"FR","name":"Saint-Fulgent"},{"_id":6615691,"coord":{"lat":46.412102,"lon":3.8951},"country":"FR","name":"Le Pin"},{"_id":6435284,"coord":{"lat":47.366669,"lon":-1.01667},"country":"FR","name":"Saint-Florent-le-Vieil"},{"_id":6431802,"coord":{"lat":43.450001,"lon":1.9},"country":"FR","name":"Saint-Félix-Lauragais"},{"_id":6613972,"coord":{"lat":45.349998,"lon":6.28333},"country":"FR","name":"Saint-Etienne-de-Cuines"},{"_id":2980328,"coord":{"lat":45.24329,"lon":4.23343},"country":"FR","name":"Sainte-Sigolene"},{"_id":6433330,"coord":{"lat":45.349998,"lon":5.55},"country":"FR","name":"Saint-Cassien"},{"_id":6434509,"coord":{"lat":47.716671,"lon":-1.48333},"country":"FR","name":"Saint-Aubin-des-Châteaux"},{"_id":6426546,"coord":{"lat":48.283329,"lon":4.05},"country":"FR","name":"Saint-André-les-Vergers"},{"_id":6445722,"coord":{"lat":48.033329,"lon":6.66667},"country":"FR","name":"Saint-Amé"},{"_id":6438459,"coord":{"lat":50.133331,"lon":3.21667},"country":"FR","name":"Rumilly-en-Cambrésis"},{"_id":6441600,"coord":{"lat":47.849998,"lon":7.51667},"country":"FR","name":"Rumersheim-le-Haut"},{"_id":2982798,"coord":{"lat":47.634708,"lon":7.54099},"country":"FR","name":"Rosenau"},{"_id":2983174,"coord":{"lat":48.83783,"lon":2.10228},"country":"FR","name":"Rocquencourt"},{"_id":6428043,"coord":{"lat":46.166672,"lon":-1.26667},"country":"FR","name":"Rivedoux-Plage"},{"_id":6441586,"coord":{"lat":48.166801,"lon":7.2978},"country":"FR","name":"Riquewihr"},{"_id":2983482,"coord":{"lat":46.04179,"lon":4.04966},"country":"FR","name":"Riorges"},{"_id":6439828,"coord":{"lat":50.799999,"lon":1.73333},"country":"FR","name":"Rinxent"},{"_id":6425560,"coord":{"lat":43.816669,"lon":6.1},"country":"FR","name":"Riez"},{"_id":2983712,"coord":{"lat":44.037239,"lon":4.08046},"country":"FR","name":"Ribaute-les-Tavernes"},{"_id":6435555,"coord":{"lat":49.616669,"lon":-1.25},"country":"FR","name":"Réville"},{"_id":6437806,"coord":{"lat":49.099998,"lon":7.08333},"country":"FR","name":"Rémelfing"},{"_id":6436820,"coord":{"lat":49.5,"lon":5.75},"country":"FR","name":"Réhon"},{"_id":6438438,"coord":{"lat":50.28418,"lon":4.03868},"country":"FR","name":"Recquignies"},{"_id":6617260,"coord":{"lat":48.750301,"lon":0.5822},"country":"FR","name":"Rai"},{"_id":2984532,"coord":{"lat":48.75,"lon":0.58333},"country":"FR","name":"Rai"},{"_id":2984719,"coord":{"lat":42.87579,"lon":2.18176},"country":"FR","name":"Quillan"},{"_id":6429104,"coord":{"lat":48.700001,"lon":-3.1},"country":"FR","name":"Quemper-Guézennec"},{"_id":2984846,"coord":{"lat":47.933331,"lon":-0.8},"country":"FR","name":"Quelaines-Saint-Gault"},{"_id":6438422,"coord":{"lat":50.166672,"lon":3.2},"country":"FR","name":"Proville"},{"_id":6426058,"coord":{"lat":49.75,"lon":4.68333},"country":"FR","name":"Prix-lès-Mézières"},{"_id":6444179,"coord":{"lat":46.25,"lon":-0.35},"country":"FR","name":"Prahecq"},{"_id":6440879,"coord":{"lat":43.083328,"lon":0.13333},"country":"FR","name":"Pouzac"},{"_id":6434226,"coord":{"lat":46.033329,"lon":3.98333},"country":"FR","name":"Pouilly-les-Nonains"},{"_id":6437350,"coord":{"lat":47.706299,"lon":-3.3526},"country":"FR","name":"Port-Louis"},{"_id":6426518,"coord":{"lat":48.316669,"lon":4.1},"country":"FR","name":"Pont-Sainte-Marie"},{"_id":6428814,"coord":{"lat":47.299999,"lon":5.41667},"country":"FR","name":"Pontailler-sur-Saône"},{"_id":6429098,"coord":{"lat":48.73333,"lon":-3.23333},"country":"FR","name":"Pommerit-Jaudy"},{"_id":2986486,"coord":{"lat":49.783329,"lon":1.98333},"country":"FR","name":"Poix-de-Picardie"},{"_id":6431016,"coord":{"lat":48.583328,"lon":-4.03333},"country":"FR","name":"Plouvorn"},{"_id":6431006,"coord":{"lat":48.533329,"lon":-4.6},"country":"FR","name":"Plouguin"},{"_id":6429077,"coord":{"lat":48.799999,"lon":-3.23333},"country":"FR","name":"Plouguiel"},{"_id":6429074,"coord":{"lat":48.84026,"lon":-3.23015},"country":"FR","name":"Plougrescant"},{"_id":6430996,"coord":{"lat":48.633331,"lon":-4},"country":"FR","name":"Plouénan"},{"_id":6429068,"coord":{"lat":48.799999,"lon":-3.03333},"country":"FR","name":"Ploubazlanec"},{"_id":6437339,"coord":{"lat":47.916672,"lon":-3.33333},"country":"FR","name":"Plouay"},{"_id":2986709,"coord":{"lat":48.01667,"lon":-4.21667},"country":"FR","name":"Ploneis"},{"_id":6430985,"coord":{"lat":47.933331,"lon":-4.15},"country":"FR","name":"Plomelin"},{"_id":6428804,"coord":{"lat":47.333328,"lon":4.96667},"country":"FR","name":"Plombières-lès-Dijon"},{"_id":6437334,"coord":{"lat":47.650002,"lon":-3.06667},"country":"FR","name":"Ploemel"},{"_id":6615132,"coord":{"lat":47.816669,"lon":-4.21667},"country":"FR","name":"Plobannalec-Lesconil"},{"_id":6430979,"coord":{"lat":47.900002,"lon":-4.03333},"country":"FR","name":"Pleuven"},{"_id":6440999,"coord":{"lat":42.700001,"lon":2.76667},"country":"FR","name":"Pézilla-la-Rivière"},{"_id":6425137,"coord":{"lat":49.400002,"lon":3.3},"country":"FR","name":"Pasly"},{"_id":6454745,"coord":{"lat":46.650002,"lon":-0.25},"country":"FR","name":"Parthenay"},{"_id":6434685,"coord":{"lat":48.01667,"lon":2.66667},"country":"FR","name":"Pannes"},{"_id":6441281,"coord":{"lat":48.725281,"lon":7.37809},"country":"FR","name":"Otterswiller"},{"_id":6438402,"coord":{"lat":50.450001,"lon":3.03333},"country":"FR","name":"Ostricourt"},{"_id":2989208,"coord":{"lat":44.131062,"lon":4.6652},"country":"FR","name":"Orsan"},{"_id":2989484,"coord":{"lat":43.828659,"lon":5.16161},"country":"FR","name":"Oppede"},{"_id":2989799,"coord":{"lat":48.849998,"lon":7.53333},"country":"FR","name":"Obermodern-Zutzendorf"},{"_id":6435262,"coord":{"lat":47.716671,"lon":-0.91667},"country":"FR","name":"Nyoiseau"},{"_id":6436443,"coord":{"lat":47.98333,"lon":-0.78333},"country":"FR","name":"Nuillé-sur-Vicoin"},{"_id":6430826,"coord":{"lat":48.446999,"lon":1.5776},"country":"FR","name":"Nogent-le-Phaye"},{"_id":2990276,"coord":{"lat":48.019741,"lon":5.33323},"country":"FR","name":"Nogent-le-Bas"},{"_id":6437750,"coord":{"lat":48.71283,"lon":7.10747},"country":"FR","name":"Niderviller"},{"_id":6445157,"coord":{"lat":46.583328,"lon":-1.4},"country":"FR","name":"Nesmy"},{"_id":6443770,"coord":{"lat":48.933331,"lon":2.9},"country":"FR","name":"Nanteuil-lès-Meaux"},{"_id":6441237,"coord":{"lat":48.26667,"lon":7.53333},"country":"FR","name":"Muttersholtz"},{"_id":6441235,"coord":{"lat":48.641979,"lon":7.71489},"country":"FR","name":"Mundolsheim"},{"_id":6443760,"coord":{"lat":48.783329,"lon":2.91667},"country":"FR","name":"Mortcerf"},{"_id":6432767,"coord":{"lat":48.150002,"lon":-1.23333},"country":"FR","name":"Montreuil-sous-Pérouse"},{"_id":6425413,"coord":{"lat":46.316669,"lon":2.95},"country":"FR","name":"Montmarault"},{"_id":6446174,"coord":{"lat":48.633331,"lon":2.26667},"country":"FR","name":"Montlhéry"},{"_id":3017382,"coord":{"lat":46,"lon":2},"country":"FR","name":"Republic of France"},{"_id":2993955,"coord":{"lat":43.5,"lon":1.33333},"country":"FR","name":"Région Midi-Pyrénées"},{"_id":3018172,"coord":{"lat":42.833328,"lon":1.58333},"country":"FR","name":"Arrondissement de Foix"},{"_id":3023519,"coord":{"lat":42,"lon":9},"country":"FR","name":"Région Corse"},{"_id":3013793,"coord":{"lat":42.416672,"lon":9.16667},"country":"FR","name":"Département de la Haute-Corse"},{"_id":3016687,"coord":{"lat":42.767651,"lon":1.74987},"country":"FR","name":"Garanou"},{"_id":2979655,"coord":{"lat":42.916672,"lon":1.16667},"country":"FR","name":"Arrondissement de Saint-Girons"},{"_id":6426285,"coord":{"lat":43,"lon":1.28333},"country":"FR","name":"Rimont"},{"_id":2983510,"coord":{"lat":42.995178,"lon":1.28255},"country":"FR","name":"Rimont"},{"_id":6446899,"coord":{"lat":43,"lon":1.05},"country":"FR","name":"Cazavet"},{"_id":3028060,"coord":{"lat":43.0028,"lon":1.0442},"country":"FR","name":"Cazavet"},{"_id":2999891,"coord":{"lat":43.150002,"lon":6.06667},"country":"FR","name":"Les Pourpres"},{"_id":6453642,"coord":{"lat":43.183331,"lon":3},"country":"FR","name":"Narbonne"},{"_id":2990919,"coord":{"lat":43.183331,"lon":3},"country":"FR","name":"Narbonne"},{"_id":3028640,"coord":{"lat":43.25,"lon":2.16667},"country":"FR","name":"Arrondissement de Carcassonne"},{"_id":6426912,"coord":{"lat":43.26667,"lon":2.36667},"country":"FR","name":"Villegailhenc"},{"_id":2968739,"coord":{"lat":43.268669,"lon":2.3547},"country":"FR","name":"Villegailhenc"},{"_id":3013767,"coord":{"lat":43.416672,"lon":1.5},"country":"FR","name":"Département de la Haute-Garonne"},{"_id":2991152,"coord":{"lat":43.333328,"lon":1.25},"country":"FR","name":"Arrondissement de Muret"},{"_id":6431835,"coord":{"lat":43.26667,"lon":1.18333},"country":"FR","name":"Salles-sur-Garonne"},{"_id":2976360,"coord":{"lat":43.27438,"lon":1.17805},"country":"FR","name":"Salles-sur-Garonne"},{"_id":3031359,"coord":{"lat":43.5,"lon":5},"country":"FR","name":"Département des Bouches-du-Rhône"},{"_id":2995469,"coord":{"lat":43.296951,"lon":5.38107},"country":"FR","name":"Marseille"},{"_id":7284895,"coord":{"lat":43.344471,"lon":5.38004},"country":"FR","name":"Marseille 14"},{"_id":3037350,"coord":{"lat":44.583328,"lon":1},"country":"FR","name":"Région Aquitaine"},{"_id":2984887,"coord":{"lat":43.25,"lon":-0.83333},"country":"FR","name":"Département des Pyrénées-Atlantiques"},{"_id":3012858,"coord":{"lat":43.383331,"lon":-1.03333},"country":"FR","name":"Ilharre"},{"_id":3016194,"coord":{"lat":43.666672,"lon":0.5},"country":"FR","name":"Département du Gers"},{"_id":2993747,"coord":{"lat":43.583328,"lon":0.16667},"country":"FR","name":"Arrondissement de Mirande"},{"_id":6432087,"coord":{"lat":43.400002,"lon":0.35},"country":"FR","name":"Sadeillan"},{"_id":2982031,"coord":{"lat":43.3932,"lon":0.34494},"country":"FR","name":"Sadeillan"},{"_id":3000974,"coord":{"lat":43.413261,"lon":5.45495},"country":"FR","name":"Les Frères"},{"_id":3016670,"coord":{"lat":44,"lon":4},"country":"FR","name":"Département du Gard"},{"_id":2990362,"coord":{"lat":43.916672,"lon":4.41667},"country":"FR","name":"Arrondissement de Nîmes"},{"_id":6452244,"coord":{"lat":43.569759,"lon":4.18708},"country":"FR","name":"Aigues-Mortes"},{"_id":3038493,"coord":{"lat":43.56683,"lon":4.19068},"country":"FR","name":"Aigues-Mortes"},{"_id":2988356,"coord":{"lat":43.416672,"lon":-0.58333},"country":"FR","name":"Arrondissement de Pau"},{"_id":6440313,"coord":{"lat":43.549999,"lon":-0.31667},"country":"FR","name":"Boueilh-Boueilho-Lasque"},{"_id":3031312,"coord":{"lat":43.549999,"lon":-0.31667},"country":"FR","name":"Boueilh-Boueilho-Lasque"},{"_id":2973362,"coord":{"lat":43.833328,"lon":2},"country":"FR","name":"Département du Tarn"},{"_id":3028260,"coord":{"lat":43.583328,"lon":2.16667},"country":"FR","name":"Arrondissement de Castres"},{"_id":6451337,"coord":{"lat":43.73333,"lon":1.81667},"country":"FR","name":"Ambres"},{"_id":3037891,"coord":{"lat":43.73193,"lon":1.81284},"country":"FR","name":"Ambres"},{"_id":3023942,"coord":{"lat":43.916672,"lon":0.33333},"country":"FR","name":"Arrondissement de Condom"},{"_id":6431895,"coord":{"lat":43.849998,"lon":0.23333},"country":"FR","name":"Courrensan"},{"_id":3022970,"coord":{"lat":43.848942,"lon":0.24383},"country":"FR","name":"Courrensan"},{"_id":6613353,"coord":{"lat":44.01667,"lon":4.05},"country":"FR","name":"Lézan"},{"_id":2998666,"coord":{"lat":44.01667,"lon":4.05},"country":"FR","name":"Lezan"},{"_id":2970554,"coord":{"lat":44,"lon":5.16667},"country":"FR","name":"Département du Vaucluse"},{"_id":3008510,"coord":{"lat":44.041771,"lon":5.26436},"country":"FR","name":"La Lauze"},{"_id":3038050,"coord":{"lat":44.166672,"lon":6},"country":"FR","name":"Département des Alpes-de-Haute-Provence"},{"_id":3000329,"coord":{"lat":44.030708,"lon":5.97681},"country":"FR","name":"Les Mees"},{"_id":2973357,"coord":{"lat":44,"lon":1.16667},"country":"FR","name":"Département du Tarn-et-Garonne"},{"_id":3028321,"coord":{"lat":44.083328,"lon":1},"country":"FR","name":"Arrondissement de Castelsarrasin"},{"_id":3028322,"coord":{"lat":44.033329,"lon":1.1},"country":"FR","name":"Castelsarrasin"},{"_id":2970977,"coord":{"lat":44.0616,"lon":4.47496},"country":"FR","name":"Vallabrix"},{"_id":2993000,"coord":{"lat":44.083328,"lon":1.5},"country":"FR","name":"Arrondissement de Montauban"},{"_id":6445051,"coord":{"lat":44.066669,"lon":1.26667},"country":"FR","name":"Villemade"},{"_id":2968688,"coord":{"lat":44.074612,"lon":1.289},"country":"FR","name":"Villemade"},{"_id":6444967,"coord":{"lat":44.101799,"lon":2.3183},"country":"FR","name":"Tanus"},{"_id":2973408,"coord":{"lat":44.10186,"lon":2.31758},"country":"FR","name":"Tanus"},{"_id":3007866,"coord":{"lat":44,"lon":-0.83333},"country":"FR","name":"Département des Landes"},{"_id":6451558,"coord":{"lat":44.227798,"lon":4.8518},"country":"FR","name":"Lagarde-Paréol"},{"_id":3009187,"coord":{"lat":44.227009,"lon":4.84844},"country":"FR","name":"Lagarde-Paréol"},{"_id":2983153,"coord":{"lat":44.5,"lon":2.58333},"country":"FR","name":"Arrondissement de Rodez"},{"_id":6614005,"coord":{"lat":44.333328,"lon":2.63333},"country":"FR","name":"Sainte-Radegonde"},{"_id":2980364,"coord":{"lat":44.337429,"lon":2.62672},"country":"FR","name":"Sainte-Radegonde"},{"_id":2983751,"coord":{"lat":45.5,"lon":5.33333},"country":"FR","name":"Région Rhône-Alpes"},{"_id":3006956,"coord":{"lat":44.583328,"lon":4.16667},"country":"FR","name":"Arrondissement de Largentière"},{"_id":6425710,"coord":{"lat":44.349998,"lon":4.41667},"country":"FR","name":"Labastide-de-Virac"},{"_id":3011267,"coord":{"lat":44.35009,"lon":4.40414},"country":"FR","name":"Labastide-de-Virac"},{"_id":2987560,"coord":{"lat":44.940491,"lon":5.76407},"country":"FR","name":"Peychagnard"},{"_id":3009985,"coord":{"lat":45.017651,"lon":5.80306},"country":"FR","name":"La Coirelle"},{"_id":3021042,"coord":{"lat":45.166672,"lon":0.83333},"country":"FR","name":"Département de la Dordogne"},{"_id":6429509,"coord":{"lat":45.2565,"lon":0.1988},"country":"FR","name":"Saint-Antoine-Cumond"},{"_id":2981675,"coord":{"lat":45.26667,"lon":0.2},"country":"FR","name":"Saint-Antoine-Cumond"},{"_id":3014727,"coord":{"lat":45.083328,"lon":5.83333},"country":"FR","name":"Arrondissement de Grenoble"},{"_id":6433472,"coord":{"lat":45.316669,"lon":5.51667},"country":"FR","name":"Vourey"},{"_id":2967626,"coord":{"lat":45.31958,"lon":5.52028},"country":"FR","name":"Vourey"},{"_id":3017555,"coord":{"lat":45.58696,"lon":5.19499},"country":"FR","name":"Four"},{"_id":2997870,"coord":{"lat":45.471691,"lon":4.43298},"country":"FR","name":"Département de la Loire"},{"_id":2992889,"coord":{"lat":45.666672,"lon":4.08333},"country":"FR","name":"Arrondissement de Montbrison"},{"_id":6448983,"coord":{"lat":45.633331,"lon":4.38333},"country":"FR","name":"Chazelles-sur-Lyon"},{"_id":3025668,"coord":{"lat":45.638062,"lon":4.3913},"country":"FR","name":"Chazelles-sur-Lyon"},{"_id":3035876,"coord":{"lat":45.333328,"lon":3},"country":"FR","name":"Région Auvergne"},{"_id":2984986,"coord":{"lat":45.666672,"lon":3},"country":"FR","name":"Département du Puy-de-Dôme"},{"_id":3024634,"coord":{"lat":45.666672,"lon":3},"country":"FR","name":"Arrondissement de Clermont-Ferrand"},{"_id":3023671,"coord":{"lat":45.666431,"lon":3.19473},"country":"FR","name":"Corent"},{"_id":2998268,"coord":{"lat":45.5,"lon":1.83333},"country":"FR","name":"Région Limousin"},{"_id":3022516,"coord":{"lat":46.083328,"lon":2},"country":"FR","name":"Département de la Creuse"},{"_id":3005075,"coord":{"lat":46.125309,"lon":2.2287},"country":"FR","name":"Le Bourgnon"},{"_id":2987410,"coord":{"lat":46,"lon":4.5},"country":"FR","name":"Département du Rhône"},{"_id":2968747,"coord":{"lat":46,"lon":4.5},"country":"FR","name":"Arrondissement de Villefranche-sur-Saône"},{"_id":6450737,"coord":{"lat":46.166672,"lon":4.48333},"country":"FR","name":"Chénelette"},{"_id":3025549,"coord":{"lat":46.168621,"lon":4.4911},"country":"FR","name":"Chénelette"},{"_id":3016142,"coord":{"lat":46.333328,"lon":6},"country":"FR","name":"Arrondissement de Gex"},{"_id":6439982,"coord":{"lat":50.883331,"lon":1.66667},"country":"FR","name":"Wissant"},{"_id":6453796,"coord":{"lat":47.400002,"lon":4.53333},"country":"FR","name":"Vitteaux"},{"_id":6444797,"coord":{"lat":49.866669,"lon":2.51667},"country":"FR","name":"Villers-Bretonneux"},{"_id":6427081,"coord":{"lat":44.349998,"lon":2.05},"country":"FR","name":"Villefranche-de-Rouergue"},{"_id":6431880,"coord":{"lat":43.400002,"lon":1.73333},"country":"FR","name":"Villefranche-de-Lauragais"},{"_id":6424474,"coord":{"lat":45.049999,"lon":5.66667},"country":"FR","name":"Vif"},{"_id":6427098,"coord":{"lat":43.683331,"lon":5.16667},"country":"FR","name":"Vernègues"},{"_id":6425693,"coord":{"lat":43.632919,"lon":6.99911},"country":"FR","name":"Valbonne"},{"_id":6443883,"coord":{"lat":48.866669,"lon":2.65},"country":"FR","name":"Vaires-sur-Marne"},{"_id":6428490,"coord":{"lat":45.416672,"lon":1.56667},"country":"FR","name":"Uzerche"},{"_id":6433435,"coord":{"lat":45.299999,"lon":5.48333},"country":"FR","name":"Tullins"},{"_id":2971568,"coord":{"lat":42.610889,"lon":2.80821},"country":"FR","name":"Trouillas"},{"_id":6616126,"coord":{"lat":48.8106,"lon":-3.4993},"country":"FR","name":"Trégastel"},{"_id":6426145,"coord":{"lat":49.799999,"lon":4.63333},"country":"FR","name":"Tournes"},{"_id":6617301,"coord":{"lat":50.806801,"lon":2.0492},"country":"FR","name":"Tournehem-sur-la-Hem"},{"_id":6434923,"coord":{"lat":44.900002,"lon":1.48333},"country":"FR","name":"Souillac"},{"_id":6441364,"coord":{"lat":48.63546,"lon":7.74038},"country":"FR","name":"Souffelweyersheim"},{"_id":6425244,"coord":{"lat":49.566669,"lon":3.9},"country":"FR","name":"Sissonne"},{"_id":6431061,"coord":{"lat":48.033329,"lon":-3.7},"country":"FR","name":"Scaër"},{"_id":6436011,"coord":{"lat":48.916672,"lon":4.4},"country":"FR","name":"Sarry"},{"_id":6437858,"coord":{"lat":49.083328,"lon":7.1},"country":"FR","name":"Sarreinsming"},{"_id":6453869,"coord":{"lat":47.23333,"lon":6.11667},"country":"FR","name":"Saône"},{"_id":6443848,"coord":{"lat":48.416672,"lon":3.01667},"country":"FR","name":"Salins"},{"_id":6428126,"coord":{"lat":45.833328,"lon":-1.2},"country":"FR","name":"Saint-Trojan-les-Bains"},{"_id":6612756,"coord":{"lat":45.633331,"lon":4.45},"country":"FR","name":"Saint-Symphorien-sur-Coise"},{"_id":6443839,"coord":{"lat":49.066669,"lon":2.8},"country":"FR","name":"Saint-Pathus"},{"_id":6618144,"coord":{"lat":43.7463,"lon":7.1441},"country":"FR","name":"Saint-Jeannet"},{"_id":6440594,"coord":{"lat":43.383331,"lon":-1.66667},"country":"FR","name":"Saint-Jean-de-Luz"},{"_id":6434263,"coord":{"lat":45.583328,"lon":4.31667},"country":"FR","name":"Saint-Galmier"},{"_id":6431399,"coord":{"lat":44.23333,"lon":4.11667},"country":"FR","name":"Saint-Florent-sur-Auzonnet"},{"_id":6434512,"coord":{"lat":47.150002,"lon":-1.41667},"country":"FR","name":"Saint-Fiacre-sur-Maine"},{"_id":6434444,"coord":{"lat":45.23333,"lon":4.25},"country":"FR","name":"Sainte-Sigolène"},{"_id":6445176,"coord":{"lat":46.98333,"lon":-1.05},"country":"FR","name":"Saint-Aubin-des-Ormeaux"},{"_id":6424652,"coord":{"lat":46.150002,"lon":5.06667},"country":"FR","name":"Saint-André-sur-Vieux-Jonc"},{"_id":6439844,"coord":{"lat":50.866669,"lon":2.15},"country":"FR","name":"Ruminghem"},{"_id":6454772,"coord":{"lat":50.26667,"lon":1.66667},"country":"FR","name":"Rue"},{"_id":6431037,"coord":{"lat":48.724041,"lon":-3.98623},"country":"FR","name":"Roscoff"},{"_id":6617453,"coord":{"lat":45.841499,"lon":4.8356},"country":"FR","name":"Rochetaillée-sur-Saône"},{"_id":6432079,"coord":{"lat":43.6563,"lon":-0.0865},"country":"FR","name":"Riscle"},{"_id":6454601,"coord":{"lat":47.416672,"lon":6.06667},"country":"FR","name":"Rioz"},{"_id":6437360,"coord":{"lat":47.716671,"lon":-3.31667},"country":"FR","name":"Riantec"},{"_id":6437809,"coord":{"lat":49.01667,"lon":6.4},"country":"FR","name":"Rémilly"},{"_id":6445053,"coord":{"lat":43.216671,"lon":6.61667},"country":"FR","name":"Ramatuelle"},{"_id":6438434,"coord":{"lat":50.383331,"lon":3.48333},"country":"FR","name":"Raismes"},{"_id":2998262,"coord":{"lat":42.916672,"lon":2.16667},"country":"FR","name":"Arrondissement de Limoux"},{"_id":6454770,"coord":{"lat":50.316669,"lon":1.63333},"country":"FR","name":"Quend"},{"_id":6432798,"coord":{"lat":48.25,"lon":-2.15},"country":"FR","name":"Quédillac"},{"_id":6438423,"coord":{"lat":50.51667,"lon":2.91667},"country":"FR","name":"Provin"},{"_id":6437351,"coord":{"lat":48.066669,"lon":-3.41667},"country":"FR","name":"Priziac"},{"_id":6453803,"coord":{"lat":48.683331,"lon":-3.3},"country":"FR","name":"Prat"},{"_id":6445166,"coord":{"lat":46.783329,"lon":-0.83333},"country":"FR","name":"Pouzauges"},{"_id":6434227,"coord":{"lat":46.150002,"lon":4.11667},"country":"FR","name":"Pouilly-sous-Charlieu"},{"_id":6426776,"coord":{"lat":43.01667,"lon":3.05},"country":"FR","name":"Port-la-Nouvelle"},{"_id":6438896,"coord":{"lat":49.299999,"lon":2.6},"country":"FR","name":"Pont-Sainte-Maxence"},{"_id":6438413,"coord":{"lat":50.51667,"lon":3.11667},"country":"FR","name":"Pont-à-Marcq"},{"_id":6438411,"coord":{"lat":50.1894,"lon":3.6089},"country":"FR","name":"Poix-du-Nord"},{"_id":6453934,"coord":{"lat":48.383331,"lon":-4.61667},"country":"FR","name":"Plouzané"},{"_id":6431007,"coord":{"lat":48.616669,"lon":-4.3},"country":"FR","name":"Plouider"},{"_id":6429075,"coord":{"lat":48.283329,"lon":-2.71667},"country":"FR","name":"Plouguenast"},{"_id":6429070,"coord":{"lat":48.533329,"lon":-2},"country":"FR","name":"Plouër-sur-Rance"},{"_id":6429069,"coord":{"lat":48.700001,"lon":-3.45},"country":"FR","name":"Ploubezre"},{"_id":6429067,"coord":{"lat":48.583328,"lon":-2.15},"country":"FR","name":"Ploubalay"},{"_id":6430988,"coord":{"lat":48.01667,"lon":-4.21667},"country":"FR","name":"Plonéis"},{"_id":6430984,"coord":{"lat":48.083328,"lon":-4.18333},"country":"FR","name":"Plogonnec"},{"_id":6430980,"coord":{"lat":48.5,"lon":-3.86667},"country":"FR","name":"Pleyber-Christ"},{"_id":6453930,"coord":{"lat":48.23333,"lon":-3.96667},"country":"FR","name":"Pleyben"},{"_id":6441566,"coord":{"lat":47.98333,"lon":7.28333},"country":"FR","name":"Pfaffenheim"},{"_id":6434686,"coord":{"lat":48.049999,"lon":1.7},"country":"FR","name":"Patay"},{"_id":6443019,"coord":{"lat":45.916672,"lon":6.68333},"country":"FR","name":"Passy"},{"_id":6447150,"coord":{"lat":43.716671,"lon":4.78333},"country":"FR","name":"Paradou"},{"_id":6453476,"coord":{"lat":48.566669,"lon":2.43333},"country":"FR","name":"Ormoy"},{"_id":6451579,"coord":{"lat":43.844398,"lon":5.1695},"country":"FR","name":"Oppède"},{"_id":6441554,"coord":{"lat":47.966671,"lon":7.4},"country":"FR","name":"Oberhergheim"},{"_id":2989846,"coord":{"lat":47.985561,"lon":-0.78351},"country":"FR","name":"Nuille-sur-Vicoin"},{"_id":6430828,"coord":{"lat":48.316669,"lon":0.83333},"country":"FR","name":"Nogent-le-Rotrou"},{"_id":6430827,"coord":{"lat":48.650002,"lon":1.53333},"country":"FR","name":"Nogent-le-Roi"},{"_id":2990425,"coord":{"lat":48.71294,"lon":7.10627},"country":"FR","name":"Niderviller"},{"_id":6438381,"coord":{"lat":50.660999,"lon":2.672},"country":"FR","name":"Neuf-Berquin"},{"_id":6431346,"coord":{"lat":43.73333,"lon":4.2},"country":"FR","name":"Mus"},{"_id":6429905,"coord":{"lat":47.066669,"lon":6.61667},"country":"FR","name":"Morteau"},{"_id":6432768,"coord":{"lat":48.299999,"lon":-1.66667},"country":"FR","name":"Montreuil-sur-Ille"},{"_id":6616010,"coord":{"lat":45.244801,"lon":-0.2548},"country":"FR","name":"Montlieu-la-Garde"},{"_id":6615636,"coord":{"lat":46.236599,"lon":5.9804},"country":"FR","name":"Thoiry"},{"_id":2972774,"coord":{"lat":46.237621,"lon":5.98111},"country":"FR","name":"Thoiry"},{"_id":2972741,"coord":{"lat":46.25,"lon":6.5},"country":"FR","name":"Arrondissement de Thonon-les-Bains"},{"_id":6443051,"coord":{"lat":46.333328,"lon":6.38333},"country":"FR","name":"Sciez"},{"_id":2975410,"coord":{"lat":46.32909,"lon":6.37947},"country":"FR","name":"Sciez"},{"_id":2981076,"coord":{"lat":46.5,"lon":5.83333},"country":"FR","name":"Arrondissement de Saint-Claude"},{"_id":3030967,"coord":{"lat":47,"lon":4.5},"country":"FR","name":"Région Bourgogne"},{"_id":2976082,"coord":{"lat":46.666672,"lon":4.5},"country":"FR","name":"Département de Saône-et-Loire"},{"_id":3026209,"coord":{"lat":46.630192,"lon":5.23155},"country":"FR","name":"Châteaurenaud"},{"_id":2997438,"coord":{"lat":46.666672,"lon":5.16667},"country":"FR","name":"Arrondissement de Louhans"},{"_id":6442383,"coord":{"lat":46.683331,"lon":5.36667},"country":"FR","name":"Saillenard"},{"_id":2981975,"coord":{"lat":46.69112,"lon":5.37129},"country":"FR","name":"Saillenard"},{"_id":6429803,"coord":{"lat":47.049999,"lon":6.48333},"country":"FR","name":"Gilley"},{"_id":3016048,"coord":{"lat":47.047401,"lon":6.48257},"country":"FR","name":"Gilley"},{"_id":3021262,"coord":{"lat":47.083328,"lon":5.5},"country":"FR","name":"Arrondissement de Dole"},{"_id":6448768,"coord":{"lat":47.133331,"lon":5.58333},"country":"FR","name":"Audelange"},{"_id":3036261,"coord":{"lat":47.134609,"lon":5.586},"country":"FR","name":"Audelange"},{"_id":2991615,"coord":{"lat":47.183022,"lon":1.4032},"country":"FR","name":"Mossay"},{"_id":2988289,"coord":{"lat":47.5,"lon":-1},"country":"FR","name":"Région Pays de la Loire"},{"_id":2996663,"coord":{"lat":47.5,"lon":-0.33333},"country":"FR","name":"Département de Maine-et-Loire"},{"_id":2975757,"coord":{"lat":47.333328,"lon":-0.25},"country":"FR","name":"Arrondissement de Saumur"},{"_id":6435231,"coord":{"lat":47.299999,"lon":-0.33333},