{"countryCode":"GE","countryName":"Georgia","countryFilePath":"GE.json","countryCityList":[{"_id":614371,"name":"Gumist’a","country":"GE","coord":{"lon":40.973888,"lat":43.026943}},{"_id":874560,"name":"Ptitsefabrika","country":"GE","coord":{"lon":40.290558,"lat":43.183613}},{"_id":874652,"name":"Orekhovo","country":"GE","coord":{"lon":40.146111,"lat":43.351391}},{"_id":612366,"name":"Poti","country":"GE","coord":{"lon":41.67197,"lat":42.14616}},{"_id":615994,"name":"Abzhaqva","country":"GE","coord":{"lon":41.073612,"lat":43.02639}},{"_id":823854,"name":"Ip’nari","country":"GE","coord":{"lon":40.321667,"lat":43.231945}},{"_id":613220,"name":"Leselidze","country":"GE","coord":{"lon":40.013058,"lat":43.390556}},{"_id":611694,"name":"Telavi","country":"GE","coord":{"lon":45.473148,"lat":41.919781}},{"_id":614455,"name":"Gori","country":"GE","coord":{"lon":44.11578,"lat":41.984219}},{"_id":874502,"name":"Ritsa","country":"GE","coord":{"lon":40.534443,"lat":43.47028}},{"_id":612348,"name":"P’skhu","country":"GE","coord":{"lon":40.81472,"lat":43.393055}},{"_id":612451,"name":"Patara-Shiraki","country":"GE","coord":{"lon":46.340832,"lat":41.293892}},{"_id":611583,"name":"Tqvarcheli","country":"GE","coord":{"lon":41.680069,"lat":42.840351}},{"_id":7667581,"name":"Telavi","country":"GE","coord":{"lon":45.48333,"lat":41.916672}},{"_id":611716,"name":"K'alak'i T'bilisi","country":"GE","coord":{"lon":44.833328,"lat":41.716671}},{"_id":612287,"name":"Rustavi","country":"GE","coord":{"lon":44.993229,"lat":41.549492}},{"_id":612652,"name":"Ochamchire","country":"GE","coord":{"lon":41.468632,"lat":42.712318}},{"_id":613762,"name":"Kobuleti","country":"GE","coord":{"lon":41.77528,"lat":41.82}},{"_id":615860,"name":"Akhaltsikhe","country":"GE","coord":{"lon":42.98262,"lat":41.639011}},{"_id":824288,"name":"Tsqaltubo","country":"GE","coord":{"lon":42.597599,"lat":42.34129}},{"_id":6324644,"name":"Meria","country":"GE","coord":{"lon":44.80154,"lat":41.69278}},{"_id":614540,"name":"Georgia","country":"GE","coord":{"lon":43.5,"lat":42.0}},{"_id":6643410,"name":"Abkhazia","country":"GE","coord":{"lon":41.159939,"lat":42.790833}},{"_id":865376,"name":"Tkhubun","country":"GE","coord":{"lon":41.073891,"lat":42.965557}},{"_id":613270,"name":"Lech’k’op’i","country":"GE","coord":{"lon":40.955002,"lat":43.008331}},{"_id":611128,"name":"Volodarskoye","country":"GE","coord":{"lon":41.053333,"lat":43.004166}},{"_id":611847,"name":"Sokhumi","country":"GE","coord":{"lon":41.015278,"lat":43.003334}},{"_id":823912,"name":"Adzigezhi","country":"GE","coord":{"lon":40.973888,"lat":43.057777}},{"_id":615912,"name":"Stantsiya Novyy Afon","country":"GE","coord":{"lon":40.838333,"lat":43.080555}},{"_id":823895,"name":"Nizhneye Armyanskoye Ushchel’ye","country":"GE","coord":{"lon":40.791943,"lat":43.084167}},{"_id":874552,"name":"-","country":"GE","coord":{"lon":40.801666,"lat":43.099445}},{"_id":823894,"name":"Adzghap’sha","country":"GE","coord":{"lon":40.75222,"lat":43.090279}},{"_id":874469,"name":"Akui","country":"GE","coord":{"lon":40.829166,"lat":43.100834}},{"_id":823893,"name":"Tsvkvara","country":"GE","coord":{"lon":40.760277,"lat":43.09639}},{"_id":615564,"name":"Bombora","country":"GE","coord":{"lon":40.599998,"lat":43.100555}},{"_id":613159,"name":"Likhni","country":"GE","coord":{"lon":40.614723,"lat":43.145557}},{"_id":615460,"name":"Bichvinta","country":"GE","coord":{"lon":40.337776,"lat":43.159168}},{"_id":613195,"name":"Lidzava","country":"GE","coord":{"lon":40.3675,"lat":43.178055}},{"_id":615448,"name":"Blaburkhva","country":"GE","coord":{"lon":40.4575,"lat":43.227501}},{"_id":615321,"name":"Bzip’i","country":"GE","coord":{"lon":40.376667,"lat":43.232224}},{"_id":874575,"name":"Zemo Khevi","country":"GE","coord":{"lon":40.320278,"lat":43.241669}},{"_id":823850,"name":"Bzyb’","country":"GE","coord":{"lon":40.394444,"lat":43.267776}},{"_id":823851,"name":"Dzikhch’a","country":"GE","coord":{"lon":40.360001,"lat":43.252777}},{"_id":824135,"name":"Otradnoe","country":"GE","coord":{"lon":40.273609,"lat":43.272499}},{"_id":615782,"name":"Alpiiskoe","country":"GE","coord":{"lon":40.279999,"lat":43.283611}},{"_id":799968,"name":"Bzyb’","country":"GE","coord":{"lon":40.398888,"lat":43.28611}},{"_id":615910,"name":"Akhali-Gagra","country":"GE","coord":{"lon":40.268612,"lat":43.287777}},{"_id":823853,"name":"Gagrap’sta","country":"GE","coord":{"lon":40.299168,"lat":43.272778}},{"_id":874627,"name":"Gruzinskoye Ushchel’ye","country":"GE","coord":{"lon":40.276943,"lat":43.290558}},{"_id":614622,"name":"Gagra","country":"GE","coord":{"lon":40.223888,"lat":43.328335}},{"_id":612974,"name":"Migirlo","country":"GE","coord":{"lon":44.578491,"lat":41.40992}},{"_id":614778,"name":"Jigrasheni","country":"GE","coord":{"lon":44.35107,"lat":41.549179}},{"_id":615504,"name":"Beghleti","country":"GE","coord":{"lon":43.504608,"lat":41.988071}},{"_id":865397,"name":"K’vemo Iasht’khva","country":"GE","coord":{"lon":41.029179,"lat":43.01693}},{"_id":874453,"name":"Abaakhuda","country":"GE","coord":{"lon":40.803452,"lat":43.098671}},{"_id":615219,"name":"Ch’erk’ezikhu","country":"GE","coord":{"lon":40.456959,"lat":43.227081}},{"_id":615203,"name":"Chigripsh","country":"GE","coord":{"lon":40.193081,"lat":43.34367}},{"_id":611403,"name":"Tskhinvali","country":"GE","coord":{"lon":43.968609,"lat":42.227638}},{"_id":612269,"name":"Saburtalo","country":"GE","coord":{"lon":44.75,"lat":41.716671}},{"_id":614951,"name":"Didi-Goridzhvari","country":"GE","coord":{"lon":44.099998,"lat":41.966671}},{"_id":865543,"name":"Samegrelo-Zemo Svanetis Mkhare","country":"GE","coord":{"lon":42.214958,"lat":42.70076}},{"_id":610823,"name":"Zugdidis Raioni","country":"GE","coord":{"lon":41.798302,"lat":42.46743}},{"_id":610824,"name":"Zugdidi","country":"GE","coord":{"lon":41.87088,"lat":42.508801}},{"_id":865540,"name":"Shida Kartli","country":"GE","coord":{"lon":44.139999,"lat":42.32}},{"_id":613987,"name":"Khashuris Raioni","country":"GE","coord":{"lon":43.633331,"lat":42.0}},{"_id":613988,"name":"Khashuri","country":"GE","coord":{"lon":43.599941,"lat":41.994141}},{"_id":865536,"name":"Kvemo Kartli","country":"GE","coord":{"lon":44.51667,"lat":41.51667}},{"_id":7667578,"name":"Marneuli","country":"GE","coord":{"lon":44.810829,"lat":41.463612}},{"_id":613074,"name":"Marneuli","country":"GE","coord":{"lon":44.808941,"lat":41.47588}},{"_id":615419,"name":"Bolnisi","country":"GE","coord":{"lon":44.53838,"lat":41.447941}},{"_id":612126,"name":"Samtredia","country":"GE","coord":{"lon":42.335171,"lat":42.153702}},{"_id":614104,"name":"Kaspi","country":"GE","coord":{"lon":44.425678,"lat":41.925201}},{"_id":865541,"name":"Mtskheta-Mtianeti","country":"GE","coord":{"lon":44.75,"lat":42.283329}},{"_id":615914,"name":"Akhalgori","country":"GE","coord":{"lon":44.48333,"lat":42.125969}},{"_id":615583,"name":"Bakuriani","country":"GE","coord":{"lon":43.532501,"lat":41.749722}},{"_id":7667714,"name":"Tsalka","country":"GE","coord":{"lon":44.083328,"lat":41.583328}},{"_id":611548,"name":"Tsalka","country":"GE","coord":{"lon":44.089088,"lat":41.594601}},{"_id":865537,"name":"Kakheti","country":"GE","coord":{"lon":45.716671,"lat":41.75}},{"_id":612338,"name":"Qvareli","country":"GE","coord":{"lon":45.817162,"lat":41.954922}},{"_id":7667580,"name":"Gurjaani","country":"GE","coord":{"lon":45.799999,"lat":41.75}},{"_id":614351,"name":"Gurjaani","country":"GE","coord":{"lon":45.801109,"lat":41.74292}},{"_id":613342,"name":"Lagodekhi","country":"GE","coord":{"lon":46.276669,"lat":41.826809}},{"_id":612230,"name":"Sagarejo","country":"GE","coord":{"lon":45.331478,"lat":41.733971}},{"_id":611373,"name":"Tsnori","country":"GE","coord":{"lon":45.969429,"lat":41.62088}},{"_id":615929,"name":"Ajaria","country":"GE","coord":{"lon":42.0,"lat":41.666672}},{"_id":615532,"name":"Batumi","country":"GE","coord":{"lon":41.635929,"lat":41.64159}},{"_id":865539,"name":"Imereti","country":"GE","coord":{"lon":42.98333,"lat":42.166672}},{"_id":610864,"name":"Zestaponi","country":"GE","coord":{"lon":43.052502,"lat":42.110001}},{"_id":612053,"name":"Senaki","country":"GE","coord":{"lon":42.067501,"lat":42.27042}},{"_id":613607,"name":"Kutaisi","country":"GE","coord":{"lon":42.699741,"lat":42.249611}},{"_id":616022,"name":"Abasha","country":"GE","coord":{"lon":42.221111,"lat":42.209591}},{"_id":614890,"name":"Dmanisi","country":"GE","coord":{"lon":44.347198,"lat":41.525139}},{"_id":611612,"name":"Tofaloglebi","country":"GE","coord":{"lon":41.599998,"lat":41.599998}},{"_id":611062,"name":"Zeda-Bashi","country":"GE","coord":{"lon":42.5,"lat":42.166672}},{"_id":865851,"name":"Lilo","country":"GE","coord":{"lon":44.9799,"lat":41.68095}},{"_id":611717,"name":"Tbilisi","country":"GE","coord":{"lon":44.833679,"lat":41.694111}},{"_id":584502,"name":"Abastumani","country":"GE","coord":{"lon":42.845718,"lat":41.7075}},{"_id":610849,"name":"Zhinvali","country":"GE","coord":{"lon":44.77264,"lat":42.131809}},{"_id":611093,"name":"Zahesi","country":"GE","coord":{"lon":44.753609,"lat":41.824581}},{"_id":611219,"name":"Vani","country":"GE","coord":{"lon":42.521629,"lat":42.083199}},{"_id":611230,"name":"Vale","country":"GE","coord":{"lon":42.872238,"lat":41.615582}},{"_id":611274,"name":"Ureki","country":"GE","coord":{"lon":41.77861,"lat":41.99556}},{"_id":611398,"name":"Tsqneti","country":"GE","coord":{"lon":44.698608,"lat":41.694721}},{"_id":611492,"name":"Tsinandali","country":"GE","coord":{"lon":45.571289,"lat":41.89315}},{"_id":611551,"name":"Tsalenjikha","country":"GE","coord":{"lon":42.068249,"lat":42.604439}},{"_id":611564,"name":"Tsaghveri","country":"GE","coord":{"lon":43.481941,"lat":41.80365}},{"_id":611584,"name":"Tqibuli","country":"GE","coord":{"lon":42.998741,"lat":42.351212}},{"_id":611669,"name":"Tianeti","country":"GE","coord":{"lon":44.96389,"lat":42.10833}},{"_id":611674,"name":"Tetri Tsqaro","country":"GE","coord":{"lon":44.461529,"lat":41.544479}},{"_id":611809,"name":"Surami","country":"GE","coord":{"lon":43.555561,"lat":42.024311}},{"_id":611902,"name":"Sighnaghi","country":"GE","coord":{"lon":45.921982,"lat":41.620461}},{"_id":611964,"name":"Shorapani","country":"GE","coord":{"lon":43.08662,"lat":42.089802}},{"_id":612012,"name":"Naghvarevi","country":"GE","coord":{"lon":44.76178,"lat":41.352718}},{"_id":612502,"name":"Pasanauri","country":"GE","coord":{"lon":44.689121,"lat":42.350601}},{"_id":612592,"name":"Oni","country":"GE","coord":{"lon":43.442501,"lat":42.579441}},{"_id":612648,"name":"Ochkhamuri","country":"GE","coord":{"lon":41.853088,"lat":41.859749}},{"_id":612691,"name":"Ninotsminda","country":"GE","coord":{"lon":43.591599,"lat":41.26458}},{"_id":612890,"name":"Mtskheta","country":"GE","coord":{"lon":44.71875,"lat":41.845139}},{"_id":612987,"name":"Mestia","country":"GE","coord":{"lon":42.727798,"lat":43.045811}},{"_id":613065,"name":"Martvili","country":"GE","coord":{"lon":42.379238,"lat":42.41436}},{"_id":613093,"name":"Manglisi","country":"GE","coord":{"lon":44.38448,"lat":41.69698}},{"_id":613125,"name":"Makhinjauri","country":"GE","coord":{"lon":41.694012,"lat":41.673851}},{"_id":613226,"name":"Lentekhi","country":"GE","coord":{"lon":42.726109,"lat":42.785561}},{"_id":613559,"name":"Kveda Chkhorotsqu","country":"GE","coord":{"lon":42.096611,"lat":42.48103}},{"_id":613641,"name":"Kulashi","country":"GE","coord":{"lon":42.349442,"lat":42.204441}},{"_id":613902,"name":"Khoni","country":"GE","coord":{"lon":42.420609,"lat":42.322601}},{"_id":613918,"name":"Khobi","country":"GE","coord":{"lon":41.898708,"lat":42.315578}},{"_id":614087,"name":"Stepantsminda","country":"GE","coord":{"lon":44.64333,"lat":42.65667}},{"_id":614217,"name":"Java","country":"GE","coord":{"lon":43.936668,"lat":42.399719}},{"_id":614409,"name":"Gudauta","country":"GE","coord":{"lon":40.62067,"lat":43.105469}},{"_id":614575,"name":"Gardabani","country":"GE","coord":{"lon":45.092831,"lat":41.460541}},{"_id":614580,"name":"Gantiadi","country":"GE","coord":{"lon":40.079441,"lat":43.381111}},{"_id":614613,"name":"Gali","country":"GE","coord":{"lon":41.738079,"lat":42.626549}},{"_id":614740,"name":"Jvari","country":"GE","coord":{"lon":42.051998,"lat":42.716919}},{"_id":614897,"name":"Dioknisi","country":"GE","coord":{"lon":42.391708,"lat":41.62933}},{"_id":614934,"name":"Didi Lilo","country":"GE","coord":{"lon":44.964722,"lat":41.736111}},{"_id":615403,"name":"Borjomi","country":"GE","coord":{"lon":43.412842,"lat":41.852718}},{"_id":615611,"name":"Bagdadi","country":"GE","coord":{"lon":46.033329,"lat":41.816669}},{"_id":615660,"name":"Aspindza","country":"GE","coord":{"lon":43.24826,"lat":41.573891}},{"_id":615776,"name":"Ambrolauri","country":"GE","coord":{"lon":43.16222,"lat":42.521111}},{"_id":615844,"name":"Akhmeta","country":"GE","coord":{"lon":45.2075,"lat":42.031109}},{"_id":615893,"name":"Akhalkalaki","country":"GE","coord":{"lon":43.48629,"lat":41.40514}},{"_id":615921,"name":"Akhaldaba","country":"GE","coord":{"lon":42.15163,"lat":41.65395}},{"_id":615943,"name":"Agara","country":"GE","coord":{"lon":43.823818,"lat":42.037609}},{"_id":615973,"name":"Adigeni","country":"GE","coord":{"lon":42.698669,"lat":41.6819}},{"_id":824385,"name":"Naruja","country":"GE","coord":{"lon":41.95417,"lat":41.90694}},{"_id":824613,"name":"Bakurianis Andeziti","country":"GE","coord":{"lon":43.47242,"lat":41.733711}},{"_id":6940391,"name":"Tskhinvali","country":"GE","coord":{"lon":43.970001,"lat":42.23}},{"_id":7667751,"name":"Kharagauli","country":"GE","coord":{"lon":43.197731,"lat":42.02137}}]}
