{"countryCityList":[{"_id":614371,"coord":{"lat":43.026943,"lon":40.973888},"country":"GE","name":"Gumist’a"},{"_id":874560,"coord":{"lat":43.183613,"lon":40.290558},"country":"GE","name":"Ptitsefabrika"},{"_id":874652,"coord":{"lat":43.351391,"lon":40.146111},"country":"GE","name":"Orekhovo"},{"_id":612366,"coord":{"lat":42.14616,"lon":41.67197},"country":"GE","name":"Poti"},{"_id":615994,"coord":{"lat":43.02639,"lon":41.073612},"country":"GE","name":"Abzhaqva"},{"_id":823854,"coord":{"lat":43.231945,"lon":40.321667},"country":"GE","name":"Ip’nari"},{"_id":613220,"coord":{"lat":43.390556,"lon":40.013058},"country":"GE","name":"Leselidze"},{"_id":611694,"coord":{"lat":41.919781,"lon":45.473148},"country":"GE","name":"Telavi"},{"_id":614455,"coord":{"lat":41.984219,"lon":44.11578},"country":"GE","name":"Gori"},{"_id":874502,"coord":{"lat":43.47028,"lon":40.534443},"country":"GE","name":"Ritsa"},{"_id":612348,"coord":{"lat":43.393055,"lon":40.81472},"country":"GE","name":"P’skhu"},{"_id":612451,"coord":{"lat":41.293892,"lon":46.340832},"country":"GE","name":"Patara-Shiraki"},{"_id":611583,"coord":{"lat":42.840351,"lon":41.680069},"country":"GE","name":"Tqvarcheli"},{"_id":7667581,"coord":{"lat":41.916672,"lon":45.48333},"country":"GE","name":"Telavi"},{"_id":611716,"coord":{"lat":41.716671,"lon":44.833328},"country":"GE","name":"K'alak'i T'bilisi"},{"_id":612287,"coord":{"lat":41.549492,"lon":44.993229},"country":"GE","name":"Rustavi"},{"_id":612652,"coord":{"lat":42.712318,"lon":41.468632},"country":"GE","name":"Ochamchire"},{"_id":613762,"coord":{"lat":41.82,"lon":41.77528},"country":"GE","name":"Kobuleti"},{"_id":615860,"coord":{"lat":41.639011,"lon":42.98262},"country":"GE","name":"Akhaltsikhe"},{"_id":824288,"coord":{"lat":42.34129,"lon":42.597599},"country":"GE","name":"Tsqaltubo"},{"_id":6324644,"coord":{"lat":41.69278,"lon":44.80154},"country":"GE","name":"Meria"},{"_id":614540,"coord":{"lat":42,"lon":43.5},"country":"GE","name":"Georgia"},{"_id":6643410,"coord":{"lat":42.790833,"lon":41.159939},"country":"GE","name":"Abkhazia"},{"_id":865376,"coord":{"lat":42.965557,"lon":41.073891},"country":"GE","name":"Tkhubun"},{"_id":613270,"coord":{"lat":43.008331,"lon":40.955002},"country":"GE","name":"Lech’k’op’i"},{"_id":611128,"coord":{"lat":43.004166,"lon":41.053333},"country":"GE","name":"Volodarskoye"},{"_id":611847,"coord":{"lat":43.003334,"lon":41.015278},"country":"GE","name":"Sokhumi"},{"_id":823912,"coord":{"lat":43.057777,"lon":40.973888},"country":"GE","name":"Adzigezhi"},{"_id":615912,"coord":{"lat":43.080555,"lon":40.838333},"country":"GE","name":"Stantsiya Novyy Afon"},{"_id":823895,"coord":{"lat":43.084167,"lon":40.791943},"country":"GE","name":"Nizhneye Armyanskoye Ushchel’ye"},{"_id":874552,"coord":{"lat":43.099445,"lon":40.801666},"country":"GE","name":"-"},{"_id":823894,"coord":{"lat":43.090279,"lon":40.75222},"country":"GE","name":"Adzghap’sha"},{"_id":874469,"coord":{"lat":43.100834,"lon":40.829166},"country":"GE","name":"Akui"},{"_id":823893,"coord":{"lat":43.09639,"lon":40.760277},"country":"GE","name":"Tsvkvara"},{"_id":615564,"coord":{"lat":43.100555,"lon":40.599998},"country":"GE","name":"Bombora"},{"_id":613159,"coord":{"lat":43.145557,"lon":40.614723},"country":"GE","name":"Likhni"},{"_id":615460,"coord":{"lat":43.159168,"lon":40.337776},"country":"GE","name":"Bichvinta"},{"_id":613195,"coord":{"lat":43.178055,"lon":40.3675},"country":"GE","name":"Lidzava"},{"_id":615448,"coord":{"lat":43.227501,"lon":40.4575},"country":"GE","name":"Blaburkhva"},{"_id":615321,"coord":{"lat":43.232224,"lon":40.376667},"country":"GE","name":"Bzip’i"},{"_id":874575,"coord":{"lat":43.241669,"lon":40.320278},"country":"GE","name":"Zemo Khevi"},{"_id":823850,"coord":{"lat":43.267776,"lon":40.394444},"country":"GE","name":"Bzyb’"},{"_id":823851,"coord":{"lat":43.252777,"lon":40.360001},"country":"GE","name":"Dzikhch’a"},{"_id":824135,"coord":{"lat":43.272499,"lon":40.273609},"country":"GE","name":"Otradnoe"},{"_id":615782,"coord":{"lat":43.283611,"lon":40.279999},"country":"GE","name":"Alpiiskoe"},{"_id":799968,"coord":{"lat":43.28611,"lon":40.398888},"country":"GE","name":"Bzyb’"},{"_id":615910,"coord":{"lat":43.287777,"lon":40.268612},"country":"GE","name":"Akhali-Gagra"},{"_id":823853,"coord":{"lat":43.272778,"lon":40.299168},"country":"GE","name":"Gagrap’sta"},{"_id":874627,"coord":{"lat":43.290558,"lon":40.276943},"country":"GE","name":"Gruzinskoye Ushchel’ye"},{"_id":614622,"coord":{"lat":43.328335,"lon":40.223888},"country":"GE","name":"Gagra"},{"_id":612974,"coord":{"lat":41.40992,"lon":44.578491},"country":"GE","name":"Migirlo"},{"_id":614778,"coord":{"lat":41.549179,"lon":44.35107},"country":"GE","name":"Jigrasheni"},{"_id":615504,"coord":{"lat":41.988071,"lon":43.504608},"country":"GE","name":"Beghleti"},{"_id":865397,"coord":{"lat":43.01693,"lon":41.029179},"country":"GE","name":"K’vemo Iasht’khva"},{"_id":874453,"coord":{"lat":43.098671,"lon":40.803452},"country":"GE","name":"Abaakhuda"},{"_id":615219,"coord":{"lat":43.227081,"lon":40.456959},"country":"GE","name":"Ch’erk’ezikhu"},{"_id":615203,"coord":{"lat":43.34367,"lon":40.193081},"country":"GE","name":"Chigripsh"},{"_id":611403,"coord":{"lat":42.227638,"lon":43.968609},"country":"GE","name":"Tskhinvali"},{"_id":612269,"coord":{"lat":41.716671,"lon":44.75},"country":"GE","name":"Saburtalo"},{"_id":614951,"coord":{"lat":41.966671,"lon":44.099998},"country":"GE","name":"Didi-Goridzhvari"},{"_id":865543,"coord":{"lat":42.70076,"lon":42.214958},"country":"GE","name":"Samegrelo-Zemo Svanetis Mkhare"},{"_id":610823,"coord":{"lat":42.46743,"lon":41.798302},"country":"GE","name":"Zugdidis Raioni"},{"_id":610824,"coord":{"lat":42.508801,"lon":41.87088},"country":"GE","name":"Zugdidi"},{"_id":865540,"coord":{"lat":42.32,"lon":44.139999},"country":"GE","name":"Shida Kartli"},{"_id":613987,"coord":{"lat":42,"lon":43.633331},"country":"GE","name":"Khashuris Raioni"},{"_id":613988,"coord":{"lat":41.994141,"lon":43.599941},"country":"GE","name":"Khashuri"},{"_id":865536,"coord":{"lat":41.51667,"lon":44.51667},"country":"GE","name":"Kvemo Kartli"},{"_id":7667578,"coord":{"lat":41.463612,"lon":44.810829},"country":"GE","name":"Marneuli"},{"_id":613074,"coord":{"lat":41.47588,"lon":44.808941},"country":"GE","name":"Marneuli"},{"_id":615419,"coord":{"lat":41.447941,"lon":44.53838},"country":"GE","name":"Bolnisi"},{"_id":612126,"coord":{"lat":42.153702,"lon":42.335171},"country":"GE","name":"Samtredia"},{"_id":614104,"coord":{"lat":41.925201,"lon":44.425678},"country":"GE","name":"Kaspi"},{"_id":865541,"coord":{"lat":42.283329,"lon":44.75},"country":"GE","name":"Mtskheta-Mtianeti"},{"_id":615914,"coord":{"lat":42.125969,"lon":44.48333},"country":"GE","name":"Akhalgori"},{"_id":615583,"coord":{"lat":41.749722,"lon":43.532501},"country":"GE","name":"Bakuriani"},{"_id":7667714,"coord":{"lat":41.583328,"lon":44.083328},"country":"GE","name":"Tsalka"},{"_id":611548,"coord":{"lat":41.594601,"lon":44.089088},"country":"GE","name":"Tsalka"},{"_id":865537,"coord":{"lat":41.75,"lon":45.716671},"country":"GE","name":"Kakheti"},{"_id":612338,"coord":{"lat":41.954922,"lon":45.817162},"country":"GE","name":"Qvareli"},{"_id":7667580,"coord":{"lat":41.75,"lon":45.799999},"country":"GE","name":"Gurjaani"},{"_id":614351,"coord":{"lat":41.74292,"lon":45.801109},"country":"GE","name":"Gurjaani"},{"_id":613342,"coord":{"lat":41.826809,"lon":46.276669},"country":"GE","name":"Lagodekhi"},{"_id":612230,"coord":{"lat":41.733971,"lon":45.331478},"country":"GE","name":"Sagarejo"},{"_id":611373,"coord":{"lat":41.62088,"lon":45.969429},"country":"GE","name":"Tsnori"},{"_id":615929,"coord":{"lat":41.666672,"lon":42},"country":"GE","name":"Ajaria"},{"_id":615532,"coord":{"lat":41.64159,"lon":41.635929},"country":"GE","name":"Batumi"},{"_id":865539,"coord":{"lat":42.166672,"lon":42.98333},"country":"GE","name":"Imereti"},{"_id":610864,"coord":{"lat":42.110001,"lon":43.052502},"country":"GE","name":"Zestaponi"},{"_id":612053,"coord":{"lat":42.27042,"lon":42.067501},"country":"GE","name":"Senaki"},{"_id":613607,"coord":{"lat":42.249611,"lon":42.699741},"country":"GE","name":"Kutaisi"},{"_id":616022,"coord":{"lat":42.209591,"lon":42.221111},"country":"GE","name":"Abasha"},{"_id":614890,"coord":{"lat":41.525139,"lon":44.347198},"country":"GE","name":"Dmanisi"},{"_id":611612,"coord":{"lat":41.599998,"lon":41.599998},"country":"GE","name":"Tofaloglebi"},{"_id":611062,"coord":{"lat":42.166672,"lon":42.5},"country":"GE","name":"Zeda-Bashi"},{"_id":865851,"coord":{"lat":41.68095,"lon":44.9799},"country":"GE","name":"Lilo"},{"_id":611717,"coord":{"lat":41.694111,"lon":44.833679},"country":"GE","name":"Tbilisi"},{"_id":584502,"coord":{"lat":41.7075,"lon":42.845718},"country":"GE","name":"Abastumani"},{"_id":610849,"coord":{"lat":42.131809,"lon":44.77264},"country":"GE","name":"Zhinvali"},{"_id":611093,"coord":{"lat":41.824581,"lon":44.753609},"country":"GE","name":"Zahesi"},{"_id":611219,"coord":{"lat":42.083199,"lon":42.521629},"country":"GE","name":"Vani"},{"_id":611230,"coord":{"lat":41.615582,"lon":42.872238},"country":"GE","name":"Vale"},{"_id":611274,"coord":{"lat":41.99556,"lon":41.77861},"country":"GE","name":"Ureki"},{"_id":611398,"coord":{"lat":41.694721,"lon":44.698608},"country":"GE","name":"Tsqneti"},{"_id":611492,"coord":{"lat":41.89315,"lon":45.571289},"country":"GE","name":"Tsinandali"},{"_id":611551,"coord":{"lat":42.604439,"lon":42.068249},"country":"GE","name":"Tsalenjikha"},{"_id":611564,"coord":{"lat":41.80365,"lon":43.481941},"country":"GE","name":"Tsaghveri"},{"_id":611584,"coord":{"lat":42.351212,"lon":42.998741},"country":"GE","name":"Tqibuli"},{"_id":611669,"coord":{"lat":42.10833,"lon":44.96389},"country":"GE","name":"Tianeti"},{"_id":611674,"coord":{"lat":41.544479,"lon":44.461529},"country":"GE","name":"Tetri Tsqaro"},{"_id":611809,"coord":{"lat":42.024311,"lon":43.555561},"country":"GE","name":"Surami"},{"_id":611902,"coord":{"lat":41.620461,"lon":45.921982},"country":"GE","name":"Sighnaghi"},{"_id":611964,"coord":{"lat":42.089802,"lon":43.08662},"country":"GE","name":"Shorapani"},{"_id":612012,"coord":{"lat":41.352718,"lon":44.76178},"country":"GE","name":"Naghvarevi"},{"_id":612502,"coord":{"lat":42.350601,"lon":44.689121},"country":"GE","name":"Pasanauri"},{"_id":612592,"coord":{"lat":42.579441,"lon":43.442501},"country":"GE","name":"Oni"},{"_id":612648,"coord":{"lat":41.859749,"lon":41.853088},"country":"GE","name":"Ochkhamuri"},{"_id":612691,"coord":{"lat":41.26458,"lon":43.591599},"country":"GE","name":"Ninotsminda"},{"_id":612890,"coord":{"lat":41.845139,"lon":44.71875},"country":"GE","name":"Mtskheta"},{"_id":612987,"coord":{"lat":43.045811,"lon":42.727798},"country":"GE","name":"Mestia"},{"_id":613065,"coord":{"lat":42.41436,"lon":42.379238},"country":"GE","name":"Martvili"},{"_id":613093,"coord":{"lat":41.69698,"lon":44.38448},"country":"GE","name":"Manglisi"},{"_id":613125,"coord":{"lat":41.673851,"lon":41.694012},"country":"GE","name":"Makhinjauri"},{"_id":613226,"coord":{"lat":42.785561,"lon":42.726109},"country":"GE","name":"Lentekhi"},{"_id":613559,"coord":{"lat":42.48103,"lon":42.096611},"country":"GE","name":"Kveda Chkhorotsqu"},{"_id":613641,"coord":{"lat":42.204441,"lon":42.349442},"country":"GE","name":"Kulashi"},{"_id":613902,"coord":{"lat":42.322601,"lon":42.420609},"country":"GE","name":"Khoni"},{"_id":613918,"coord":{"lat":42.315578,"lon":41.898708},"country":"GE","name":"Khobi"},{"_id":614087,"coord":{"lat":42.65667,"lon":44.64333},"country":"GE","name":"Stepantsminda"},{"_id":614217,"coord":{"lat":42.399719,"lon":43.936668},"country":"GE","name":"Java"},{"_id":614409,"coord":{"lat":43.105469,"lon":40.62067},"country":"GE","name":"Gudauta"},{"_id":614575,"coord":{"lat":41.460541,"lon":45.092831},"country":"GE","name":"Gardabani"},{"_id":614580,"coord":{"lat":43.381111,"lon":40.079441},"country":"GE","name":"Gantiadi"},{"_id":614613,"coord":{"lat":42.626549,"lon":41.738079},"country":"GE","name":"Gali"},{"_id":614740,"coord":{"lat":42.716919,"lon":42.051998},"country":"GE","name":"Jvari"},{"_id":614897,"coord":{"lat":41.62933,"lon":42.391708},"country":"GE","name":"Dioknisi"},{"_id":614934,"coord":{"lat":41.736111,"lon":44.964722},"country":"GE","name":"Didi Lilo"},{"_id":615403,"coord":{"lat":41.852718,"lon":43.412842},"country":"GE","name":"Borjomi"},{"_id":615611,"coord":{"lat":41.816669,"lon":46.033329},"country":"GE","name":"Bagdadi"},{"_id":615660,"coord":{"lat":41.573891,"lon":43.24826},"country":"GE","name":"Aspindza"},{"_id":615776,"coord":{"lat":42.521111,"lon":43.16222},"country":"GE","name":"Ambrolauri"},{"_id":615844,"coord":{"lat":42.031109,"lon":45.2075},"country":"GE","name":"Akhmeta"},{"_id":615893,"coord":{"lat":41.40514,"lon":43.48629},"country":"GE","name":"Akhalkalaki"},{"_id":615921,"coord":{"lat":41.65395,"lon":42.15163},"country":"GE","name":"Akhaldaba"},{"_id":615943,"coord":{"lat":42.037609,"lon":43.823818},"country":"GE","name":"Agara"},{"_id":615973,"coord":{"lat":41.6819,"lon":42.698669},"country":"GE","name":"Adigeni"},{"_id":824385,"coord":{"lat":41.90694,"lon":41.95417},"country":"GE","name":"Naruja"},{"_id":824613,"coord":{"lat":41.733711,"lon":43.47242},"country":"GE","name":"Bakurianis Andeziti"},{"_id":6940391,"coord":{"lat":42.23,"lon":43.970001},"country":"G