{"countryCityList":[{"_id":3381303,"coord":{"lat":5.15518,"lon":-52.647789},"country":"GF","name":"Kourou"},{"_id":3381212,"coord":{"lat":5.15,"lon":-52.650002},"country":"GF","name":"Le Bourg"},{"_id":3380386,"coord":{"lat":4,"lon":-53.75},"country":"GF","name":"Arrondissement de Saint-Laurent-du-Maroni"},{"_id":6690694,"coord":{"lat":5.6672,"lon":-53.776901},"country":"GF","name":"Mana"},{"_id":3381041,"coord":{"lat":5.65919,"lon":-53.776661},"country":"GF","name":"Mana"},{"_id":6690702,"coord":{"lat":4.7283,"lon":-52.3242},"country":"GF","name":"Roura"},{"_id":3380450,"coord":{"lat":4.72629,"lon":-52.327419},"country":"GF","name":"Roura"},{"_id":3380993,"coord":{"lat":3.63333,"lon":-54.049999},"country":"GF","name":"Maripa-Village"},{"_id":3382261,"coord":{"lat":4.57779,"lon":-52.47224},"country":"GF","name":"Cacao"},{"_id":3381270,"coord":{"lat":4.85,"lon":-52.333328},"country":"GF","name":"La Désirée"},{"_id":6690605,"coord":{"lat":3.99929,"lon":-52.998562},"country":"GF","name":"Guyane"},{"_id":6690606,"coord":{"lat":3.99886,"lon":-52.999939},"country":"GF","name":"Guyane"},{"_id":3382159,"coord":{"lat":4,"lon":-52.5},"country":"GF","name":"Arrondissement de Cayenne"},{"_id":6690689,"coord":{"lat":4.9386,"lon":-52.334999},"country":"GF","name":"Cayenne"},{"_id":3382160,"coord":{"lat":4.93333,"lon":-52.333328},"country":"GF","name":"Cayenne"},{"_id":3381117,"coord":{"lat":4.91667,"lon":-52.366669},"country":"GF","name":"Macouria"},{"_id":6690705,"coord":{"lat":5.5039,"lon":-54.0289},"country":"GF","name":"Saint-Laurent-du-Maroni"},{"_id":3380387,"coord":{"lat":5.5,"lon":-54.033329},"country":"GF","name":"Saint-Laurent-du-Maroni"},{"_id":6690701,"coord":{"lat":4.905,"lon":-52.276699},"country":"GF","name":"Rémire-Montjoly"},{"_id":3380892,"coord":{"lat":4.91667,"lon":-52.26667},"country":"GF","name":"Remire-Montjoly"},{"_id":6690696,"coord":{"lat":4.8506,"lon":-52.3311},"country":"GF","name":"Matoury"},{"_id":3380965,"coord":{"lat":4.84827,"lon":-52.331718},"country":"GF","name":"Matoury"},{"_id":3381670,"coord":{"lat":4,"lon":-53},"country":"GF","name":"Guyane"},{"_id":3380167,"coord":{"lat":4.83038,"lon":-52.444431},"country":"GF","name":"Tonnégrande"},{"_id":6690686,"coord":{"lat":5.1567,"lon":-54.343102},"country":"GF","name":"Apatou"},{"_id":3382527,"coord":{"lat":5.155,"lon":-54.347221},"country":"GF","name":"Apatou"},{"_id":6690707,"coord":{"lat":5.3775,"lon":-52.958599},"country":"GF","name":"Sinnamary"},{"_id":3380290,"coord":{"lat":5.38333,"lon":-52.950001},"country":"GF","name":"Sinnamary"},{"_id":3380394,"coord":{"lat":3.13832,"lon":-52.353199},"country":"GF","name":"Saint-Joseph"},{"_id":6690691,"coord":{"lat":5.48,"lon":-53.205601},"country":"GF","name":"Iracoubo"},{"_id":3381428,"coord":{"lat":5.48024,"lon":-53.201092},"country":"GF","name":"Iracoubo"},{"_id":3380383,"coord":{"lat":5.47574,"lon":-54.046398},"country":"GF","name":"Saint-Louis"},{"_id":3381207,"coord":{"lat":4.83333,"lon":-52.349998},"country":"GF","name":"Le Dix-Septième"},{"_id":3380402,"coord":{"lat":3.9,"lon":-51.799999},"country