{"countryCode":"GF","countryName":"French Guiana","countryFilePath":"GF.json","countryCityList":[{"_id":3381303,"name":"Kourou","country":"GF","coord":{"lon":-52.647789,"lat":5.15518}},{"_id":3381212,"name":"Le Bourg","country":"GF","coord":{"lon":-52.650002,"lat":5.15}},{"_id":3380386,"name":"Arrondissement de Saint-Laurent-du-Maroni","country":"GF","coord":{"lon":-53.75,"lat":4.0}},{"_id":6690694,"name":"Mana","country":"GF","coord":{"lon":-53.776901,"lat":5.6672}},{"_id":3381041,"name":"Mana","country":"GF","coord":{"lon":-53.776661,"lat":5.65919}},{"_id":6690702,"name":"Roura","country":"GF","coord":{"lon":-52.3242,"lat":4.7283}},{"_id":3380450,"name":"Roura","country":"GF","coord":{"lon":-52.327419,"lat":4.72629}},{"_id":3380993,"name":"Maripa-Village","country":"GF","coord":{"lon":-54.049999,"lat":3.63333}},{"_id":3382261,"name":"Cacao","country":"GF","coord":{"lon":-52.47224,"lat":4.57779}},{"_id":3381270,"name":"La Désirée","country":"GF","coord":{"lon":-52.333328,"lat":4.85}},{"_id":6690605,"name":"Guyane","country":"GF","coord":{"lon":-52.998562,"lat":3.99929}},{"_id":6690606,"name":"Guyane","country":"GF","coord":{"lon":-52.999939,"lat":3.99886}},{"_id":3382159,"name":"Arrondissement de Cayenne","country":"GF","coord":{"lon":-52.5,"lat":4.0}},{"_id":6690689,"name":"Cayenne","country":"GF","coord":{"lon":-52.334999,"lat":4.9386}},{"_id":3382160,"name":"Cayenne","country":"GF","coord":{"lon":-52.333328,"lat":4.93333}},{"_id":3381117,"name":"Macouria","country":"GF","coord":{"lon":-52.366669,"lat":4.91667}},{"_id":6690705,"name":"Saint-Laurent-du-Maroni","country":"GF","coord":{"lon":-54.0289,"lat":5.5039}},{"_id":3380387,"name":"Saint-Laurent-du-Maroni","country":"GF","coord":{"lon":-54.033329,"lat":5.5}},{"_id":6690701,"name":"Rémire-Montjoly","country":"GF","coord":{"lon":-52.276699,"lat":4.905}},{"_id":3380892,"name":"Remire-Montjoly","country":"GF","coord":{"lon":-52.26667,"lat":4.91667}},{"_id":6690696,"name":"Matoury","country":"GF","coord":{"lon":-52.3311,"lat":4.8506}},{"_id":3380965,"name":"Matoury","country":"GF","coord":{"lon":-52.331718,"lat":4.84827}},{"_id":3381670,"name":"Guyane","country":"GF","coord":{"lon":-53.0,"lat":4.0}},{"_id":3380167,"name":"Tonnégrande","country":"GF","coord":{"lon":-52.444431,"lat":4.83038}},{"_id":6690686,"name":"Apatou","country":"GF","coord":{"lon":-54.343102,"lat":5.1567}},{"_id":3382527,"name":"Apatou","country":"GF","coord":{"lon":-54.347221,"lat":5.155}},{"_id":6690707,"name":"Sinnamary","country":"GF","coord":{"lon":-52.958599,"lat":5.3775}},{"_id":3380290,"name":"Sinnamary","country":"GF","coord":{"lon":-52.950001,"lat":5.38333}},{"_id":3380394,"name":"Saint-Joseph","country":"GF","coord":{"lon":-52.353199,"lat":3.13832}},{"_id":6690691,"name":"Iracoubo","country":"GF","coord":{"lon":-53.205601,"lat":5.48}},{"_id":3381428,"name":"Iracoubo","country":"GF","coord":{"lon":-53.201092,"lat":5.48024}},{"_id":3380383,"name":"Saint-Louis","country":"GF","coord":{"lon":-54.046398,"lat":5.47574}},{"_id":3381207,"name":"Le Dix-Septième","country":"GF","coord":{"lon":-52.349998,"lat":4.83333}},{"_id":3380402,"name":"Saint-Georges-de-lOyapock","country":"GF","coord":{"lon":-51.799999,"lat":3.9}},{"_id":3381538,"name":"Grand-Santi","country":"GF","coord":{"lon":-54.383331,"lat":4.25}},{"_id":3382226,"name":"Camopi","country":"GF","coord":{"lon":-52.31575,"lat":3.16548}}]}
