{"countryCityList":[{"_id":2413875,"coord":{"lat":13.45,"lon":-16.58333},"country":"GM","name":"City of Banjul"},{"_id":2413239,"coord":{"lat":13.4425,"lon":-16.681391},"country":"GM","name":"Serekunda"},{"_id":2411989,"coord":{"lat":13.43833,"lon":-16.678061},"country":"GM","name":"Sere Kunda"},{"_id":2413106,"coord":{"lat":13.44639,"lon":-16.67444},"country":"GM","name":"Kanifing"},{"_id":2411683,"coord":{"lat":13.25,"lon":-16.33333},"country":"GM","name":"Western Division"},{"_id":2413874,"coord":{"lat":13.37333,"lon":-16.657221},"country":"GM","name":"Banjul NDing"},{"_id":2411880,"coord":{"lat":13.41033,"lon":-16.708151},"country":"GM","name":"Sukuta"},{"_id":2412353,"coord":{"lat":13.5,"lon":-16},"country":"GM","name":"North Bank Division"},{"_id":2412749,"coord":{"lat":13.35222,"lon":-16.433889},"country":"GM","name":"Lamin"},{"_id":2413515,"coord":{"lat":13.56667,"lon":-15.6},"country":"GM","name":"Farafenni"},{"_id":2413753,"coord":{"lat":13.27136,"lon":-16.649441},"country":"GM","name":"Brikama"},{"_id":2413920,"coord":{"lat":13.47806,"lon":-16.68194},"country":"GM","name":"Bakau"},{"_id":2413451,"coord":{"lat":13.5,"lon":-15.5},"country":"GM","name":"Gambia"},{"_id":2413697,"coord":{"lat":13.33306,"lon":-16.67083},"country":"GM","name":"Busumbala"},{"_id":2413876,"coord":{"lat":13.45274,"lon":-16.57803},"country":"GM","name":"Banjul"},{"_id":2411692,"coord":{"lat":13.41667,"lon":-15.4},"country":"GM","name":"Wellingara Ba"},{"_id":2411703,"coord":{"lat":13.69094,"lon":-14.87884},"country":"GM","name":"Wassu"},{"_id":2411765,"coord":{"lat":13.43333,"lon":-15.58333},"country":"GM","name":"Toniataba"},{"_id":2411862,"coord":{"lat":13.46667,"lon":-15.26667},"country":"GM","name":"Sutukung"},{"_id":2411863,"coord":{"lat":13.5,"lon":-14.01667},"country":"GM","name":"Sutukoba"},{"_id":2411866,"coord":{"lat":13.38333,"lon":-13.85},"country":"GM","name":"Sun Kunda"},{"_id":2411877,"coord":{"lat":13.61667,"lon":-14.91667},"country":"GM","name":"Sukuta"},{"_id":2411885,"coord":{"lat":13.36667,"lon":-13.96667},"country":"GM","name":"Sudowol"},{"_id":2411903,"coord":{"lat":13.20583,"lon":-16.305559},"country":"GM","name":"Somita"},{"_id":2411905,"coord":{"lat":13.43333,"lon":-15.53333},"country":"GM","name":"Soma"},{"_id":2411970,"coord":{"lat":13.43333,"lon":-15.56667},"country":"GM","name":"Si Kunda"},{"_id":2411999,"coord":{"lat":13.55,"lon":-14.91667},"country":"GM","name":"Saruja"},{"_id":2412135,"coord":{"lat":13.53333,"lon":-15.41667},"country":"GM","name":"Sara Kunda"},{"_id":2412158,"coord":{"lat":13.46667,"lon":-15.51667},"country":"GM","name":"Sankwia"},{"_id":2412199,"coord":{"lat":13.58333,"lon":-15.2},"country":"GM","name":"Sami"},{"_id":2412248,"coord":{"lat":13.23333,"lon":-14.2},"country":"GM","name":"Sabi"},{"_id":2412252,"coord":{"lat":13.51639,"lon":-16.04917},"country":"GM","name":"Saba"},{"_id":2412272,"coord":{"lat":13.38333,"lon":-14.03333},"country":"GM","name":"Perai"},{"_id":2412279,"coord":{"lat":13.61667,"lon":-15.06667},"country":"GM","name":"Pateh Sam"},{"_id":2412344,"coord":{"lat":13.33333,"lon":-13.86667},"country":"GM","name":"Nyamanari"},{"_id":2412355,"coord":{"lat":13.56667,"lon":-15.83333},"country":"GM","name":"No Kunda"},{"_id":2412408,"coord":{"lat":13.35,"lon":-15.75},"country":"GM","name":"Nioro"},{"_id":2412605,"coord":{"lat":13.46667,"lon":-15.55},"country":"GM","name":"Mansa Konko"},{"_id":2412775,"coord":{"lat":13.53333,"lon":-14.66667},"country":"GM","name":"Kunting"},{"_id":2412778,"coord":{"lat":13.66667,"lon":-14.88333},"country":"GM","name":"Kuntaur"},{"_id":2412807,"coord":{"lat":13.26667,"lon":-14.18333},"country":"GM","name":"Kumbija"},{"_id":2412868,"coord":{"lat":13.48333,"lon":-13.86667},"country":"GM","name":"Koina"},{"_id":2412992,"coord":{"lat":13.4898,"lon":-16.088791},"country":"GM","name":"Kerewan"},{"_id":2413023,"coord":{"lat":13.32889,"lon":-16.014999},"country":"GM","name":"Keneba"},{"_id":2413041,"coord":{"lat":13.5,"lon":-15.75},"country":"GM","name":"Katchang"},{"_id":2413052,"coord":{"lat":13.78333,"lon":-14.93333},"country":"GM","name":"Kass Wollof"},{"_id":2413070,"coord":{"lat":13.66667,"lon":-15.03333},"country":"GM","name":"Karantaba"},{"_id":2413073,"coord":{"lat":13.43333,"lon":-15.51667},"country":"GM","name":"Karantaba"},{"_id":2413160,"coord":{"lat":13.4,"lon":-15.61667},"country":"GM","name":"Kaiaf"},{"_id":2413235,"coord":{"lat":13.3,"lon":-15.86667},"country":"GM","name":"Jifarong"},{"_id":2413246,"coord":{"lat":13.48333,"lon":-15.56667},"country":"GM","name":"Jenoi"},{"_id":2413265,"coord":{"lat":13.61667,"lon":-15.18333},"country":"GM","name":"Jarreng"},{"_id":2413344,"coord":{"lat":13.35,"lon":-15.96667},"country":"GM","name":"Jali"},{"_id":2413365,"coord":{"lat":13.55,"lon":-14.96667},"country":"GM","name":"Jakhaly"},{"_id":2413417,"coord":{"lat":13.53333,"lon":-14.11667},"country":"GM","name":"Gunjur Kuta"},{"_id":2413418,"coord":{"lat":13.52278,"lon":-16.027781},"country":"GM","name":"Gunjur"},{"_id":2413419,"coord":{"lat":13.20194,"lon":-16.733891},"country":"GM","name":"Gunjur"},{"_id":2413437,"coord":{"lat":13.53333,"lon":-14.76667},"country":"GM","name":"Georgetown"},{"_id":2413456,"coord":{"lat":13.43333,"lon":-14.78333},"country":"GM","name":"Galleh Manda"},{"_id":2413533,"coord":{"lat":13.48389,"lon":-16.534719},"country":"GM","name":"Essau"},{"_id":2413579,"coord":{"lat":13.33333,"lon":-13.95},"country":"GM","name":"Diabugu Basilla"},{"_id":2413580,"coord":{"lat":13.38333,"lon":-14.4},"country":"GM","name":"Diabugu"},{"_id":2413588,"coord":{"lat":13.5,"lon":-14.93333},"country":"GM","name":"Denton"},{"_id":2413598,"coord":{"lat":13.25,"lon":-14.26667},"country":"GM","name":"Demba Kunda"},{"_id":2413623,"coord":{"lat":13.55,"lon":-15.98333},"country":"GM","name":"Daru Rilwan"},{"_id":2413645,"coord":{"lat":13.56667,"lon":-15.31667},"country":"GM","name":"Dankunku"},{"_id":2413653,"coord":{"lat":13.31667,"lon":-14.3},"country":"GM","name":"Daba Kunda"},{"_id":2413660,"coord":{"lat":13.55,"lon":-16.283331},"country":"GM","name":"Chilla"},{"_id":2413703,"coord":{"lat":13.41667,"lon":-15.28333},"country":"GM","name":"Bureng"},{"_id":2413