{"countryCityList":[{"_id":6690393,"coord":{"lat":16.23333,"lon":-61.366669},"country":"GP","name":"Sainte-Anne"},{"_id":6690399,"coord":{"lat":16.23333,"lon":-61.51667},"country":"GP","name":"Pointe-à-Pitre"},{"_id":6690387,"coord":{"lat":16.26667,"lon":-61.5},"country":"GP","name":"Les Abymes"},{"_id":6690413,"coord":{"lat":16.33333,"lon":-61.333328},"country":"GP","name":"Le Moule"},{"_id":6690408,"coord":{"lat":16.049999,"lon":-61.549999},"country":"GP","name":"Capesterre-Belle-Eau"},{"_id":6690410,"coord":{"lat":16,"lon":-61.716671},"country":"GP","name":"Basse-Terre"},{"_id":3579732,"coord":{"lat":15.99854,"lon":-61.725479},"country":"GP","name":"Basse-Terre"},{"_id":3579759,"coord":{"lat":16.24494,"lon":-61.518162},"country":"GP","name":"Baimbridge"},{"_id":3578598,"coord":{"lat":16.33333,"lon":-61.416672},"country":"GP","name":"Arrondissement de Pointe-à-Pitre"},{"_id":6690400,"coord":{"lat":16.383329,"lon":-61.48333},"country":"GP","name":"Petit-Canal"},{"_id":3578681,"coord":{"lat":16.378361,"lon":-61.487881},"country":"GP","name":"Petit-Canal"},{"_id":3578818,"coord":{"lat":16.2948,"lon":-61.788391},"country":"GP","name":"Mazeau"},{"_id":6690411,"coord":{"lat":16.01667,"lon":-61.73333},"country":"GP","name":"Baillif"},{"_id":3579761,"coord":{"lat":16.02018,"lon":-61.746319},"country":"GP","name":"Baillif"},{"_id":3579035,"coord":{"lat":16.133329,"lon":-61.566669},"country":"GP","name":"La Grange"},{"_id":3579543,"coord":{"lat":15.98149,"lon":-61.680641},"country":"GP","name":"Champfleury"},{"_id":3578886,"coord":{"lat":16.46744,"lon":-61.505211},"country":"GP","name":"Mahaudière"},{"_id":3579650,"coord":{"lat":16.26667,"lon":-61.616669},"country":"GP","name":"Borel"},{"_id":3578577,"coord":{"lat":16.3242,"lon":-61.323528},"country":"GP","name":"Portland"},{"_id":3578914,"coord":{"lat":16.26667,"lon":-61.5},"country":"GP","name":"Longval"},{"_id":3578592,"coord":{"lat":16.244329,"lon":-61.369862},"country":"GP","name":"Poirier"},{"_id":6690363,"coord":{"lat":16.250111,"lon":-61.583691},"country":"GP","name":"Guadeloupe"},{"_id":6690364,"coord":{"lat":16.24988,"lon":-61.583649},"country":"GP","name":"Guadeloupe"},{"_id":3579731,"coord":{"lat":16.16667,"lon":-61.666672},"country":"GP","name":"Arrondissement de la Basse-Terre"},{"_id":6690404,"coord":{"lat":16.133329,"lon":-61.566669},"country":"GP","name":"Goyave"},{"_id":3579259,"coord":{"lat":16.13517,"lon":-61.574009},"country":"GP","name":"Goyave"},{"_id":6690392,"coord":{"lat":16.33333,"lon":-61.683331},"country":"GP","name":"Sainte-Rose"},{"_id":3578447,"coord":{"lat":16.33238,"lon":-61.697929},"country":"GP","name":"Sainte-Rose"},{"_id":3578466,"coord":{"lat":16.22636,"lon":-61.379189},"country":"GP","name":"Sainte-Anne"},{"_id":6690401,"coord":{"lat":16.183331,"lon":-61.583328},"country":"GP","name":"Petit-Bourg"},{"_id":3578682,"coord":{"lat":16.191351,"lon":-61.591591},"country":"GP","name":"Petit-Bourg"},{"_id":3578959,"coord":{"lat":16.27095,"lon":-61.504509},"country":"GP","name":"Les Abymes"},{"_id":3578967,"coord":{"lat":16.333151,"lon":-61.347279},"country":"GP","name":"Le Moule"},{"_id":6690414,"coord":{"lat":16.200001,"lon":-61.48333},"country":"GP","name":"Le Gosier"},{"_id":3578978,"coord":{"lat":16.20685,"lon":-61.49329},"country":"GP","name":"Le Gosier"},{"_id":3579585,"coord":{"lat":16.043221,"lon":-61.56596},"country":"GP","name":"Capesterre-Belle-Eau"},{"_id":6690412,"coord":{"lat":16.26667,"lon":-61.583328},"country":"GP","name":"Baie-Mahault"},{"_id":3579767,"coord":{"lat":16.26738,"lon":-61.58543},"country":"GP","name":"Baie-Mahault"},{"_id":3579143,"coord":{"lat":16.25,"lon":-61.583328},"country":"GP","name":"Guadeloupe"},{"_id":3578599,"coord":{"lat":16.242201,"lon":-61.534302},"country":"GP","name":"Pointe-a-Pitre"},{"_id":3578278,"coord":{"lat":16.058901,"lon":-61.765949},"country":"GP","name":"Vieux-Habitants"},{"_id":3578324,"coord":{"lat":15.97567,"lon":-61.645088},"country":"GP","name":"Trois-Rivieres"},{"_id":3578351,"coord":{"lat":15.85011,"lon":-61.644169},"country":"GP","name":"Terre-de-Bas"},{"_id":3578441,"coord":{"lat":1