{"countryCode":"HN","countryName":"Honduras","countryFilePath":"HN.json","countryCityList":[{"_id":3600456,"name":"Departamento de Valle","country":"HN","coord":{"lon":-87.583328,"lat":13.58333}},{"_id":3609672,"name":"Departmento de Francisco Morazán","country":"HN","coord":{"lon":-87.166672,"lat":14.25}},{"_id":3600328,"name":"Villa Nueva","country":"HN","coord":{"lon":-87.133331,"lat":14.03333}},{"_id":3613358,"name":"Departamento de Colón","country":"HN","coord":{"lon":-85.666672,"lat":15.75}},{"_id":3614736,"name":"Boca de Hule","country":"HN","coord":{"lon":-85.550003,"lat":15.5}},{"_id":3608248,"name":"La Ceiba","country":"HN","coord":{"lon":-86.782211,"lat":15.75971}},{"_id":3613527,"name":"Departamento de Choluteca","country":"HN","coord":{"lon":-87.083328,"lat":13.33333}},{"_id":3611068,"name":"El Ojochal","country":"HN","coord":{"lon":-87.388893,"lat":13.16528}},{"_id":3811264,"name":"Quemamacho","country":"HN","coord":{"lon":-87.08889,"lat":13.18722}},{"_id":3600327,"name":"Villanueva","country":"HN","coord":{"lon":-88.0,"lat":15.31667}},{"_id":3600931,"name":"Tela","country":"HN","coord":{"lon":-87.449997,"lat":15.78333}},{"_id":3601494,"name":"Santa Rosa de Copan","country":"HN","coord":{"lon":-88.783333,"lat":14.76667}},{"_id":3601691,"name":"Santa Barbara","country":"HN","coord":{"lon":-88.23333,"lat":14.91667}},{"_id":3601782,"name":"San Pedro Sula","country":"HN","coord":{"lon":-88.033333,"lat":15.5}},{"_id":3601977,"name":"San Lorenzo","country":"HN","coord":{"lon":-87.44722,"lat":13.42417}},{"_id":3603330,"name":"Potrerillos","country":"HN","coord":{"lon":-87.966667,"lat":15.23333}},{"_id":3604251,"name":"Olanchito","country":"HN","coord":{"lon":-86.566673,"lat":15.5}},{"_id":3607251,"name":"Departmento de La Paz","country":"HN","coord":{"lon":-87.916672,"lat":14.08333}},{"_id":3607254,"name":"La Paz","country":"HN","coord":{"lon":-87.683327,"lat":14.31667}},{"_id":3607511,"name":"La Lima","country":"HN","coord":{"lon":-87.916672,"lat":15.43333}},{"_id":3608503,"name":"Juticalpa","country":"HN","coord":{"lon":-86.199997,"lat":14.65}},{"_id":3610613,"name":"El Progreso","country":"HN","coord":{"lon":-87.800003,"lat":15.4}},{"_id":3610965,"name":"El Paraiso","country":"HN","coord":{"lon":-86.550003,"lat":13.86667}},{"_id":3613533,"name":"Choloma","country":"HN","coord":{"lon":-87.953018,"lat":15.61444}},{"_id":3608932,"name":"Republic of Honduras","country":"HN","coord":{"lon":-86.5,"lat":15.0}},{"_id":3600026,"name":"Puerto Cortez","country":"HN","coord":{"lon":-87.949997,"lat":15.83333}},{"_id":3600193,"name":"Departamento de Yoro","country":"HN","coord":{"lon":-87.166672,"lat":15.25}},{"_id":3604584,"name":"Morazan","country":"HN","coord":{"lon":-87.599998,"lat":15.31667}},{"_id":3613314,"name":"Comayagüela","country":"HN","coord":{"lon":-87.216667,"lat":14.08333}},{"_id":3613140,"name":"Departamento de Cortés","country":"HN","coord":{"lon":-88.0,"lat":15.41667}},{"_id":3602790,"name":"Río Blanco","country":"HN","coord":{"lon":-88.033333,"lat":15.5}},{"_id":3600195,"name":"Yoro","country":"HN","coord":{"lon":-87.133331,"lat":15.13333}},{"_id":3613805,"name":"Cerro Grande","country":"HN","coord":{"lon":-87.25,"lat":13.81667}},{"_id":3604303,"name":"Ocotillo Occidental","country":"HN","coord":{"lon":-87.949997,"lat":15.61667}},{"_id":3610942,"name":"Departamento de El Paraíso","country":"HN","coord":{"lon":-86.5,"lat":14.08333}},{"_id":3600841,"name":"Teupasenti","country":"HN","coord":{"lon":-86.699997,"lat":14.21667}},{"_id":3613528,"name":"Ciudad Choluteca","country":"HN","coord":{"lon":-87.190826,"lat":13.30028}},{"_id":3600422,"name":"Valle de Angeles","country":"HN","coord":{"lon":-87.033333,"lat":14.15}},{"_id":3611008,"name":"El País","country":"HN","coord":{"lon":-87.116669,"lat":14.1}},{"_id":3604579,"name":"Moroceli","country":"HN","coord":{"lon":-86.866669,"lat":14.11667}},{"_id":3613319,"name":"Departamento de Comayagua","country":"HN","coord":{"lon":-87.666672,"lat":14.58333}},{"_id":3613321,"name":"Comayagua","country":"HN","coord":{"lon":-87.633331,"lat":14.45}},{"_id":3609690,"name":"Flores","country":"HN","coord":{"lon":-87.566673,"lat":14.28333}},{"_id":3613229,"name":"Departamento de Copán","country":"HN","coord":{"lon":-88.916672,"lat":14.91667}},{"_id":3607986,"name":"La Entrada","country":"HN","coord":{"lon":-88.73333,"lat":15.05}},{"_id":3601072,"name":"Talanga","country":"HN","coord":{"lon":-87.083328,"lat":14.4}},{"_id":3604249,"name":"Departamento de Olancho","country":"HN","coord":{"lon":-86.0,"lat":14.83333}},{"_id":3613974,"name":"Catacamas","country":"HN","coord":{"lon":-85.900002,"lat":14.8}},{"_id":3612907,"name":"Danli","country":"HN","coord":{"lon":-86.583328,"lat":14.03333}},{"_id":3601311,"name":"Siguatepeque","country":"HN","coord":{"lon":-87.833328,"lat":14.6}},{"_id":3615027,"name":"Departamento de Atlántida","country":"HN","coord":{"lon":-87.0,"lat":15.66667}},{"_id":3610676,"name":"El Porvenir","country":"HN","coord":{"lon":-86.933327,"lat":15.75}},{"_id":3600704,"name":"Tocoa","country":"HN","coord":{"lon":-86.0,"lat":15.68333}},{"_id":3607723,"name":"La Inea","country":"HN","coord":{"lon":-88.783333,"lat":14.76667}},{"_id":3600450,"name":"Vallecillo","country":"HN","coord":{"lon":-87.400002,"lat":14.51667}},{"_id":3604229,"name":"Omoa","country":"HN","coord":{"lon":-88.033333,"lat":15.76667}},{"_id":3613394,"name":"Cofradia","country":"HN","coord":{"lon":-88.150002,"lat":15.4}},{"_id":3601689,"name":"Departamento de Santa Bárbara","country":"HN","coord":{"lon":-88.333328,"lat":15.08333}},{"_id":3603799,"name":"Petoa","country":"HN","coord":{"lon":-88.283333,"lat":15.26667}},{"_id":3606066,"name":"Departamento de Lempira","country":"HN","coord":{"lon":-88.583328,"lat":14.5}},{"_id":3600800,"name":"Tierra Blanca","country":"HN","coord":{"lon":-88.583328,"lat":14.58333}},{"_id":3607436,"name":"Lamani","country":"HN","coord":{"lon":-87.616669,"lat":14.2}},{"_id":3615028,"name":"Atima","country":"HN","coord":{"lon":-88.48333,"lat":14.93333}},{"_id":3611144,"name":"El Nispero","country":"HN","coord":{"lon":-88.333328,"lat":14.76667}},{"_id":3613015,"name":"Cucuyagua","country":"HN","coord":{"lon":-88.866669,"lat":14.65}},{"_id":3602444,"name":"San Antonio de Cortes","country":"HN","coord":{"lon":-88.033333,"lat":15.11667}},{"_id":3611628,"name":"El Higuerito","country":"HN","coord":{"lon":-86.199997,"lat":14.65}},{"_id":3601627,"name":"Santa Cruz de Yojoa","country":"HN","coord":{"lon":-87.900002,"lat":14.98333}},{"_id":3606035,"name":"Lepaterique","country":"HN","coord":{"lon":-87.466667,"lat":14.06667}},{"_id":3608833,"name":"Departamento de Intibucá","country":"HN","coord":{"lon":-88.166672,"lat":14.33333}},{"_id":3607966,"name":"La Esperanza","country":"HN","coord":{"lon":-88.183327,"lat":14.3}},{"_id":3609583,"name":"Departamento de Gracias a Dios","country":"HN","coord":{"lon":-84.333328,"lat":15.25}},{"_id":3603157,"name":"Puerto Lempira","country":"HN","coord":{"lon":-83.76667,"lat":15.26667}},{"_id":3607419,"name":"La Masica","country":"HN","coord":{"lon":-87.116669,"lat":15.61667}},{"_id":3604318,"name":"Departamento de Ocotepeque","country":"HN","coord":{"lon":-89.0,"lat":14.5}},{"_id":3604384,"name":"Nueva Ocotepeque","country":"HN","coord":{"lon":-89.183327,"lat":14.43333}},{"_id":3606097,"name":"La Virtud","country":"HN","coord":{"lon":-88.699997,"lat":14.05}},{"_id":3601903,"name":"San Marcos","country":"HN","coord":{"lon":-88.949997,"lat":14.4}},{"_id":3602936,"name":"Quiscamote","country":"HN","coord":{"lon":-87.98333,"lat":14.48333}},{"_id":3602097,"name":"San Jose de Colinas","country":"HN","coord":{"lon":-88.300003,"lat":15.03333}},{"_id":3601211,"name":"Sonaguera","country":"HN","coord":{"lon":-86.333328,"lat":15.63333}},{"_id":3614319,"name":"Campamento","country":"HN","coord":{"lon":-86.650002,"lat":14.55}},{"_id":3605010,"name":"Maraquito","country":"HN","coord":{"lon":-86.816673,"lat":14.53333}},{"_id":3601403,"name":"Saba","country":"HN","coord":{"lon":-86.25,"lat":15.46667}},{"_id":3610331,"name":"El Salvador","country":"HN","coord":{"lon":-88.150002,"lat":15.2}},{"_id":3611150,"name":"El Negrito","country":"HN","coord":{"lon":-87.699997,"lat":15.31667}},{"_id":3602952,"name":"Quimistan","country":"HN","coord":{"lon":-88.400002,"lat":15.35}},{"_id":3602758,"name":"Rio Lindo","country":"HN","coord":{"lon":-87.98333,"lat":15.03333}},{"_id":3601783,"name":"San Pedro Sula","country":"HN","coord":{"lon":-88.0,"lat":15.5}},{"_id":3603856,"name":"Pena Blanca","country":"HN","coord":{"lon":-88.050003,"lat":15.53333}},{"_id":3601999,"name":"San Juan de Flores","country":"HN","coord":{"lon":-87.033333,"lat":14.26667}},{"_id":3606048,"name":"Lepaera","country":"HN","coord":{"lon":-88.583328,"lat":14.78333}},{"_id":3614975,"name":"Azacualpa","country":"HN","coord":{"lon":-88.099998,"lat":14.71667}},{"_id":3611185,"name":"El Naranjo","country":"HN","coord":{"lon":-86.800003,"lat":13.43333}},{"_id":3600254,"name":"Yamaranguila","country":"HN","coord":{"lon":-88.25,"lat":14.28333}},{"_id":3609389,"name":"Gualaco","country":"HN","coord":{"lon":-86.050003,"lat":15.05}},{"_id":3608198,"name":"La Chorrera","country":"HN","coord":{"lon":-88.216667,"lat":13.91667}},{"_id":3602036,"name":"San Juan","country":"HN","coord":{"lon":-87.116669,"lat":15.16667}},{"_id":3608367,"name":"La Burrera","country":"HN","coord":{"lon":-87.216667,"lat":14.06667}},{"_id":3605859,"name":"Loma Encerrada","country":"HN","coord":{"lon":-88.783333,"lat":14.78333}},{"_id":3614158,"name":"Capiro","country":"HN","coord":{"lon":-87.599998,"lat":14.4}},{"_id":3601080,"name":"Tacamiche","country":"HN","coord":{"lon":-87.916672,"lat":15.45}},{"_id":3601698,"name":"Santa Anita","country":"HN","coord":{"lon":-88.183327,"lat":14.28333}},{"_id":3607135,"name":"La Presa","country":"HN","coord":{"lon":-86.849998,"lat":15.75}},{"_id":3612750,"name":"El Aguacate","country":"HN","coord":{"lon":-85.849998,"lat":14.91667}},{"_id":3600949,"name":"Tegucigalpa","country":"HN","coord":{"lon":-87.20681,"lat":14.0818}},{"_id":3600057,"name":"Zopilotepe","country":"HN","coord":{"lon":-86.26667,"lat":14.6}},{"_id":3600134,"name":"Zamora","country":"HN","coord":{"lon":-86.066673,"lat":15.63333}},{"_id":3600139,"name":"Zambrano","country":"HN","coord":{"lon":-87.400002,"lat":14.26667}},{"_id":3600165,"name":"Yuscaran","country":"HN","coord":{"lon":-86.849998,"lat":13.93333}},{"_id":3600199,"name":"Yorito","country":"HN","coord":{"lon":-87.283333,"lat":15.06667}},{"_id":3600232,"name":"Yarumela","country":"HN","coord":{"lon":-87.633331,"lat":14.33333}},{"_id":3600236,"name":"Yaruchel","country":"HN","coord":{"lon":-88.816673,"lat":14.53333}},{"_id":3600271,"name":"Yaguacire","country":"HN","coord":{"lon":-87.216667,"lat":14.01667}},{"_id":3600280,"name":"Wawina","country":"HN","coord":{"lon":-84.433327,"lat":15.41667}},{"_id":3600338,"name":"Villa de San Francisco","country":"HN","coord":{"lon":-86.966667,"lat":14.16667}},{"_id":3600340,"name":"Villa de San Antonio","country":"HN","coord":{"lon":-87.616669,"lat":14.31667}},{"_id":3600357,"name":"Victoria","country":"HN","coord":{"lon":-87.816673,"lat":15.48333}},{"_id":3600382,"name":"Veracruz","country":"HN","coord":{"lon":-88.783333,"lat":14.91667}},{"_id":3600421,"name":"Valle de Angeles","country":"HN","coord":{"lon":-87.633331,"lat":14.5}},{"_id":3600591,"name":"Trujillo","country":"HN","coord":{"lon":-86.0,"lat":15.91667}},{"_id":3600598,"name":"Trojas","country":"HN","coord":{"lon":-86.699997,"lat":15.35}},{"_id":3600605,"name":"Trinidad de Copan","country":"HN","coord":{"lon":-88.75,"lat":14.95}},{"_id":3600608,"name":"Trinidad","country":"HN","coord":{"lon":-88.23333,"lat":15.13333}},{"_id":3600626,"name":"Travesia","country":"HN","coord":{"lon":-87.900002,"lat":15.86667}},{"_id":3600629,"name":"Tras Cerros","country":"HN","coord":{"lon":-88.666672,"lat":15.3}},{"_id":3600642,"name":"Toyos","country":"HN","coord":{"lon":-87.650002,"lat":15.55}},{"_id":3600662,"name":"Tornabe","country":"HN","coord":{"lon":-87.550003,"lat":15.75}},{"_id":3600895,"name":"Tepusteca","country":"HN","coord":{"lon":-86.316673,"lat":15.41667}},{"_id":3600906,"name":"Tepanguare","country":"HN","coord":{"lon":-87.75,"lat":14.33333}},{"_id":3600951,"name":"Teguajinal","country":"HN","coord":{"lon":-86.599998,"lat":15.36667}},{"_id":3600966,"name":"Taulabe","country":"HN","coord":{"lon":-87.966667,"lat":14.7}},{"_id":3600969,"name":"Taujica","country":"HN","coord":{"lon":-85.916672,"lat":15.7}},{"_id":3600997,"name":"Taragual","country":"HN","coord":{"lon":-88.48333,"lat":14.75}},{"_id":3601039,"name":"Tamara","country":"HN","coord":{"lon":-87.333328,"lat":14.15}},{"_id":3601159,"name":"Sulaco","country":"HN","coord":{"lon":-87.26667,"lat":14.91667}},{"_id":3601162,"name":"Sula","country":"HN","coord":{"lon":-88.566673,"lat":15.25}},{"_id":3601179,"name":"Subirana","country":"HN","coord":{"lon":-87.449997,"lat":15.2}},{"_id":3601282,"name":"Sinuapa","country":"HN","coord":{"lon":-89.183327,"lat":14.45}},{"_id":3601302,"name":"Silca","country":"HN","coord":{"lon":-86.533333,"lat":14.83333}},{"_id":3601367,"name":"Sensenti","country":"HN","coord":{"lon":-88.933327,"lat":14.48333}},{"_id":3601402,"name":"Savannah Bight","country":"HN","coord":{"lon":-85.849998,"lat":16.450001}},{"_id":3601436,"name":"San Vicente Centenario","country":"HN","coord":{"lon":-88.283333,"lat":14.88333}},{"_id":3601462,"name":"Santiago Puringla","country":"HN","coord":{"lon":-87.900002,"lat":14.35}},{"_id":3601496,"name":"Santa Rosa de Aguan","country":"HN","coord":{"lon":-85.716667,"lat":15.95}},{"_id":3601517,"name":"Santa Rita","country":"HN","coord":{"lon":-87.283333,"lat":15.16667}},{"_id":3601518,"name":"Santa Rita","country":"HN","coord":{"lon":-88.216667,"lat":14.91667}},{"_id":3601519,"name":"Santa Rita","country":"HN","coord":{"lon":-89.099998,"lat":14.86667}},{"_id":3601543,"name":"Santa Maria del Real","country":"HN","coord":{"lon":-85.949997,"lat":14.76667}},{"_id":3601563,"name":"Santa Lucia","country":"HN","coord":{"lon":-89.199997,"lat":14.41667}},{"_id":3601566,"name":"Santa Lucia","country":"HN","coord":{"lon":-87.116669,"lat":14.1}},{"_id":3601608,"name":"Santa Elena","country":"HN","coord":{"lon":-88.133331,"lat":15.38333}},{"_id":3601664,"name":"Santa Cruz","country":"HN","coord":{"lon":-86.633331,"lat":13.86667}},{"_id":3601672,"name":"Santa Cruz","country":"HN","coord":{"lon":-87.348328,"lat":13.25806}},{"_id":3601702,"name":"Santa Ana de Yusguare","country":"HN","coord":{"lon":-87.113892,"lat":13.30056}},{"_id":3601707,"name":"Santa Ana","country":"HN","coord":{"lon":-87.066673,"lat":15.65}},{"_id":3601719,"name":"Santa Ana","country":"HN","coord":{"lon":-87.271393,"lat":13.93167}},{"_id":3601733,"name":"San Sebastian","country":"HN","coord":{"lon":-87.633331,"lat":14.25}},{"_id":3601780,"name":"San Pedro Zacapa","country":"HN","coord":{"lon":-88.116669,"lat":14.75}},{"_id":3601784,"name":"San Pedro de Tutule","country":"HN","coord":{"lon":-87.849998,"lat":14.25}},{"_id":3601833,"name":"San Nicolas","country":"HN","coord":{"lon":-88.75,"lat":15.0}},{"_id":3601834,"name":"San Nicolas","country":"HN","coord":{"lon":-88.316673,"lat":14.93333}},{"_id":3601836,"name":"San Nicolas","country":"HN","coord":{"lon":-86.25,"lat":14.55}},{"_id":3601874,"name":"San Matias","country":"HN","coord":{"lon":-86.633331,"lat":13.98333}},{"_id":3601888,"name":"San Marcos de Colon","country":"HN","coord":{"lon":-86.800003,"lat":13.43333}},{"_id":3601899,"name":"San Marcos","country":"HN","coord":{"lon":-88.416672,"lat":15.3}},{"_id":3601921,"name":"San Manuel","country":"HN","coord":{"lon":-87.916672,"lat":15.33333}},{"_id":3601925,"name":"San Luis de Planes","country":"HN","coord":{"lon":-88.133331,"lat":14.98333}},{"_id":3601932,"name":"San Luis","country":"HN","coord":{"lon":-88.383331,"lat":15.08333}},{"_id":3601936,"name":"San Luis","country":"HN","coord":{"lon":-87.416672,"lat":14.75}},{"_id":3601951,"name":"San Lucas","country":"HN","coord":{"lon":-86.949997,"lat":13.73333}},{"_id":3601984,"name":"San Juan Pueblo","country":"HN","coord":{"lon":-87.23333,"lat":15.58333}},{"_id":3601992,"name":"San Juan de Planes","country":"HN","coord":{"lon":-88.783333,"lat":14.93333}},{"_id":3601993,"name":"San Juan de Opoa","country":"HN","coord":{"lon":-88.699997,"lat":14.78333}},{"_id":3602065,"name":"San Jose de Tarros","country":"HN","coord":{"lon":-88.699997,"lat":15.3}},{"_id":3602066,"name":"San Jose de Rio Tinto","country":"HN","coord":{"lon":-85.699997,"lat":14.93333}},{"_id":3602070,"name":"San Jose del Potrero","country":"HN","coord":{"lon":-87.283333,"lat":14.83333}},{"_id":3602077,"name":"San Jose del Boqueron","country":"HN","coord":{"lon":-87.866669,"lat":15.48333}},{"_id":3602092,"name":"San Jose de Copan","country":"HN","coord":{"lon":-88.716667,"lat":14.9}},{"_id":3602094,"name":"San Jose de Comayagua","country":"HN","coord":{"lon":-88.033333,"lat":14.73333}},{"_id":3602118,"name":"San Jose","country":"HN","coord":{"lon":-87.166672,"lat":15.31667}},{"_id":3602137,"name":"San Jose","country":"HN","coord":{"lon":-87.949997,"lat":14.25}},{"_id":3602169,"name":"San Joaquin","country":"HN","coord":{"lon":-88.900002,"lat":15.05}},{"_id":3602184,"name":"San Jeronimo","country":"HN","coord":{"lon":-88.866669,"lat":14.96667}},{"_id":3602190,"name":"San Jeronimo","country":"HN","coord":{"lon":-87.599998,"lat":14.63333}},{"_id":3602205,"name":"San Jeronimo","country":"HN","coord":{"lon":-87.136391,"lat":13.17667}},{"_id":3602257,"name":"San Ignacio","country":"HN","coord":{"lon":-87.033333,"lat":14.65}},{"_id":3602272,"name":"San Francisco de Yojoa","country":"HN","coord":{"lon":-87.966667,"lat":15.01667}},{"_id":3602277,"name":"San Francisco del Valle","country":"HN","coord":{"lon":-88.949997,"lat":14.43333}},{"_id":3602281,"name":"San Francisco de la Paz","country":"HN","coord":{"lon":-86.199997,"lat":14.9}},{"_id":3602284,"name":"San Francisco de Coray","country":"HN","coord":{"lon":-87.532784,"lat":13.66139}},{"_id":3602286,"name":"San Francisco de Cones","country":"HN","coord":{"lon":-88.900002,"lat":14.51667}},{"_id":3602287,"name":"San Francisco de Becerra","country":"HN","coord":{"lon":-86.099998,"lat":14.63333}},{"_id":3602301,"name":"San Francisco","country":"HN","coord":{"lon":-87.050003,"lat":15.65}},{"_id":3602337,"name":"San Fernando","country":"HN","coord":{"lon":-89.116669,"lat":14.68333}},{"_id":3602355,"name":"San Esteban","country":"HN","coord":{"lon":-85.75,"lat":15.2}},{"_id":3602359,"name":"Sandy Bay","country":"HN","coord":{"lon":-86.564461,"lat":16.329229}},{"_id":3602368,"name":"San Diego","country":"HN","coord":{"lon":-86.466667,"lat":14.05}},{"_id":3602396,"name":"San Buenaventura","country":"HN","coord":{"lon":-88.0,"lat":15.01667}},{"_id":3602428,"name":"San Antonio del Norte","country":"HN","coord":{"lon":-87.703056,"lat":13.88444}},{"_id":3602436,"name":"San Antonio de la Cuesta","country":"HN","coord":{"lon":-87.599998,"lat":14.63333}},{"_id":3602473,"name":"San Antonio","country":"HN","coord":{"lon":-87.150002,"lat":15.6}},{"_id":3602474,"name":"San Antonio","country":"HN","coord":{"lon":-87.150002,"lat":15.33333}},{"_id":3602546,"name":"San Agustin","country":"HN","coord":{"lon":-88.933327,"lat":14.81667}},{"_id":3602561,"name":"Sambo Creek","country":"HN","coord":{"lon":-86.683327,"lat":15.81667}},{"_id":3602602,"name":"Salama","country":"HN","coord":{"lon":-85.966667,"lat":15.75}},{"_id":3602603,"name":"Salama","country":"HN","coord":{"lon":-86.583328,"lat":14.83333}},{"_id":3602680,"name":"Sabanagrande","country":"HN","coord":{"lon":-87.259171,"lat":13.80778}},{"_id":3602736,"name":"Roatan","country":"HN","coord":{"lon":-86.53656,"lat":16.324369}},{"_id":3602769,"name":"Rio Esteban","country":"HN","coord":{"lon":-86.300003,"lat":15.83333}},{"_id":3602777,"name":"Rio Chiquito","country":"HN","coord":{"lon":-88.25,"lat":15.63333}},{"_id":3602785,"name":"Rio Bonito","country":"HN","coord":{"lon":-87.883331,"lat":14.76667}},{"_id":3602786,"name":"Rio Blanquito","country":"HN","coord":{"lon":-87.900002,"lat":15.73333}},{"_id":3602823,"name":"Rio Abajo","country":"HN","coord":{"lon":-87.216667,"lat":14.16667}},{"_id":3602852,"name":"Reitoca","country":"HN","coord":{"lon":-87.465279,"lat":13.82583}},{"_id":3602984,"name":"Quezailica","country":"HN","coord":{"lon":-88.73333,"lat":14.88333}},{"_id":3603028,"name":"Quebrada Seca","country":"HN","coord":{"lon":-87.949997,"lat":15.66667}},{"_id":3603035,"name":"Quebradas","country":"HN","coord":{"lon":-87.349998,"lat":14.5}},{"_id":3603041,"name":"Quebrada Larga","country":"HN","coord":{"lon":-86.366669,"lat":14.1}},{"_id":3603097,"name":"Quebrada de Arena","country":"HN","coord":{"lon":-85.916672,"lat":15.76667}},{"_id":3603130,"name":"Punuare","country":"HN","coord":{"lon":-85.966667,"lat":14.73333}},{"_id":3603136,"name":"Punta Piedra","country":"HN","coord":{"lon":-85.283333,"lat":15.9}},{"_id":3603137,"name":"Punta Ocote","country":"HN","coord":{"lon":-87.283333,"lat":15.2}},{"_id":3603167,"name":"Puerto Castilla","country":"HN","coord":{"lon":-85.966667,"lat":16.01667}},{"_id":3603169,"name":"Puerto Alto","country":"HN","coord":{"lon":-87.866669,"lat":15.7}},{"_id":3603221,"name":"Pueblo Nuevo","country":"HN","coord":{"lon":-88.01667,"lat":15.28333}},{"_id":3603224,"name":"Pueblo Nuevo","country":"HN","coord":{"lon":-88.75,"lat":15.0}},{"_id":3603256,"name":"Proteccion","country":"HN","coord":{"lon":-88.650002,"lat":15.03333}},{"_id":3603267,"name":"Prieta","country":"HN","coord":{"lon":-86.183327,"lat":15.58333}},{"_id":3603326,"name":"Potrerillos","country":"HN","coord":{"lon":-88.300003,"lat":15.63333}},{"_id":3603343,"name":"Potrerillos","country":"HN","coord":{"lon":-87.866669,"lat":14.55}},{"_id":3603627,"name":"Pinalejo","country":"HN","coord":{"lon":-88.400002,"lat":15.38333}},{"_id":3603649,"name":"Pimienta Vieja","country":"HN","coord":{"lon":-87.966667,"lat":15.23333}},{"_id":3603805,"name":"Pespire","country":"HN","coord":{"lon":-87.361671,"lat":13.59222}},{"_id":3603920,"name":"Paujiles","country":"HN","coord":{"lon":-87.349998,"lat":15.1}},{"_id":3603998,"name":"Paptalaya","country":"HN","coord":{"lon":-84.316673,"lat":15.5}},{"_id":3604181,"name":"Oropoli","country":"HN","coord":{"lon":-86.816673,"lat":13.81667}},{"_id":3604184,"name":"Oropendolas","country":"HN","coord":{"lon":-87.933327,"lat":15.01667}},{"_id":3604189,"name":"Orocuina","country":"HN","coord":{"lon":-87.105003,"lat":13.48167}},{"_id":3604203,"name":"Orica","country":"HN","coord":{"lon":-86.949997,"lat":14.7}},{"_id":3604263,"name":"Ojos de Agua","country":"HN","coord":{"lon":-88.816673,"lat":14.7}},{"_id":3604265,"name":"Ojos de Agua","country":"HN","coord":{"lon":-87.933327,"lat":14.6}},{"_id":3604270,"name":"Ojojona","country":"HN","coord":{"lon":-87.29583,"lat":13.93389}},{"_id":3604292,"name":"Ojo de Agua","country":"HN","coord":{"lon":-86.349998,"lat":14.01667}},{"_id":3604320,"name":"Ocote Paulino","country":"HN","coord":{"lon":-87.599998,"lat":15.41667}},{"_id":3604375,"name":"Nuevo Chamelecon","country":"HN","coord":{"lon":-88.01667,"lat":15.38333}},{"_id":3604386,"name":"Nueva Jalapa","country":"HN","coord":{"lon":-88.333328,"lat":14.91667}},{"_id":3604389,"name":"Nueva Esperanza","country":"HN","coord":{"lon":-87.599998,"lat":15.26667}},{"_id":3604395,"name":"Nueva Armenia","country":"HN","coord":{"lon":-86.498451,"lat":15.79556}},{"_id":3604414,"name":"Nombre de Jesus","country":"HN","coord":{"lon":-86.683327,"lat":15.35}},{"_id":3604478,"name":"Naranjito","country":"HN","coord":{"lon":-88.683327,"lat":14.95}},{"_id":3604503,"name":"Namasigue","country":"HN","coord":{"lon":-87.138893,"lat":13.20472}},{"_id":3604518,"name":"Naco","country":"HN","coord":{"lon":-88.183327,"lat":15.38333}},{"_id":3604522,"name":"Nacaome","country":"HN","coord":{"lon":-87.487503,"lat":13.53611}},{"_id":3604614,"name":"Monterrey","country":"HN","coord":{"lon":-87.883331,"lat":15.58333}},{"_id":3604686,"name":"Monjaras","country":"HN","coord":{"lon":-87.374168,"lat":13.20056}},{"_id":3604712,"name":"Mojiman","country":"HN","coord":{"lon":-87.599998,"lat":15.26667}},{"_id":3604795,"name":"Minas de Oro","country":"HN","coord":{"lon":-87.349998,"lat":14.8}},{"_id":3604835,"name":"Mezapa","country":"HN","coord":{"lon":-87.650002,"lat":15.58333}},{"_id":3604911,"name":"Mateo","country":"HN","coord":{"lon":-87.316673,"lat":14.08333}},{"_id":3604949,"name":"Mata de Platano","country":"HN","coord":{"lon":-87.283333,"lat":14.6}},{"_id":3605000,"name":"Marcovia","country":"HN","coord":{"lon":-87.309723,"lat":13.28806}},{"_id":3605005,"name":"Marcala","country":"HN","coord":{"lon":-88.033333,"lat":14.15}},{"_id":3605018,"name":"Marale","country":"HN","coord":{"lon":-87.150002,"lat":14.88333}},{"_id":3605042,"name":"Manto","country":"HN","coord":{"lon":-86.383331,"lat":14.91667}},{"_id":3605053,"name":"Mangulile","country":"HN","coord":{"lon":-86.800003,"lat":15.06667}},{"_id":3605222,"name":"Lucerna","country":"HN","coord":{"lon":-88.933327,"lat":14.55}},{"_id":3605258,"name":"Los Tangos","country":"HN","coord":{"lon":-88.683327,"lat":15.15}},{"_id":3605382,"name":"Los Planes","country":"HN","coord":{"lon":-88.01667,"lat":14.05}},{"_id":3605436,"name":"Los Naranjos","country":"HN","coord":{"lon":-88.050003,"lat":14.9}},{"_id":3605491,"name":"Los Llanitos","country":"HN","coord":{"lon":-87.334442,"lat":13.28694}},{"_id":3605729,"name":"Los Caminos","country":"HN","coord":{"lon":-87.966667,"lat":14.95}},{"_id":3605837,"name":"Lomitas","country":"HN","coord":{"lon":-87.216667,"lat":15.1}},{"_id":3605873,"name":"Loma Alta","country":"HN","coord":{"lon":-88.559723,"lat":15.39667}},{"_id":3605950,"name":"Liure","country":"HN","coord":{"lon":-87.091942,"lat":13.53583}},{"_id":3606069,"name":"Lejamani","country":"HN","coord":{"lon":-87.699997,"lat":14.36667}},{"_id":3606075,"name":"La Zumbadora","country":"HN","coord":{"lon":-88.900002,"lat":15.01667}},{"_id":3606159,"name":"La Union","country":"HN","coord":{"lon":-87.0,"lat":15.71667}},{"_id":3606171,"name":"La Union","country":"HN","coord":{"lon":-88.400002,"lat":14.81667}},{"_id":3606185,"name":"La Trinidad","country":"HN","coord":{"lon":-87.199997,"lat":15.1}},{"_id":3606250,"name":"Las Vegas","country":"HN","coord":{"lon":-87.449997,"lat":15.01667}},{"_id":3606251,"name":"Las Vegas","country":"HN","coord":{"lon":-88.066673,"lat":14.86667}},{"_id":3606292,"name":"Las Trojes","country":"HN","coord":{"lon":-85.98333,"lat":14.06667}},{"_id":3606319,"name":"Las Tejeras","country":"HN","coord":{"lon":-88.599998,"lat":14.8}},{"_id":3606669,"name":"Las Lajas","country":"HN","coord":{"lon":-87.75,"lat":14.78333}},{"_id":3606901,"name":"San Jose de Las Conchas","country":"HN","coord":{"lon":-87.395561,"lat":13.32528}},{"_id":3607003,"name":"La Sarrosa","country":"HN","coord":{"lon":-87.833328,"lat":15.23333}},{"_id":3607030,"name":"Las Animas","country":"HN","coord":{"lon":-86.566673,"lat":14.25}},{"_id":3607042,"name":"La Sabana","country":"HN","coord":{"lon":-87.933327,"lat":15.36667}},{"_id":3607053,"name":"La Rosa","country":"HN","coord":{"lon":-87.066673,"lat":15.35}},{"_id":3607146,"name":"La Playona","country":"HN","coord":{"lon":-88.98333,"lat":15.11667}},{"_id":3607294,"name":"Langue","country":"HN","coord":{"lon":-87.652496,"lat":13.62083}},{"_id":3607381,"name":"La Mina","country":"HN","coord":{"lon":-87.833328,"lat":15.31667}},{"_id":3607538,"name":"La Libertad","country":"HN","coord":{"lon":-88.583328,"lat":14.8}},{"_id":3607540,"name":"La Libertad","country":"HN","coord":{"lon":-87.616669,"lat":14.75}},{"_id":3607644,"name":"La Labor","country":"HN","coord":{"lon":-89.0,"lat":14.48333}},{"_id":3607647,"name":"La Jutosa","country":"HN","coord":{"lon":-88.0,"lat":15.63333}},{"_id":3607731,"name":"La Huesa","country":"HN","coord":{"lon":-87.883331,"lat":15.58333}},{"_id":3607797,"name":"Laguna Verde","country":"HN","coord":{"lon":-88.166672,"lat":15.2}},{"_id":3607802,"name":"Laguna Seca","country":"HN","coord":{"lon":-86.099998,"lat":14.7}},{"_id":3607830,"name":"La Guata","country":"HN","coord":{"lon":-86.383331,"lat":15.08333}},{"_id":3607838,"name":"La Guama","country":"HN","coord":{"lon":-87.933327,"lat":14.88333}},{"_id":3607847,"name":"La Guacamaya","country":"HN","coord":{"lon":-87.800003,"lat":15.25}},{"_id":3607919,"name":"La Flecha","country":"HN","coord":{"lon":-88.48333,"lat":15.28333}},{"_id":3607930,"name":"La Estancia","country":"HN","coord":{"lon":-87.550003,"lat":15.28333}},{"_id":3607931,"name":"La Estancia","country":"HN","coord":{"lon":-86.349998,"lat":15.05}},{"_id":3607948,"name":"La Esperanza","country":"HN","coord":{"lon":-85.76667,"lat":15.63333}},{"_id":3607983,"name":"La Ermita","country":"HN","coord":{"lon":-87.066673,"lat":14.46667}},{"_id":3607992,"name":"La Encarnacion","country":"HN","coord":{"lon":-89.083328,"lat":14.66667}},{"_id":3608112,"name":"La Criba","country":"HN","coord":{"lon":-87.41333,"lat":13.45361}},{"_id":3608142,"name":"La Concepcion","country":"HN","coord":{"lon":-86.23333,"lat":14.7}},{"_id":3608377,"name":"La Brea","country":"HN","coord":{"lon":-85.966667,"lat":15.8}},{"_id":3608500,"name":"Jutiquile","country":"HN","coord":{"lon":-86.083328,"lat":14.71667}},{"_id":3608514,"name":"Jutiapa","country":"HN","coord":{"lon":-86.51667,"lat":15.76667}},{"_id":3608522,"name":"Jutiapa","country":"HN","coord":{"lon":-86.400002,"lat":13.98333}},{"_id":3608631,"name":"Joconal","country":"HN","coord":{"lon":-88.635559,"lat":15.35444}},{"_id":3608635,"name":"Jocon","country":"HN","coord":{"lon":-86.966667,"lat":15.28333}},{"_id":3608656,"name":"Jiquinlaca","country":"HN","coord":{"lon":-88.349998,"lat":14.0}},{"_id":3608692,"name":"Jicaro Galan","country":"HN","coord":{"lon":-87.438889,"lat":13.53167}},{"_id":3608715,"name":"Jesus de Otoro","country":"HN","coord":{"lon":-87.98333,"lat":14.48333}},{"_id":3608718,"name":"Jerico","country":"HN","coord":{"lon":-85.966667,"lat":15.95}},{"_id":3608743,"name":"Jamalteca","country":"HN","coord":{"lon":-87.583328,"lat":14.7}},{"_id":3608798,"name":"Jacaleapa","country":"HN","coord":{"lon":-86.666672,"lat":14.01667}},{"_id":3608828,"name":"Iralaya","country":"HN","coord":{"lon":-83.23333,"lat":15.0}},{"_id":3608834,"name":"Intibuca","country":"HN","coord":{"lon":-88.166672,"lat":14.31667}},{"_id":3608860,"name":"Ilama","country":"HN","coord":{"lon":-88.216667,"lat":15.06667}},{"_id":3609112,"name":"Guinope","country":"HN","coord":{"lon":-86.933327,"lat":13.88333}},{"_id":3609152,"name":"Guayape","country":"HN","coord":{"lon":-86.833328,"lat":14.71667}},{"_id":3609231,"name":"Guarizama","country":"HN","coord":{"lon":-86.333328,"lat":14.91667}},{"_id":3609293,"name":"Guanaja","country":"HN","coord":{"lon":-85.900002,"lat":16.4}},{"_id":3609342,"name":"Gualjoco","country":"HN","coord":{"lon":-88.23333,"lat":14.95}},{"_id":3609415,"name":"Guaimitas","country":"HN","coord":{"lon":-87.716667,"lat":15.5}},{"_id":3609418,"name":"Guaimaca","country":"HN","coord":{"lon":-86.816673,"lat":14.53333}},{"_id":3609453,"name":"Guacamaya","country":"HN","coord":{"lon":-88.150002,"lat":15.01667}},{"_id":3609586,"name":"Gracias","country":"HN","coord":{"lon":-88.583328,"lat":14.58333}},{"_id":3609608,"name":"Goascoran","country":"HN","coord":{"lon":-87.616669,"lat":13.58333}},{"_id":3609667,"name":"French Harbor","country":"HN","coord":{"lon":-86.433327,"lat":16.35}},{"_id":3609673,"name":"Francia","country":"HN","coord":{"lon":-85.583328,"lat":15.85}},{"_id":3609681,"name":"Florida","country":"HN","coord":{"lon":-88.833328,"lat":15.03333}},{"_id":3609742,"name":"Esquias","country":"HN","coord":{"lon":-87.366669,"lat":14.73333}},{"_id":3609775,"name":"Erandique","country":"HN","coord":{"lon":-88.466667,"lat":14.23333}},{"_id":3609928,"name":"El Zapotal del Norte","country":"HN","coord":{"lon":-88.050003,"lat":15.51667}},{"_id":3610046,"name":"El Tular","country":"HN","coord":{"lon":-87.515282,"lat":13.46639}},{"_id":3610051,"name":"El Triunfo de la Cruz","country":"HN","coord":{"lon":-87.433327,"lat":15.76667}},{"_id":3610060,"name":"El Triunfo","country":"HN","coord":{"lon":-87.0,"lat":13.11667}},{"_id":3610082,"name":"El Transito","country":"HN","coord":{"lon":-88.916672,"lat":14.38333}},{"_id":3610118,"name":"El Tigre","country":"HN","coord":{"lon":-87.98333,"lat":14.93333}},{"_id":3610139,"name":"El Terrero","country":"HN","coord":{"lon":-87.066673,"lat":14.06667}},{"_id":3610232,"name":"El Tablon","country":"HN","coord":{"lon":-87.166672,"lat":14.03333}},{"_id":3610251,"name":"El Suyatal","country":"HN","coord":{"lon":-87.216667,"lat":14.51667}},{"_id":3610278,"name":"El Socorro","country":"HN","coord":{"lon":-87.916672,"lat":14.63333}},{"_id":3610318,"name":"El Sauce","country":"HN","coord":{"lon":-87.666672,"lat":14.53333}},{"_id":3610365,"name":"El Rusio","country":"HN","coord":{"lon":-86.366669,"lat":14.46667}},{"_id":3610377,"name":"El Rosario","country":"HN","coord":{"lon":-87.76667,"lat":14.8}},{"_id":3610487,"name":"El Rincon","country":"HN","coord":{"lon":-87.933327,"lat":14.58333}},{"_id":3610555,"name":"El Rancho","country":"HN","coord":{"lon":-87.949997,"lat":15.66667}},{"_id":3610558,"name":"El Rancho","country":"HN","coord":{"lon":-87.5,"lat":14.68333}},{"_id":3610610,"name":"El Puente","country":"HN","coord":{"lon":-87.116669,"lat":13.28333}},{"_id":3610675,"name":"El Porvenir","country":"HN","coord":{"lon":-87.933327,"lat":15.83333}},{"_id":3610687,"name":"El Porvenir","country":"HN","coord":{"lon":-87.883331,"lat":14.58333}},{"_id":3610693,"name":"El Porvenir","country":"HN","coord":{"lon":-87.345833,"lat":13.76167}},{"_id":3610789,"name":"El Plan","country":"HN","coord":{"lon":-87.966667,"lat":15.28333}},{"_id":3610813,"name":"El Pino","country":"HN","coord":{"lon":-86.933327,"lat":15.7}},{"_id":3610866,"name":"El Perico","country":"HN","coord":{"lon":-88.099998,"lat":15.08333}},{"_id":3610912,"name":"El Pedernal","country":"HN","coord":{"lon":-87.116669,"lat":14.7}},{"_id":3611040,"name":"El Olivar","country":"HN","coord":{"lon":-87.883331,"lat":15.08333}},{"_id":3611069,"name":"El Ocoton","country":"HN","coord":{"lon":-88.883331,"lat":15.03333}},{"_id":3611088,"name":"El Ocote","country":"HN","coord":{"lon":-86.566673,"lat":15.41667}},{"_id":3611128,"name":"El Obraje","country":"HN","coord":{"lon":-86.433327,"lat":14.0}},{"_id":3611133,"name":"El Obraje","country":"HN","coord":{"lon":-87.130829,"lat":13.15417}},{"_id":3611267,"name":"El Mochito","country":"HN","coord":{"lon":-88.083328,"lat":14.86667}},{"_id":3611270,"name":"El Milagro","country":"HN","coord":{"lon":-87.966667,"lat":15.4}},{"_id":3611319,"name":"El Maranon","country":"HN","coord":{"lon":-88.050003,"lat":15.4}},{"_id":3611352,"name":"El Lolo","country":"HN","coord":{"lon":-87.26667,"lat":14.11667}},{"_id":3611356,"name":"El Llano","country":"HN","coord":{"lon":-87.883331,"lat":15.15}},{"_id":3611481,"name":"El Juncal","country":"HN","coord":{"lon":-86.433327,"lat":15.45}},{"_id":3611572,"name":"Elixir","country":"HN","coord":{"lon":-86.300003,"lat":15.48333}},{"_id":3611699,"name":"El Guayabito","country":"HN","coord":{"lon":-86.033333,"lat":14.83333}},{"_id":3611718,"name":"El Guapinol","country":"HN","coord":{"lon":-87.466667,"lat":13.76667}},{"_id":3611719,"name":"El Guantillo","country":"HN","coord":{"lon":-87.300003,"lat":14.6}},{"_id":3611720,"name":"El Guante","country":"HN","coord":{"lon":-87.099998,"lat":14.55}},{"_id":3611842,"name":"El Escano de Tepale","country":"HN","coord":{"lon":-87.066673,"lat":14.75}},{"_id":3611844,"name":"El Escanito","country":"HN","coord":{"lon":-87.099998,"lat":14.66667}},{"_id":3611933,"name":"El Cubolero","country":"HN","coord":{"lon":-87.666672,"lat":13.46667}},{"_id":3611986,"name":"El Corpus","country":"HN","coord":{"lon":-88.916672,"lat":14.7}},{"_id":3611987,"name":"Corpus","country":"HN","coord":{"lon":-87.034721,"lat":13.28889}},{"_id":3611995,"name":"El Corozal","country":"HN","coord":{"lon":-88.616669,"lat":15.06667}},{"_id":3612064,"name":"El Ciruelo","country":"HN","coord":{"lon":-88.5,"lat":15.3}},{"_id":3612138,"name":"El Chimbo","country":"HN","coord":{"lon":-87.116669,"lat":14.13333}},{"_id":3612160,"name":"El Chichicaste","country":"HN","coord":{"lon":-86.300003,"lat":14.06667}},{"_id":3612581,"name":"El Benque","country":"HN","coord":{"lon":-86.466667,"lat":14.03333}},{"_id":3612640,"name":"El Balsamo","country":"HN","coord":{"lon":-87.466667,"lat":15.06667}},{"_id":3612734,"name":"El Agua Dulcita","country":"HN","coord":{"lon":-87.75,"lat":14.7}},{"_id":3612784,"name":"El Achiotal","country":"HN","coord":{"lon":-88.75,"lat":14.08333}},{"_id":3612801,"name":"Duyure","country":"HN","coord":{"lon":-86.816673,"lat":13.63333}},{"_id":3612810,"name":"Dulce Nombre de Culmi","country":"HN","coord":{"lon":-85.533333,"lat":15.1}},{"_id":3612813,"name":"Dulce Nombre","country":"HN","coord":{"lon":-88.833328,"lat":14.85}},{"_id":3612838,"name":"Dolores","country":"HN","coord":{"lon":-88.833328,"lat":14.86667}},{"_id":3612929,"name":"Cuyamel","country":"HN","coord":{"lon":-88.199997,"lat":15.66667}},{"_id":3612937,"name":"Cuyali","country":"HN","coord":{"lon":-86.550003,"lat":13.88333}},{"_id":3612949,"name":"Cusuna","country":"HN","coord":{"lon":-85.23333,"lat":15.85}},{"_id":3613105,"name":"Coyoles Central","country":"HN","coord":{"lon":-86.666672,"lat":15.4}},{"_id":3613145,"name":"Correderos","country":"HN","coord":{"lon":-88.449997,"lat":15.41667}},{"_id":3613171,"name":"Corquin","country":"HN","coord":{"lon":-88.866669,"lat":14.56667}},{"_id":3613175,"name":"Corozal","country":"HN","coord":{"lon":-86.716667,"lat":15.8}},{"_id":3613189,"name":"Corocito","country":"HN","coord":{"lon":-85.783333,"lat":15.75}},{"_id":3613230,"name":"Copan","country":"HN","coord":{"lon":-89.150002,"lat":14.83333}},{"_id":3613263,"name":"Concordia","country":"HN","coord":{"lon":-86.650002,"lat":14.61667}},{"_id":3613281,"name":"Concepcion del Sur","country":"HN","coord":{"lon":-88.166672,"lat":14.8}},{"_id":3613285,"name":"Concepcion de la Barranca","country":"HN","coord":{"lon":-88.716667,"lat":15.16667}},{"_id":3613286,"name":"Concepcion de Guasistagua","country":"HN","coord":{"lon":-87.650002,"lat":14.6}},{"_id":3613371,"name":"Cololaca","country":"HN","coord":{"lon":-88.883331,"lat":14.3}},{"_id":3613402,"name":"Cofradia","country":"HN","coord":{"lon":-87.183327,"lat":14.21667}},{"_id":3613509,"name":"Chotepe","country":"HN","coord":{"lon":-87.98333,"lat":15.41667}},{"_id":3613547,"name":"Chivana","country":"HN","coord":{"lon":-87.98333,"lat":15.75}},{"_id":3613708,"name":"Chalmeca","country":"HN","coord":{"lon":-88.683327,"lat":15.1}},{"_id":3613847,"name":"Cerro Blanco","country":"HN","coord":{"lon":-87.783333,"lat":14.66667}},{"_id":3613900,"name":"Ceguaca","country":"HN","coord":{"lon":-88.199997,"lat":14.8}},{"_id":3613906,"name":"Cedros","country":"HN","coord":{"lon":-87.116669,"lat":14.6}},{"_id":3614011,"name":"Casa Quemada","country":"HN","coord":{"lon":-88.550003,"lat":15.26667}},{"_id":3614012,"name":"Casa Quemada","country":"HN","coord":{"lon":-88.083328,"lat":15.11667}},{"_id":3614113,"name":"Carbajales","country":"HN","coord":{"lon":-86.349998,"lat":15.51667}},{"_id":3614218,"name":"Cane","country":"HN","coord":{"lon":-87.666672,"lat":14.28333}},{"_id":3614249,"name":"Canaveral","country":"HN","coord":{"lon":-88.01667,"lat":14.98333}},{"_id":3614328,"name":"Camasca","country":"HN","coord":{"lon":-88.383331,"lat":14.0}},{"_id":3614343,"name":"Camalote","country":"HN","coord":{"lon":-88.333328,"lat":15.33333}},{"_id":3614381,"name":"Callejones","country":"HN","coord":{"lon":-88.650002,"lat":15.16667}},{"_id":3614583,"name":"Buenos Aires","country":"HN","coord":{"lon":-88.966667,"lat":15.03333}},{"_id":3614663,"name":"Brus Laguna","country":"HN","coord":{"lon":-84.48333,"lat":15.75}},{"_id":3614705,"name":"Bonito Oriental","country":"HN","coord":{"lon":-85.735588,"lat":15.74765}},{"_id":3614789,"name":"Berlin","country":"HN","coord":{"lon":-88.5,"lat":14.83333}},{"_id":3614797,"name":"Belen Gualcho","country":"HN","coord":{"lon":-88.800003,"lat":14.48333}},{"_id":3614805,"name":"Bejuco","country":"HN","coord":{"lon":-87.933327,"lat":15.13333}},{"_id":3614835,"name":"Barra Patuca","country":"HN","coord":{"lon":-84.283333,"lat":15.8}},{"_id":3614872,"name":"Baracoa","country":"HN","coord":{"lon":-87.849998,"lat":15.76667}},{"_id":3614893,"name":"Balsamo Oriental","country":"HN","coord":{"lon":-86.333328,"lat":15.48333}},{"_id":3614914,"name":"Baja Mar","country":"HN","coord":{"lon":-87.849998,"lat":15.88333}},{"_id":3614970,"name":"Azacualpa","country":"HN","coord":{"lon":-88.551392,"lat":15.34333}},{"_id":3614997,"name":"Ayapa","country":"HN","coord":{"lon":-87.150002,"lat":15.1}},{"_id":3615011,"name":"Auka","country":"HN","coord":{"lon":-83.833328,"lat":14.93333}},{"_id":3615022,"name":"Auas","country":"HN","coord":{"lon":-84.333328,"lat":15.48333}},{"_id":3615030,"name":"Atenas de San Cristobal","country":"HN","coord":{"lon":-87.316673,"lat":15.68333}},{"_id":3615065,"name":"Armenta","country":"HN","coord":{"lon":-88.050003,"lat":15.5}},{"_id":3615067,"name":"Armenia","country":"HN","coord":{"lon":-86.366669,"lat":15.46667}},{"_id":3615069,"name":"Arizona","country":"HN","coord":{"lon":-87.316673,"lat":15.63333}},{"_id":3615070,"name":"Arimis","country":"HN","coord":{"lon":-86.0,"lat":14.78333}},{"_id":3615090,"name":"Arenal","country":"HN","coord":{"lon":-86.833328,"lat":15.35}},{"_id":3615108,"name":"Arauli","country":"HN","coord":{"lon":-86.550003,"lat":13.95}},{"_id":3615115,"name":"Aramecina","country":"HN","coord":{"lon":-87.710281,"lat":13.74222}},{"_id":3615125,"name":"Arada","country":"HN","coord":{"lon":-88.300003,"lat":14.85}},{"_id":3615169,"name":"Antigua Ocotepeque","country":"HN","coord":{"lon":-89.199997,"lat":14.4}},{"_id":3615213,"name":"Amapala","country":"HN","coord":{"lon":-87.653893,"lat":13.29222}},{"_id":3615279,"name":"Ajuterique","country":"HN","coord":{"lon":-87.699997,"lat":14.38333}},{"_id":3615332,"name":"Aguas del Padre","country":"HN","coord":{"lon":-87.883331,"lat":14.56667}},{"_id":3615358,"name":"Agualote","country":"HN","coord":{"lon":-88.553062,"lat":15.33528}},{"_id":3615391,"name":"Agua Fria","country":"HN","coord":{"lon":-87.551109,"lat":13.46889}},{"_id":3615473,"name":"Agua Caliente","country":"HN","coord":{"lon":-88.816673,"lat":14.88333}},{"_id":3615509,"name":"Agua Blanca Sur","country":"HN","coord":{"lon":-87.883331,"lat":15.25}},{"_id":3615556,"name":"Agua Azul Rancho","country":"HN","coord":{"lon":-87.949997,"lat":14.9}},{"_id":3615557,"name":"Agua Azul","country":"HN","coord":{"lon":-87.966667,"lat":14.91667}},{"_id":3615582,"name":"Agalteca","country":"HN","coord":{"lon":-87.26667,"lat":14.45}},{"_id":3812188,"name":"Texiguat","country":"HN","coord":{"lon":-87.022499,"lat":13.64972}}]}
