{"countryCityList":[{"_id":3600456,"coord":{"lat":13.58333,"lon":-87.583328},"country":"HN","name":"Departamento de Valle"},{"_id":3609672,"coord":{"lat":14.25,"lon":-87.166672},"country":"HN","name":"Departmento de Francisco Morazán"},{"_id":3600328,"coord":{"lat":14.03333,"lon":-87.133331},"country":"HN","name":"Villa Nueva"},{"_id":3613358,"coord":{"lat":15.75,"lon":-85.666672},"country":"HN","name":"Departamento de Colón"},{"_id":3614736,"coord":{"lat":15.5,"lon":-85.550003},"country":"HN","name":"Boca de Hule"},{"_id":3608248,"coord":{"lat":15.75971,"lon":-86.782211},"country":"HN","name":"La Ceiba"},{"_id":3613527,"coord":{"lat":13.33333,"lon":-87.083328},"country":"HN","name":"Departamento de Choluteca"},{"_id":3611068,"coord":{"lat":13.16528,"lon":-87.388893},"country":"HN","name":"El Ojochal"},{"_id":3811264,"coord":{"lat":13.18722,"lon":-87.08889},"country":"HN","name":"Quemamacho"},{"_id":3600327,"coord":{"lat":15.31667,"lon":-88},"country":"HN","name":"Villanueva"},{"_id":3600931,"coord":{"lat":15.78333,"lon":-87.449997},"country":"HN","name":"Tela"},{"_id":3601494,"coord":{"lat":14.76667,"lon":-88.783333},"country":"HN","name":"Santa Rosa de Copan"},{"_id":3601691,"coord":{"lat":14.91667,"lon":-88.23333},"country":"HN","name":"Santa Barbara"},{"_id":3601782,"coord":{"lat":15.5,"lon":-88.033333},"country":"HN","name":"San Pedro Sula"},{"_id":3601977,"coord":{"lat":13.42417,"lon":-87.44722},"country":"HN","name":"San Lorenzo"},{"_id":3603330,"coord":{"lat":15.23333,"lon":-87.966667},"country":"HN","name":"Potrerillos"},{"_id":3604251,"coord":{"lat":15.5,"lon":-86.566673},"country":"HN","name":"Olanchito"},{"_id":3607251,"coord":{"lat":14.08333,"lon":-87.916672},"country":"HN","name":"Departmento de La Paz"},{"_id":3607254,"coord":{"lat":14.31667,"lon":-87.683327},"country":"HN","name":"La Paz"},{"_id":3607511,"coord":{"lat":15.43333,"lon":-87.916672},"country":"HN","name":"La Lima"},{"_id":3608503,"coord":{"lat":14.65,"lon":-86.199997},"country":"HN","name":"Juticalpa"},{"_id":3610613,"coord":{"lat":15.4,"lon":-87.800003},"country":"HN","name":"El Progreso"},{"_id":3610965,"coord":{"lat":13.86667,"lon":-86.550003},"country":"HN","name":"El Paraiso"},{"_id":3613533,"coord":{"lat":15.61444,"lon":-87.953018},"country":"HN","name":"Choloma"},{"_id":3608932,"coord":{"lat":15,"lon":-86.5},"country":"HN","name":"Republic of Honduras"},{"_id":3600026,"coord":{"lat":15.83333,"lon":-87.949997},"country":"HN","name":"Puerto Cortez"},{"_id":3600193,"coord":{"lat":15.25,"lon":-87.166672},"country":"HN","name":"Departamento de Yoro"},{"_id":3604584,"coord":{"lat":15.31667,"lon":-87.599998},"country":"HN","name":"Morazan"},{"_id":3613314,"coord":{"lat":14.08333,"lon":-87.216667},"country":"HN","name":"Comayagüela"},{"_id":3613140,"coord":{"lat":15.41667,"lon":-88},"country":"HN","name":"Departamento de Cortés"},{"_id":3602790,"coord":{"lat":15.5,"lon":-88.033333},"country":"HN","name":"Río Blanco"},{"_id":3600195,"coord":{"lat":15.13333,"lon":-87.133331},"country":"HN","name":"Yoro"},{"_id":3613805,"coord":{"lat":13.81667,"lon":-87.25},"country":"HN","name":"Cerro Grande"},{"_id":3604303,"coord":{"lat":15.61667,"lon":-87.949997},"country":"HN","name":"Ocotillo Occidental"},{"_id":3610942,"coord":{"lat":14.08333,"lon":-86.5},"country":"HN","name":"Departamento de El Paraíso"},{"_id":3600841,"coord":{"lat":14.21667,"lon":-86.699997},"country":"HN","name":"Teupasenti"},{"_id":3613528,"coord":{"lat":13.30028,"lon":-87.190826},"country":"HN","name":"Ciudad Choluteca"},{"_id":3600422,"coord":{"lat":14.15,"lon":-87.033333},"country":"HN","name":"Valle de Angeles"},{"_id":3611008,"coord":{"lat":14.1,"lon":-87.116669},"country":"HN","name":"El País"},{"_id":3604579,"coord":{"lat":14.11667,"lon":-86.866669},"country":"HN","name":"Moroceli"},{"_id":3613319,"coord":{"lat":14.58333,"lon":-87.666672},"country":"HN","name":"Departamento de Comayagua"},{"_id":3613321,"coord":{"lat":14.45,"lon":-87.633331},"country":"HN","name":"Comayagua"},{"_id":3609690,"coord":{"lat":14.28333,"lon":-87.566673},"country":"HN","name":"Flores"},{"_id":3613229,"coord":{"lat":14.91667,"lon":-88.916672},"country":"HN","name":"Departamento de Copán"},{"_id":3607986,"coord":{"lat":15.05,"lon":-88.73333},"country":"HN","name":"La Entrada"},{"_id":3601072,"coord":{"lat":14.4,"lon":-87.083328},"country":"HN","name":"Talanga"},{"_id":3604249,"coord":{"lat":14.83333,"lon":-86},"country":"HN","name":"Departamento de Olancho"},{"_id":3613974,"coord":{"lat":14.8,"lon":-85.900002},"country":"HN","name":"Catacamas"},{"_id":3612907,"coord":{"lat":14.03333,"lon":-86.583328},"country":"HN","name":"Danli"},{"_id":3601311,"coord":{"lat":14.6,"lon":-87.833328},"country":"HN","name":"Siguatepeque"},{"_id":3615027,"coord":{"lat":15.66667,"lon":-87},"country":"HN","name":"Departamento de Atlántida"},{"_id":3610676,"coord":{"lat":15.75,"lon":-86.933327},"country":"HN","name":"El Porvenir"},{"_id":3600704,"coord":{"lat":15.68333,"lon":-86},"country":"HN","name":"Tocoa"},{"_id":3607723,"coord":{"lat":14.76667,"lon":-88.783333},"country":"HN","name":"La Inea"},{"_id":3600450,"coord":{"lat":14.51667,"lon":-87.400002},"country":"HN","name":"Vallecillo"},{"_id":3604229,"coord":{"lat":15.76667,"lon":-88.033333},"country":"HN","name":"Omoa"},{"_id":3613394,"coord":{"lat":15.4,"lon":-88.150002},"country":"HN","name":"Cofradia"},{"_id":3601689,"coord":{"lat":15.08333,"lon":-88.333328},"country":"HN","name":"Departamento de Santa Bárbara"},{"_id":3603799,"coord":{"lat":15.26667,"lon":-88.283333},"country":"HN","name":"Petoa"},{"_id":3606066,"coord":{"lat":14.5,"lon":-88.583328},"country":"HN","name":"Departamento de Lempira"},{"_id":3600800,"coord":{"lat":14.58333,"lon":-88.583328},"country":"HN","name":"Tierra Blanca"},{"_id":3607436,"coord":{"lat":14.2,"lon":-87.616669},"country":"HN","name":"Lamani"},{"_id":3615028,"coord":{"lat":14.93333,"lon":-88.48333},"country":"HN","name":"Atima"},{"_id":3611144,"coord":{"lat":14.76667,"lon":-88.333328},"country":"HN","name":"El Nispero"},{"_id":3613015,"coord":{"lat":14.65,"lon":-88.866669},"country":"HN","name":"Cucuyagua"},{"_id":3602444,"coord":{"lat":15.11667,"lon":-88.033333},"country":"HN","name":"San Antonio de Cortes"},{"_id":3611628,"coord":{"lat":14.65,"lon":-86.199997},"country":"HN","name":"El Higuerito"},{"_id":3601627,"coord":{"lat":14.98333,"lon":-87.900002},"country":"HN","name":"Santa Cruz de Yojoa"},{"_id":3606035,"coord":{"lat":14.06667,"lon":-87.466667},"country":"HN","name":"Lepaterique"},{"_id":3608833,"coord":{"lat":14.33333,"lon":-88.166672},"country":"HN","name":"Departamento de Intibucá"},{"_id":3607966,"coord":{"lat":14.3,"lon":-88.183327},"country":"HN","name":"La Esperanza"},{"_id":3609583,"coord":{"lat":15.25,"lon":-84.333328},"country":"HN","name":"Departamento de Gracias a Dios"},{"_id":3603157,"coord":{"lat":15.26667,"lon":-83.76667},"country":"HN","name":"Puerto Lempira"},{"_id":3607419,"coord":{"lat":15.61667,"lon":-87.116669},"country":"HN","name":"La Masica"},{"_id":3604318,"coord":{"lat":14.5,"lon":-89},"country":"HN","name":"Departamento de Ocotepeque"},{"_id":3604384,"coord":{"lat":14.43333,"lon":-89.183327},"country":"HN","name":"Nueva Ocotepeque"},{"_id":3606097,"coord":{"lat":14.05,"lon":-88.699997},"country":"HN","name":"La Virtud"},{"_id":3601903,"coord":{"lat":14.4,"lon":-88.949997},"country":"HN","name":"San Marcos"},{"_id":3602936,"coord":{"lat":14.48333,"lon":-87.98333},"country":"HN","name":"Quiscamote"},{"_id":3602097,"coord":{"lat":15.03333,"lon":-88.300003},"country":"HN","name":"San Jose de Colinas"},{"_id":3601211,"coord":{"lat":15.63333,"lon":-86.333328},"country":"HN","name":"Sonaguera"},{"_id":3614319,"coord":{"lat":14.55,"lon":-86.650002},"country":"HN","name":"Campamento"},{"_id":3605010,"coord":{"lat":14.53333,"lon":-86.816673},"country":"HN","name":"Maraquito"},{"_id":3601403,"coord":{"lat":15.46667,"lon":-86.25},"country":"HN","name":"Saba"},{"_id":3610331,"coord":{"lat":15.2,"lon":-88.150002},"country":"HN","name":"El Salvador"},{"_id":3611150,"coord":{"lat":15.31667,"lon":-87.699997},"country":"HN","name":"El Negrito"},{"_id":3602952,"coord":{"lat":15.35,"lon":-88.400002},"country":"HN","name":"Quimistan"},{"_id":3602758,"coord":{"lat":15.03333,"lon":-87.98333},"country":"HN","name":"Rio Lindo"},{"_id":3601783,"coord":{"lat":15.5,"lon":-88},"country":"HN","name":"San Pedro Sula"},{"_id":3603856,"coord":{"lat":15.53333,"lon":-88.050003},"country":"HN","name":"Pena Blanca"},{"_id":3601999,"coord":{"lat":14.26667,"lon":-87.033333},"country":"HN","name":"San Juan de Flores"},{"_id":3606048,"coord":{"lat":14.78333,"lon":-88.583328},"country":"HN","name":"Lepaera"},{"_id":3614975,"coord":{"lat":14.71667,"lon":-88.099998},"country":"HN","name":"Azacualpa"},{"_id":3611185,"coord":{"lat":13.43333,"lon":-86.800003},"country":"HN","name":"El Naranjo"},{"_id":3600254,"coord":{"lat":14.28333,"lon":-88.25},"country":"HN","name":"Yamaranguila"},{"_id":3609389,"coord":{"lat":15.05,"lon":-86.050003},"country":"HN","name":"Gualaco"},{"_id":3608198,"coord":{"lat":13.91667,"lon":-88.216667},"country":"HN","name":"La Chorrera"},{"_id":3602036,"coord":{"lat":15.16667,"lon":-87.116669},"country":"HN","name":"San Juan"},{"_id":3608367,"coord":{"lat":14.06667,"lon":-87.216667},"country":"HN","name":"La Burrera"},{"_id":3605859,"coord":{"lat":14.78333,"lon":-88.783333},"country":"HN","name":"Loma Encerrada"},{"_id":3614158,"coord":{"lat":14.4,"lon":-87.599998},"country":"HN","name":"Capiro"},{"_id":3601080,"coord":{"lat":15.45,"lon":-87.916672},"country":"HN","name":"Tacamiche"},{"_id":3601698,"coord":{"lat":14.28333,"lon":-88.183327},"country":"HN","name":"Santa Anita"},{"_id":3607135,"coord":{"lat":15.75,"lon":-86.849998},"country":"HN","name":"La Presa"},{"_id":3612750,"coord":{"lat":14.91667,"lon":-85.849998},"country":"HN","name":"El Aguacate"},{"_id":3600949,"coord":{"lat":14.0818,"lon":-87.20681},"country":"HN","name":"Tegucigalpa"},{"_id":3600057,"coord":{"lat":14.6,"lon":-86.26667},"country":"HN","name":"Zopilotepe"},{"_id":3600134,"coord":{"lat":15.63333,"lon":-86.066673},"country":"HN","name":"Zamora"},{"_id":3600139,"coord":{"lat":14.26667,"lon":-87.400002},"country":"HN","name":"Zambrano"},{"_id":3600165,"coord":{"lat":13.93333,"lon":-86.849998},"country":"HN","name":"Yuscaran"},{"_id":3600199,"coord":{"lat":15.06667,"lon":-87.283333},"country":"HN","name":"Yorito"},{"_id":3600232,"coord":{"lat":14.33333,"lon":-87.633331},"country":"HN","name":"Yarumela"},{"_id":3600236,"coord":{"lat":14.53333,"lon":-88.816673},"country":"HN","name":"Yaruchel"},{"_id":3600271,"coord":{"lat":14.01667,"lon":-87.216667},"country":"HN","name":"Yaguacire"},{"_id":3600280,"coord":{"lat":15.41667,"lon":-84.433327},"country":"HN","name":"Wawina"},{"_id":3600338,"coord":{"lat":14.16667,"lon":-86.966667},"country":"HN","name":"Villa de San Francisco"},{"_id":3600340,"coord":{"lat":14.31667,"lon":-87.616669},"country":"HN","name":"Villa de San Antonio"},{"_id":3600357,"coord":{"lat":15.48333,"lon":-87.816673},"country":"HN","name":"Victoria"},{"_id":3600382,"coord":{"lat":14.91667,"lon":-88.783333},"country":"HN","name":"Veracruz"},{"_id":3600421,"coord":{"lat":14.5,"lon":-87.633331},"country":"HN","name":"Valle de Angeles"},{"_id":3600591,"coord":{"lat":15.91667,"lon":-86},"country":"HN","name":"Trujillo"},{"_id":3600598,"coord":{"lat":15.35,"lon":-86.699997},"country":"HN","name":"Trojas"},{"_id":3600605,"coord":{"lat":14.95,"lon":-88.75},"country":"HN","name":"Trinidad de Copan"},{"_id":3600608,"coord":{"lat":15.13333,"lon":-88.23333},"country":"HN","name":"Trinidad"},{"_id":3600626,"coord":{"lat":15.86667,"lon":-87.900002},"country":"HN","name":"Travesia"},{"_id":3600629,"coord":{"lat":15.3,"lon":-88.666672},"country":"HN","name":"Tras Cerros"},{"_id":3600642,"coord":{"lat":15.55,"lon":-87.650002},"country":"HN","name":"Toyos"},{"_id":3600662,"coord":{"lat":15.75,"lon":-87.550003},"country":"HN","name":"Tornabe"},{"_id":3600895,"coord":{"lat":15.41667,"lon":-86.316673},"country":"HN","name":"Tepusteca"},{"_id":3600906,"coord":{"lat":14.33333,"lon":-87.75},"country":"HN","name":"Tepanguare"},{"_id":3600951,"coord":{"lat":15.36667,"lon":-86.599998},"country":"HN","name":"Teguajinal"},{"_id":3600966,"coord":{"lat":14.7,"lon":-87.966667},"country":"HN","name":"Taulabe"},{"_id":3600969,"coord":{"lat":15.7,"lon":-85.916672},"country":"HN","name":"Taujica"},{"_id":3600997,"coord":{"lat":14.75,"lon":-88.48333},"country":"HN","name":"Taragual"},{"_id":3601039,"coord":{"lat":14.15,"lon":-87.333328},"country":"HN","name":"Tamara"},{"_id":3601159,"coord":{"lat":14.91667,"lon":-87.26667},"country":"HN","name":"Sulaco"},{"_id":3601162,"coord":{"lat":15.25,"lon":-88.566673},"country":"HN","name":"Sula"},{"_id":3601179,"coord":{"lat":15.2,"lon":-87.449997},"country":"HN","name":"Subirana"},{"_id":3601282,"coord":{"lat":14.45,"lon":-89.183327},"country":"HN","name":"Sinuapa"},{"_id":3601302,"coord":{"lat":14.83333,"lon":-86.533333},"country":"HN","name":"Silca"},{"_id":3601367,"coord":{"lat":14.48333,"lon":-88.933327},"country":"HN","name":"Sensenti"},{"_id":3601402,"coord":{"lat":16.450001,"lon":-85.849998},"country":"HN","name":"Savannah Bight"},{"_id":3601436,"coord":{"lat":14.88333,"lon":-88.283333},"country":"HN","name":"San Vicente Centenario"},{"_id":3601462,"coord":{"lat":14.35,"lon":-87.900002},"country":"HN","name":"Santiago Puringla"},{"_id":3601496,"coord":{"lat":15.95,"lon":-85.716667},"country":"HN","name":"Santa Rosa de Aguan"},{"_id":3601517,"coord":{"lat":15.16667,"lon":-87.283333},"country":"HN","name":"Santa Rita"},{"_id":3601518,"coord":{"lat":14.91667,"lon":-88.216667},"country":"HN","name":"Santa Rita"},{"_id":3601519,"coord":{"lat":14.86667,"lon":-89.099998},"country":"HN","name":"Santa Rita"},{"_id":3601543,"coord":{"lat":14.76667,"lon":-85.949997},"country":"HN","name":"Santa Maria del Real"},{"_id":3601563,"coord":{"lat":14.41667,"lon":-89.199997},"country":"HN","name":"Santa Lucia"},{"_id":3601566,"coord":{"lat":14.1,"lon":-87.116669},"country":"HN","name":"Santa Lucia"},{"_id":3601608,"coord":{"lat":15.38333,"lon":-88.133331},"country":"HN","name":"Santa Elena"},{"_id":3601664,"coord":{"lat":13.86667,"lon":-86.633331},"country":"HN","name":"Santa Cruz"},{"_id":3601672,"coord":{"lat":13.25806,"lon":-87.348328},"country":"HN","name":"Santa Cruz"},{"_id":3601702,"coord":{"lat":13.30056,"lon":-87.113892},"country":"HN","name":"Santa Ana de Yusguare"},{"_id":3601707,"coord":{"lat":15.65,"lon":-87.066673},"country":"HN","name":"Santa Ana"},{"_id":3601719,"coord":{"lat":13.93167,"lon":-87.271393},"country":"HN","name":"Santa Ana"},{"_id":3601733,"coord":{"lat":14.25,"lon":-87.633331},"country":"HN","name":"San Sebastian"},{"_id":3601780,"coord":{"lat":14.75,"lon":-88.116669},"country":"HN","name":"San Pedro Zacapa"},{"_id":3601784,"coord":{"lat":14.25,"lon":-87.849998},"country":"HN","name":"San Pedro de Tutule"},{"_id":3601833,"coord":{"lat":15,"lon":-88.75},"country":"HN","name":"San Nicolas"},{"_id":3601834,"coord":{"lat":14.93333,"lon":-88.316673},"country":"HN","name":"San Nicolas"},{"_id":3601836,"coord":{"lat":14.55,"lon":-86.25},"country":"HN","name":"San Nicolas"},{"_id":3601874,"coord":{"lat":13.98333,"lon":-86.633331},"country":"HN","name":"San Matias"},{"_id":3601888,"coord":{"lat":13.43333,"lon":-86.800003},"country":"HN","name":"San Marcos de Colon"},{"_id":3601899,"coord":{"lat":15.3,"lon":-88.416672},"country":"HN","name":"San Marcos"},{"_id":3601921,"coord":{"lat":15.33333,"lon":-87.916672},"country":"HN","name":"San Manuel"},{"_id":3601925,"coord":{"lat":14.98333,"lon":-88.133331},"country":"HN","name":"San Luis de Planes"},{"_id":3601932,"coord":{"lat":15.08333,"lon":-88.383331},"country":"HN","name":"San Luis"},{"_id":3601936,"coord":{"lat":14.75,"lon":-87.416672},"country":"HN","name":"San Luis"},{"_id":3601951,"coord":{"lat":13.73333,"lon":-86.949997},"country":"HN","name":"San Lucas"},{"_id":3601984,"coord":{"lat":15.58333,"lon":-87.23333},"country":"HN","name":"San Juan Pueblo"},{"_id":3601992,"coord":{"lat":14.93333,"lon":-88.783333},"country":"HN","name":"San Juan de Planes"},{"_id":3601993,"coord":{"lat":14.78333,"lon":-88.699997},"country":"HN","name":"San Juan de Opoa"},{"_id":3602065,"coord":{"lat":15.3,"lon":-88.699997},"country":"HN","name":"San Jose de Tarros"},{"_id":3602066,"coord":{"lat":14.93333,"lon":-85.699997},"country":"HN","name":"San Jose de Rio Tinto"},{"_id":3602070,"coord":{"lat":14.83333,"lon":-87.283333},"country":"HN","name":"San Jose del Potrero"},{"_id":3602077,"coord":{"lat":15.48333,"lon":-87.866669},"country":"HN","name":"San Jose del Boqueron"},{"_id":3602092,"coord":{"lat":14.9,"lon":-88.716667},"country":"HN","name":"San Jose de Copan"},{"_id":3602094,"coord":{"lat":14.73333,"lon":-88.033333},"country":"HN","name":"San Jose de Comayagua"},{"_id":3602118,"coord":{"lat":15.31667,"lon":-87.166672},"country":"HN","name":"San Jose"},{"_id":3602137,"coord":{"lat":14.25,"lon":-87.949997},"country":"HN","name":"San Jose"},{"_id":3602169,"coord":{"lat":15.05,"lon":-88.900002},"country":"HN","name":"San Joaquin"},{"_id":3602184,"coord":{"lat":14.96667,"lon":-88.866669},"country":"HN","name":"San Jeronimo"},{"_id":3602190,"coord":{"lat":14.63333,"lon":-87.599998},"country":"HN","name":"San Jeronimo"},{"_id":3602205,"coord":{"lat":13.17667,"lon":-87.136391},"country":"HN","name":"San Jeronimo"},{"_id":3602257,"coord":{"lat":14.65,"lon":-87.033333},"country":"HN","name":"San Ignacio"},{"_id":3602272,"coord":{"lat":15.01667,"lon":-87.966667},"country":"HN","name":"San Francisco de Yojoa"},{"_id":3602277,"coord":{"lat":14.43333,"lon":-88.949997},"country":"HN","name":"San Francisco del Valle"},{"_id":3602281,"coord":{"lat":14.9,"lon":-86.199997},"country":"HN","name":"San Francisco de la Paz"},{"_id":3602284,"coord":{"lat":13.66139,"lon":-87.532784},"country":"HN","name":"San Francisco de Coray"},{"_id":3602286,"coord":{"lat":14.51667,"lon":-88.900002},"country":"HN","name":"San Francisco de Cones"},{"_id":3602287,"coord":{"lat":14.63333,"lon":-86.099998},"country":"HN","name":"San Francisco de Becerra"},{"_id":3602301,"coord":{"lat":15.65,"lon":-87.050003},"country":"HN","name":"San Francisco"},{"_id":3602337,"coord":{"lat":14.68333,"lon":-89.116669},"country":"HN","name":"San Fernando"},{"_id":3602355,"coord":{"lat":15.2,"lon":-85.75},"country":"HN","name":"San Esteban"},{"_id":3602359,"coord":{"lat":16.329229,"lon":-86.564461},"country":"HN","name":"Sandy Bay"},{"_id":3602368,"coord":{"lat":14.05,"lon":-86.466667},"country":"HN","name":"San Diego"},{"_id":3602396,"coord":{"lat":15.01667,"lon":-88},"country":"HN","name":"San Buenaventura"},{"_id":3602428,"coord":{"lat":13.88444,"lon":-87.703056},"country":"HN","name":"San Antonio del Norte"},{"_id":3602436,"coord":{"lat":14.63333,"lon":-87.599998},"country":"HN","name":"San Antonio de la Cuesta"},{"_id":3602473,"coord":{"lat":15.6,"lon":-87.150002},"country":"HN","name":"San Antonio"},{"_id":3602474,"coord":{"lat":15.33333,"lon":-87.150002},"country":"HN","name":"San Antonio"},{"_id":3602546,"coord":{"lat":14.81667,"lon":-88.933327},"country":"HN","name":"San Agustin"},{"_id":3602561,"coord":{"lat":15.81667,"lon":-86.683327},"country":"HN","name":"Sambo Creek"},{"_id":3602602,"coord":{"lat":15.75,"lon":-85.966667},"country":"HN","name":"Salama"},{"_id":3602603,"coord":{"lat":14.83333,"lon":-86.583328},"country":"HN","name":"Salama"},{"_id":3602680,"coord":{"lat":13.80778,"lon":-87.259171},"country":"HN","name":"Sabanagrande"},{"_id":3602736,"coord":{"lat":16.324369,"lon":-86.53656},"country":"HN","name":"Roatan"},{"_id":3602769,"coord":{"lat":15.83333,"lon":-86.300003},"country":"HN","name":"Rio Esteban"},{"_id":3602777,"coord":{"lat":15.63333,"lon":-88.25},"country":"HN","name":"Rio Chiquito"},{"_id":3602785,"coord":{"lat":14.76667,"lon":-87.883331},"country":"HN","name":"Rio Bonito"},{"_id":3602786,"coord":{"lat":15.73333,"lon":-87.900002},"country":"HN","name":"Rio Blanquito"},{"_id":3602823,"coord":{"lat":14.16667,"lon":-87.216667},"country":"HN","name":"Rio Abajo"},{"_id":3602852,"coord":{"lat":13.82583,"lon":-87.465279},"country":"HN","name":"Reitoca"},{"_id":3602984,"coord":{"lat":14.88333,"lon":-88.73333},"country":"HN","name":"Quezailica"},{"_id":3603028,"coord":{"lat":15.66667,"lon":-87.949997},"country":"HN","name":"Quebrada Seca"},{"_id":3603035,"coord":{"lat":14.5,"lon":-87.349998},"country":"HN","name":"Quebradas"},{"_id":3603041,"coord":{"lat":14.1,"lon":-86.366669},"country":"HN","name":"Quebrada Larga"},{"_id":3603097,"coord":{"lat":15.76667,"lon":-85.916672},"country":"HN","name":"Quebrada de Arena"},{"_id":3603130,"coord":{"lat":14.73333,"lon":-85.966667},"country":"HN","name":"Punuare"},{"_id":3603136,"coord":{"lat":15.9,"lon":-85.283333},"country":"HN","name":"Punta Piedra"},{"_id":3603137,"coord":{"lat":15.2,"lon":-87.283333},"country":"HN","name":"Punta Ocote"},{"_id":3603167,"coord":{"lat":16.01667,"lon":-85.966667},"country":"HN","name":"Puerto Castilla"},{"_id":3603169,"coord":{"lat":15.7,"lon":-87.866669},"country":"HN","name":"Puerto Alto"},{"_id":3603221,"coord":{"lat":15.28333,"lon":-88.01667},"country":"HN","name":"Pueblo Nuevo"},{"_id":3603224,"coord":{"lat":15,"lon":-88.75},"country":"HN","name":"Pueblo Nuevo"},{"_id":3603256,"coord":{"lat":15.03333,"lon":-88.650002},"country":"HN","name":"Proteccion"},{"_id":3603267,"coord":{"lat":15.58333,"lon":-86.183327},"country":"HN","name":"Prieta"},{"_id":3603326,"coord":{"lat":15.63333,"lon":-88.300003},"country":"HN","name":"Potrerillos"},{"_id":3603343,"coord":{"lat":14.55,"lon":-87.866669},"country":"HN","name":"Potrerillos"},{"_id":3603627,"coord":{"lat":15.38333,"lon":-88.400002},"country":"HN","name":"Pinalejo"},{"_id":3603649,"coord":{"lat":15.23333,"lon":-87.966667},"country":"HN","name":"Pimienta Vieja"},{"_id":3603805,"coord":{"lat":13.59222,"lon":-87.361671},"country":"HN","name":"Pespire"},{"_id":3603920,"coord":{"lat":15.1,"lon":-87.349998},"country":"HN","name":"Paujiles"},{"_id":3603998,"coord":{"lat":15.5,"lon":-84.316673},"country":"HN","name":"Paptalaya"},{"_id":3604181,"coord":{"lat":13.81667,"lon":-86.816673},"country":"HN","name":"Oropoli"},{"_id":3604184,"coord":{"lat":15.01667,"lon":-87.933327},"country":"HN","name":"Oropendolas"},{"_id":3604189,"coord":{"lat":13.48167,"lon":-87.105003},"country":"HN","name":"Orocuina"},{"_id":3604203,"coord":{"lat":14.7,"lon":-86.949997},"country":"HN","name":"Orica"},{"_id":3604263,"coord":{"lat":14.7,"lon":-88.816673},"country":"HN","name":"Ojos de Agua"},{"_id":3604265,"coord":{"lat":14.6,"lon":-87.933327},"country":"HN","name":"Ojos de Agua"},{"_id":3604270,"coord":{"lat":13.93389,"lon":-87.29583},"country":"HN","name":"Ojojona"},{"_id":3604292,"coord":{"lat":14.01667,"lon":-86.349998},"country":"HN","name":"Ojo de Agua"},{"_id":3604320,"coord":{"lat":15.41667,"lon":-87.599998},"country":"HN","name":"Ocote Paulino"},{"_id":3604375,"coord":{"lat":15.38333,"lon":-88.01667},"country":"HN","name":"Nuevo Chamelecon"},{"_id":3604386,"coord":{"lat":14.91667,"lon":-88.333328},"country":"HN","name":"Nueva Jalapa"},{"_id":3604389,"coord":{"lat":15.26667,"lon":-87.599998},"country":"HN","name":"Nueva Esperanza"},{"_id":3604395,"coord":{"lat":15.79556,"lon":-86.498451},"country":"HN","name":"Nueva Armenia"},{"_id":3604414,"coord":{"lat":15.35,"lon":-86.683327},"country":"HN","name":"Nombre de Jesus"},{"_id":3604478,"coord":{"lat":14.95,"lon":-88.683327},"country":"HN","name":"Naranjito"},{"_id":3604503,"coord":{"lat":13.20472,"lon":-87.138893},"country":"HN","name":"Namasigue"},{"_id":3604518,"coord":{"lat":15.38333,"lon":-88.183327},"country":"HN","name":"Naco"},{"_id":3604522,"coord":{"lat":13.53611,"lon":-87.487503},"country":"HN","name":"Nacaome"},{"_id":3604614,"coord":{"lat":15.58333,"lon":-87.883331},"country":"HN","name":"Monterrey"},{"_id":3604686,"coord":{"lat":13.20056,"lon":-87.374168},"country":"HN","name":"Monjaras"},{"_id":3604712,"coord":{"lat":15.26667,"lon":-87.599998},"country":"HN","name":"Mojiman"},{"_id":3604795,"coord":{"lat":14.8,"lon":-87.349998},"country":"HN","name":"Minas de Oro"},{"_id":3604835,"coord":{"lat":15.58333,"lon":-87.650002},"country":"HN","name":"Mezapa"},{"_id":3604911,"coord":{"lat":14.08333,"lon":-87.316673},"country":"HN","name":"Mateo"},{"_id":3604949,"coord":{"lat":14.6,"lon":-87.283333},"country":"HN","name":"Mata de Platano"},{"_id":3605000,"coord":{"lat":13.28806,"lon":-87.309723},"country":"HN","name":"Marcovia"},{"_id":3605005,"coord":{"lat":14.15,"lon":-88.033333},"country":"HN","name":"Marcala"},{"_id":3605018,"coord":{"lat":14.88333,"lon":-87.150002},"country":"HN","name":"Marale"},{"_id":3605042,"coord":{"lat":14.91667,"lon":-86.383331},"country":"HN","name":"Manto"},{"_id":3605053,"coord":{"lat":15.06667,"lon":-86.800003},"country":"HN","name":"Mangulile"},{"_id":3605222,"coord":{"lat":14.55,"lon":-88.933327},"country":"HN","name":"Lucerna"},{"_id":3605258,"coord":{"lat":15.15,"lon":-88.683327},"country":"HN","name":"Los Tangos"},{"_id":3605382,"coord":{"lat":14.05,"lon":-88.01667},"country":"HN","name":"Los Planes"},{"_id":3605436,"coord":{"lat":14.9,"lon":-88.050003},"country":"HN","name":"Los Naranjos"},{"_id":3605491,"coord":{"lat":13.28694,"lon":-87.334442},"country":"HN","name":"Los Llanitos"},{"_id":3605729,"coord":{"lat":14.95,"lon":-87.966667},"country":"HN","name":"Los Caminos"},{"_id":3605837,"coord":{"lat":15.1,"lon":-87.216667},"country":"HN","name":"Lomitas"},{"_id":3605873,"coord":{"lat":15.39667,"lon":-88.559723},"country":"HN","name":"Loma Alta"},{"_id":3605950,"coord":{"lat":13.53583,"lon":-87.091942},"country":"HN","name":"Liure"},{"_id":3606069,"coord":{"lat":14.36667,"lon":-87.699997},"country":"HN","name":"Lejamani"},{"_id":3606075,"coord":{"lat":15.01667,"lon":-88.900002},"country":"HN","name":"La Zumbadora"},{"_id":3606159,"coord":{"lat":15.71667,"lon":-87},"country":"HN","name":"La Union"},{"_id":3606171,"coord":{"lat":14.81667,"lon":-88.400002},"country":"HN","name":"La Union"},{"_id":3606185,"coord":{"lat":15.1,"lon":-87.199997},"country":"HN","name":"La Trinidad"},{"_id":3606250,"coord":{"lat":15.01667,"lon":-87.449997},"country":"HN","name":"Las Vegas"},{"_id":3606251,"coord":{"lat":14.86667,"lon":-88.066673},"country":"HN","name":"Las Vegas"},{"_id":3606292,"coord":{"lat":14.06667,"lon":-85.98333},"country":"HN","name":"Las Trojes"},{"_id":3606319,"coord":{"lat":14.8,"lon":-88.599998},"country":"HN","name":"Las Tejeras"},{"_id":3606669,"coord":{"lat":14.78333,"lon":-87.75},"country":"HN","name":"Las Lajas"},{"_id":3606901,"coord":{"lat":13.32528,"lon":-87.395561},"country":"HN","name":"San Jose de Las Conchas"},{"_id":3607003,"coord":{"lat":15.23333,"lon":-87.833328},"country":"HN","name":"La Sarrosa"},{"_id":3607030,"coord":{"lat":14.25,"lon":-86.566673},"country":"HN","name":"Las Animas"},{"_id":3607042,"coord":{"lat":15.36667,"lon":-87.933327},"country":"HN","name":"La Sabana"},{"_id":3607053,"coord":{"lat":15.35,"lon":-87.066673},"country":"HN","name":"La Rosa"},{"_id":3607146,"coord":{"lat":15.11667,"lon":-88.98333},"country":"HN","name":"La Playona"},{"_id":3607294,"coord":{"lat":13.62083,"lon":-87.652496},"country":"HN","name":"Langue"},{"_id":3607381,"coord":{"lat":15.31667,"lon":-87.833328},"country":"HN","name":"La Mina"},{"_id":3607538,"coord":{"lat":14.8,"lon":-88.583328},"country":"HN","name":"La Libertad"},{"_id":3607540,"coord":{"lat":14.75,"lon":-87.616669},"country":"HN","name":"La Libertad"},{"_id":3607644,"coord":{"lat":14.48333,"lon":-89},"country":"HN","name":"La Labor"},{"_id":3607647,"coord":{"lat":15.63333,"lon":-88},"country":"HN","name":"La Jutosa"},{"_id":3607731,"coord":{"lat":15.58333,"lon":-87.883331},"country":"HN","name":"La Huesa"},{"_id":3607797,"coord":{"lat":15.2,"lon":-88.166672},"country":"HN","name":"Laguna Verde"},{"_id":3607802,"coord":{"lat":14.7,"lon":-86.099998},"country":"HN","name":"Laguna Seca"},{"_id":3607830,"coord":{"lat":15.08333,"lon":-86.383331},"country":"HN","name":"La Guata"},{"_id":3607838,"coord":{"lat":14.88333,"lon":-87.933327},"country":"HN","name":"La Guama"},{"_id":3607847,"coord":{"lat":15.25,"lon":-87.800003},"country":"HN","name":"La Guacamaya"},{"_id":3607919,"coord":{"lat":15.28333,"lon":-88.48333},"country":"HN","name":"La Flecha"},{"_id":3607930,"coord":{"lat":15.28333,"lon":-87.550003},"country":"HN","name":"La Estancia"},{"_id":3607931,"coord":{"lat":15.05,"lon":-86.349998},"country":"HN","name":"La Estancia"},{"_id":3607948,"coord":{"lat":15.63333,"lon":-85.76667},"country":"HN","name":"La Esperanza"},{"_id":3607983,"coord":{"lat":14.46667,"lon":-87.066673},"country":"HN","name":"La Ermita"},{"_id":3607992,"coord":{"lat":14.66667,"lon":-89.083328},"country":"HN","name":"La Encarnacion"},{"_id":3608112,"coord":{"lat":13.45361,"lon":-87.41333},"country":"HN","name":"La Criba"},{"_id":3608142,"coord":{"lat":14.7,"lon":-86.23333},"country":"HN","name":"La Concepcion"},{"_id":3608377,"coord":{"lat":15.8,"lon":-85.966667},"country":"HN","name":"La Brea"},{"_id":3608500,"coord":{"lat":14.71667,"lon":-86.083328},"country":"HN","name":"Jutiquile"},{"_id":3608514,"coord":{"lat":15.76667,"lon":-86.51667},"country":"HN","name":"Jutiapa"},{"_id":3608522,"coord":{"lat":13.98333,"lon":-86.400002},"country":"HN","name":"Jutiapa"},{"_id":3608631,"coord":{"lat":15.35444,"lon":-88.635559},"country":"HN","name":"Joconal"},{"_id":3608635,"coord":{"lat":15.28333,"lon":-86.966667},"country":"HN","name":"Jocon"},{"_id":3608656,"coord":{"lat":14,"lon":-88.349998},"country":"HN","name":"Jiquinlaca"},{"_id":3608692,"coord":{"lat":13.53167,"lon":-87.438889},"country":"HN","name":"Jicaro Galan"},{"_id":3608715,"coord":{"lat":14.48333,"lon":-87.98333},"country":"HN","name":"Jesus de Otoro"},{"_id":3608718,"coord":{"lat":15.95,"lon":-85.966667},"country":"HN","name":"Jerico"},{"_id":3608743,"coord":{"lat":14.7,"lon":-87.583328},"country":"HN","name":"Jamalteca"},{"_id":3608798,"coord":{"lat":14.01667,"lon":-86.666672},"country":"HN","name":"Jacaleapa"},{"_id":3608828,"coord":{"lat":15,"lon":-83.23333},"country":"HN","name":"Iralaya"},{"_id":3608834,"coord":{"lat":14.31667,"lon":-88.166672},"country":"HN","name":"Intibuca"},{"_id":3608860,"coord":{"lat":15.06667,"lon":-88.216667},"country":"HN","name":"Ilama"},{"_id":3609112,"coord":{"lat":13.88333,"lon":-86.933327},"country":"HN","name":"Guinope"},{"_id":3609152,"coord":{"lat":14.71667,"lon":-86.833328},"country":"HN","name":"Guayape"},{"_id":3609231,"coord":{"lat":14.91667,"lon":-86.333328},"country":"HN","name":"Guarizama"},{"_id":3609293,"coord":{"lat":16.4,"lon":-85.900002},"country":"HN","name":"Guanaja"},{"_id":3609342,"coord":{"lat":14.95,"lon":-88.23333},"country":"HN","name":"Gualjoco"},{"_id":3609415,"coord":{"lat":15.5,"lon":-87.716667},"country":"HN","name":"Guaimitas"},{"_id":3609418,"coord":{"lat":14.53333,"lon":-86.816673},"country":"HN","name":"Guaimaca"},{"_id":3609453,"coord":{"lat":15.01667,"lon":-88.150002},"country":"HN","name":"Guacamaya"},{"_id":3609586,"coord":{"lat":14.58333,"lon":-88.583328},"country":"HN","name":"Gracias"},{"_id":3609608,"coord":{"lat":13.58333,"lon":-87.616669},"country":"HN","name":"Goascoran"},{"_id":3609667,"coord":{"lat":16.35,"lon":-86.433327},"country":"HN","name":"French Harbor"},{"_id":3609673,"coord":{"lat":15.85,"lon":-85.583328},"country":"HN","name":"Francia"},{"_id":3609681,"coord":{"lat":15.03333,"lon":-88.833328},"country":"HN","name":"Florida"},{"_id":3609742,"coord":{"lat":14.73333,"lon":-87.366669},"country":"HN","name":"Esquias"},{"_id":3609775,"coord":{"lat":14.23333,"lon":-88.466667},"country":"HN","name":"Erandique"},{"_id":3609928,"coord":{"lat":15.51667,"lon":-88.050003},"country":"HN","name":"El Zapotal del Norte"},{"_id":3610046,"coord":{"lat":13.46639,"lon":-87.515282},"country":"HN","name":"El Tular"},{"_id":3610051,"coord":{"lat":15.76667,"lon":-87.433327},"country":"HN","name":"El Triunfo de la Cruz"},{"_id":3610060,"coord":{"lat":13.11667,"lon":-87},"country":"HN","name":"El Triunfo"},{"_id":3610082,"coord":{"lat":14.38333,"lon":-88.916672},"country":"HN","name":"El Transito"},{"_id":3610118,"coord":{"lat":14.93333,"lon":-87.98333},"country":"HN","name":"El Tigre"},{"_id":3610139,"coord":{"lat":14.06667,"lon":-87.066673},"country":"HN","name":"El Terrero"},{"_id":3610232,"coord":{"lat":14.03333,"lon":-87.166672},"country":"HN","name":"El Tablon"},{"_id":3610251,"coord":{"lat":14.51667,"lon":-87.216667},"country":"HN","name":"El Suyatal"},{"_id":3610278,"coord":{"lat":14.63333,"lon":-87.916672},"country":"HN","name":"El Socorro"},{"_id":3610318,"coord":{"lat":14.53333,"lon":-87.666672},"country":"HN","name":"El Sauce"},{"_id":3610365,"coord":{"lat":14.46667,"lon":-86.366669},"country":"HN","name":"El Rusio"},{"_id":3610377,"coord":{"lat":14.8,"lon":-87.76667},"country":"HN","name":"El Rosario"},{"_id":3610487,"coord":{"lat":14.58333,"lon":-87.933327},"country":"HN","name":"El Rincon"},{"_id":3610555,"coord":{"lat":15.66667,"lon":-87.949997},"country":"HN","name":"El Rancho"},{"_id":3610558,"coord":{"lat":14.68333,"lon":-87.5},"country":"HN","name":"El Rancho"},{"_id":3610610,"coord":{"lat":13.28333,"lon":-87.116669},"country":"HN","name":"El Puente"},{"_id":3610675,"coord":{"lat":15.83333,"lon":-87.933327},"country":"HN","name":"El Porvenir"},{"_id":3610687,"coord":{"lat":14.58333,"lon":-87.883331},"country":"HN","name":"El Porvenir"},{"_id":3610693,"coord":{"lat":13.76167,"lon":-87.345833},"country":"HN","name":"El Porvenir"},{"_id":3610789,"coord":{"lat":15.28333,"lon":-87.966667},"country":"HN","name":"El Plan"},{"_id":3610813,"coord":{"lat":15.7,"lon":-86.933327},"country":"HN","name":"El Pino"},{"_id":3610866,"coord":{"lat":15.08333,"lon":-88.099998},"country":"HN","name":"El Perico"},{"_id":3610912,"coord":{"lat":14.7,"lon":-87.116669},"country":"HN","name":"El Pedernal"},{"_id":3611040,"coord":{"lat":15.08333,"lon":-87.883331},"country":"HN","name":"El Olivar"},{"_id":3611069,"coord":{"lat":15.03333,"lon":-88.883331},"country":"HN","name":"El Ocoton"},{"_id":3611088,"coord":{"lat":15.41667,"lon":-86.566673},"country":"HN","name":"El Ocote"},{"_id":3611128,"coord":{"lat":14,"lon":-86.433327},"country":"HN","name":"El Obraje"},{"_id":3611133,"coord":{"lat":13.15417,"lon":-87.130829},"country":"HN","name":"El Obraje"},{"_id":3611267,"coord":{"lat":14.86667,"lon":-88.083328},"country":"HN","name":"El Mochito"},{"_id":3611270,"coord":{"lat":15.4,"lon":-87.966667},"country":"HN","name":"El Milagro"},{"_id":3611319,"coord":{"lat":15.4,"lon":-88.050003},"country":"HN","name":"El Maranon"},{"_id":3611352,"coord":{"lat":14.11667,"lon":-87.26667},"country":"HN","name":"El Lolo"},{"_id":3611356,"coord":{"lat":15.15,"lon":-87.883331},"country":"HN","name":"El Llano"},{"_id":3611481,"coord":{"lat":15.45,"lon":-86.433327},"country":"HN","name":"El Juncal"},{"_id":3611572,"coord":{"lat":15.48333,"lon":-86.300003},"country":"HN","name":"Elixir"},{"_id":3611699,"coord":{"lat":14.83333,"lon":-86.033333},"country":"HN","name":"El Guayabito"},{"_id":3611718,"coord":{"lat":13.76667,"lon":-87.466667},"country":"HN","name":"El Guapinol"},{"_id":3611719,"coord":{"lat":14.6,"lon":-87.300003},"country":"HN","name":"El Guantillo"},{"_id":3611720,"coord":{"lat":14.55,"lon":-87.099998},"country":"HN","name":"El Guante"},{"_id":3611842,"coord":{"lat":14.75,"lon":-87.066673},"country":"HN","name":"El Escano de Tepale"},{"_id":3611844,"coord":{"lat":14.66667,"lon":-87.099998},"country":"HN","name":"El Escanito"},{"_id":3611933,"coord":{"lat":13.46667,"lon":-87.666672},"country":"HN","name":"El Cubolero"},{"_id":3611986,"coord":{"lat":14.7,"lon":-88.916672},"country":"HN","name":"El Corpus"},{"_id":3611987,"coord":{"lat":13.28889,"lon":-87.034721},"country":"HN","name":"Corpus"},{"_id":3611995,"coord":{"lat":15.06667,"lon":-88.616669},"country":"HN","name":"El Corozal"},{"_id":3612064,"coord":{"lat":15.3,"lon":-88.5},"country":"HN","name":"El Ciruelo"},{"_id":3612138,"coord":{"lat":14.13333,"lon":-87.116669},"country":"HN","name":"El Chimbo"},{"_id":3612160,"coord":{"lat":14.06667,"lon":-86.300003},"country":"HN","name":"El Chichicaste"},{"_id":3612581,"coord":{"lat":14.03333,"lon":-86.466667},"country":"HN","name":"El Benque"},{"_id":3612640,"coord":{"lat":15.06667,"lon":-87.466667},"country":"HN","name":"El Balsamo"},{"_id":3612734,"coord":{"lat":14.7,"lon":-87.75},"country":"HN","name":"El Agua Dulcita"},{"_id":3612784,"coord":{"lat":14.08333,"lon":-88.75},"country":"HN","name":"El Achiotal"},{"_id":3612801,"coord":{"lat":13.63333,"lon":-86.816673},"country":"HN","name":"Duyure"},{"_id":3612810,"coord":{"lat":15.1,"lon":-85.533333},"country":"HN","name":"Dulce Nombre de Culmi"},{"_id":3612813,"coord":{"lat":14.85,"lon":-88.833328},"country":"HN","name":"Dulce Nombre"},{"_id":3612838,"coord":{"lat":14.86667,"lon":-88.833328},"country":"HN","name":"Dolores"},{"_id":3612929,"coord":{"lat":15.66667,"lon":-88.199997},"country":"HN","name":"Cuyamel"},{"_id":3612937,"coord":{"lat":13.88333,"lon":-86.550003},"country":"HN","name":"Cuyali"},{"_id":3612949,"coord":{"lat":15.85,"lon":-85.23333},"country":"HN","name":"Cusuna"},{"_id":3613105,"coord":{"lat":15.4,"lon":-86.666672},"country":"HN","name":"Coyoles Central"},{"_id":3613145,"coord":{"lat":15.41667,"lon":-88.449997},"country":"HN","name":"Correderos"},{"_id":3613171,"coord":{"lat":14.56667,"lon":-88.866669},"country":"HN","name":"Corquin"},{"_id":3613175,"coord":{"lat":15.8,"lon":-86.716667},"country":"HN","name":"Corozal"},{"_id":3613189,"coord":{"lat":15.75,"lon":-85.783333},"country":"HN","name":"Corocito"},{"_id":3613230,"coord":{"lat":14.83333,"lon":-89.150002},"country":"HN","name":"Copan"},{"_id":3613263,"coord":{"lat":14.61667,"lon":-86.650002},"country":"HN","name":"Concordia"},{"_id":3613281,"coord":{"lat":14.8,"lon":-88.166672},"country":"HN","name":"Concepcion del Sur"},{"_id":3613285,"coord":{"lat":15.16667,"lon":-88.716667},"country":"HN","name":"Concepcion de la Barranca"},{"_id":3613286,"coord":{"lat":14.6,"lon":-87.650002},"country":"HN","name":"Concepcion de Guasistagua"},{"_id":3613371,"coord":{"lat":14.3,"lon":-88.883331},"country":"HN","name":"Cololaca"},{"_id":3613402,"coord":{"lat":14.21667,"lon":-87.183327},"country":"HN","name":"Cofradia"},{"_id":3613509,"coord":{"lat":15.41667,"lon":-87.98333},"country":"HN","name":"Chotepe"},{"_id":3613547,"coord":{"lat":15.75,"lon":-87.98333},"country":"HN","name":"Chivana"},{"_id":3613708,"coord":{"lat":15.1,"lon":-88.683327},"country":"HN","name":"Chalmeca"},{"_id":3613847,"coord":{"lat":14.66667,"lon":-87.783333},"country":"HN","name":"Cerro Blanco"},{"_id":3613900,"coord":{"lat":14.8,"lon":-88.199997},"country":"HN","name":"Ceguaca"},{"_id":3613906,"coord":{"lat":14.6,"lon":-87.116669},"country":"HN","name":"Cedros"},{"_id":3614011,"coord":{"lat":15.26667,"lon":-88.550003},"country":"HN","name":"Casa Quemada"},{"_id":3614012,"coord":{"lat":15.11667,"lon":-88.083328},"country":"HN","name":"Casa Quemada"},{"_id":3614113,"coord":{"lat":15.51667,"lon":-86.349998},"country":"HN","name":"Carbajales"},{"_id":3614218,"coord":{"lat":14.28333,"lon":-87.666672},"country":"HN","name":"Cane"},{"_id":3614249,"coord":{"lat":14.98333,"lon":-88.01667},"country":"HN","name":"Canaveral"},{"_id":3614328,"coord":{"lat":14,"lon":-88.383331},"country":"HN","name":"Camasca"},{"_id":3614343,"coord":{"lat":15.33333,"lon":-88.333328},"country":"HN","name":"Camalote"},{"_id":3614381,"coord":{"lat":15.16667,"lon":-88.650002},"country":"HN","name":"Callejones"},{"_id":3614583,"coord":{"lat":15.03333,"lon":-88.966667},"country":"HN","name":"Buenos Aires"},{"_id":3614663,"coord":{"lat":15.75,"lon":-84.48333},"country":"HN","name":"Brus Laguna"},{"_id":3614705,"coord":{"lat":15.74765,"lon":-85.735588},"country":"HN","name":"Bonito Oriental"},{"_id":3614789,"coord":{"lat":14.83333,"lon":-88.5},"country":"HN","name":"Berlin"},{"_id":3614797,"coord":{"lat":14.48333,"lon":-88.800003},"country":"HN","name":"Belen Gualcho"},{"_id":3614805,"coord":{"lat":15.13333,"lon":-87.933327},"country":"HN","name":"Bejuco"},{"_id":3614835,"coord":{"lat":15.8,"lon":-84.283333},"country":"HN","name":"Barra Patuca"},{"_id":3614872,"coord":{"lat":15.76667,"lon":-87.849998},"country":"HN","name":"Baracoa"},{"_id":3614893,"coord":{"lat":15.48333,"lon":-86.333328},"country":"HN","name":"Balsamo Oriental"},{"_id":3614914,"coord":{"lat":15.88333,"lon":-87.849998},"country":"HN","name":"Baja Mar"},{"_id":3614970,"coord":{"lat":15.34333,"lon":-88.551392},"country":"HN","name":"Azacualpa"},{"_id":3614997,"coord":{"lat":15.1,"lon":-87.150002},"country":"HN","name":"Ayapa"},{"_id":3615011,"coord":{"lat":14.93333,"lon":-83.833328},"country":"HN","name":"Auka"},{"_id":3615022,"coord":{"lat":15.48333,"lon":-84.333328},"country":"HN","name":"Auas"},{"_id":3615030,"coord":{"lat":15.68333,"lon":-87.316673},"country":"HN","name":"Atenas de San Cristobal"},{"_id":3615065,"coord":{"lat":15.5,"lon":-88.050003},"country":"HN","name":"Armenta"},{"_id":3615067,"coord":{"lat":15.46667,"lon":-86.366669},"country":"HN","name":"Armenia"},{"_id":3615069,"coord":{"lat":15.63333,"lon":-87.316673},"country":"HN","name":"Arizona"},{"_id":3615070,"coord":{"lat":14.78333,"lon":-86},"country":"HN","name":"Arimis"},{"_id":3615090,"coord":{"lat":15.35,"lon":-86.833328},"country":"HN","name":"Arenal"},{"_id":3615108,"coord":{"lat":13.95,"lon":-86.550003},"country":"HN","name":"Arauli"},{"_id":3615115,"coord":{"lat":13.74222,"lon":-87.710281},"country":"HN","name":"Aramecina"},{"_id":3615125,"coord":{"lat":14.85,"lon":-88.300003},"country":"HN","name":"Arada"},{"_id":3615169,"coord":{"lat":14.4,"lon":-89.199997},"country":"HN","name":"Antigua Ocotepeque"},{"_id":3615213,"coord":{"lat":13.29222,"lon":-87.653893},"country":"HN","name":"Amapala"},{"_id":3615279,"coord":{"lat":14.38333,"lon":-87.699997},"country":"HN","name":"Ajuterique"},{"_id":3615332,"coord":{"lat":14.56667,"lon":-87.883331},"country":"HN","name":"Aguas del Padre"},{"_id":3615358,"coord":{"lat":15.33528,"lon":-88.553062},"country":"HN","