{"countryCityList":[{"_id":3294179,"coord":{"lat":51.835281,"lon":-8.49333},"country":"IE","name":"Fort Cross Roads"},{"_id":3315176,"coord":{"lat":53.181938,"lon":-6.26861},"country":"IE","name":"Ballycoyle"},{"_id":6691053,"coord":{"lat":53.284721,"lon":-6.26272},"country":"IE","name":"Meadow Mount"},{"_id":3298509,"coord":{"lat":52.14167,"lon":-10.38556},"country":"IE","name":"Rahtnnane"},{"_id":2964468,"coord":{"lat":52.84417,"lon":-7.3925},"country":"IE","name":"Durrow"},{"_id":2962864,"coord":{"lat":52.446388,"lon":-9.485},"country":"IE","name":"Listowel"},{"_id":2961192,"coord":{"lat":52.473331,"lon":-8.15583},"country":"IE","name":"Tipperary"},{"_id":2962252,"coord":{"lat":52.396671,"lon":-6.93667},"country":"IE","name":"New Ross"},{"_id":2961636,"coord":{"lat":53.280281,"lon":-6.44444},"country":"IE","name":"Saggart"},{"_id":2961123,"coord":{"lat":52.27042,"lon":-9.70264},"country":"IE","name":"Tralee"},{"_id":2963517,"coord":{"lat":52.166672,"lon":-9.75},"country":"IE","name":"Ciarraí"},{"_id":3297715,"coord":{"lat":51.934719,"lon":-10.24111},"country":"IE","name":"Reenard Cross"},{"_id":2964532,"coord":{"lat":53.290668,"lon":-6.25714},"country":"IE","name":"Dundrum"},{"_id":2960970,"coord":{"lat":53.799999,"lon":-9.51667},"country":"IE","name":"Westport"},{"_id":2963031,"coord":{"lat":53,"lon":-7.4},"country":"IE","name":"Laois"},{"_id":2961587,"coord":{"lat":53.398121,"lon":-6.25268},"country":"IE","name":"Santry"},{"_id":2966022,"coord":{"lat":53.202782,"lon":-6.09833},"country":"IE","name":"Bray"},{"_id":2966839,"coord":{"lat":53.433331,"lon":-7.95},"country":"IE","name":"Athlone"},{"_id":2963597,"coord":{"lat":53,"lon":-8},"country":"IE","name":"Ireland"},{"_id":7521315,"coord":{"lat":52.34333,"lon":-8.71667},"country":"IE","name":"Munster"},{"_id":2965139,"coord":{"lat":51.966671,"lon":-8.58333},"country":"IE","name":"County Cork"},{"_id":2966377,"coord":{"lat":51.48333,"lon":-9.36667},"country":"IE","name":"Baltimore"},{"_id":3294101,"coord":{"lat":51.789719,"lon":-8.29417},"country":"IE","name":"Ballinluska"},{"_id":3300407,"coord":{"lat":52.138329,"lon":-8.39667},"country":"IE","name":"Bloomfield Cross Roads"},{"_id":2960991,"coord":{"lat":52.25,"lon":-7.5},"country":"IE","name":"Waterford"},{"_id":2961120,"coord":{"lat":52.16235,"lon":-7.15244},"country":"IE","name":"Tra Mhor"},{"_id":7521314,"coord":{"lat":53.166672,"lon":-7.02121},"country":"IE","name":"Leinster"},{"_id":2960963,"coord":{"lat":52.5,"lon":-6.66667},"country":"IE","name":"Loch Garman"},{"_id":3302101,"coord":{"lat":52.288609,"lon":-6.48083},"country":"IE","name":"Ballykilliane"},{"_id":2965479,"coord":{"lat":52.833328,"lon":-9},"country":"IE","name":"An Clár"},{"_id":2961824,"coord":{"lat":52.683331,"lon":-8.95},"country":"IE","name":"Rineanna"},{"_id":2965767,"coord":{"lat":52.666672,"lon":-6.83333},"country":"IE","name":"County Carlow"},{"_id":2965768,"coord":{"lat":52.840832,"lon":-6.92611},"country":"IE","name":"Carlow"},{"_id":2963435,"coord":{"lat":53.166672,"lon":-6.75},"country":"IE","name":"Kildare"},{"_id":3314270,"coord":{"lat":53.03611,"lon":-6.89139},"country":"IE","name":"Ballyadam"},{"_id":2960935,"coord":{"lat":53,"lon":-6.41667},"country":"IE","name":"Wicklow"},{"_id":7521313,"coord":{"lat":53.869999,"lon":-8.63333},"country":"IE","name":"Connaught"},{"_id":2964179,"coord":{"lat":53.333328,"lon":-9},"country":"IE","name":"County Galway"},{"_id":3315458,"coord":{"lat":53.332218,"lon":-9.88611},"country":"IE","name":"Dooveher"},{"_id":3316325,"coord":{"lat":53.422218,"lon":-6.26722},"country":"IE","name":"Coultry"},{"_id":2960972,"coord":{"lat":53.5,"lon":-7.5},"country":"IE","name":"An Iarmhí"},{"_id":2962361,"coord":{"lat":53.533329,"lon":-7.35},"country":"IE","name":"An Muileann gCearr"},{"_id":2962666,"coord":{"lat":53.900002,"lon":-9.25},"country":"IE","name":"Maigh Eo"},{"_id":2965471,"coord":{"lat":53.716671,"lon":-9},"country":"IE","name":"Claremorris"},{"_id":6325505,"coord":{"lat":53.924961,"lon":-8.85326},"country":"IE","name":"BARNALYRA"},{"_id":7521316,"coord":{"lat":54.361111,"lon":-7.41667},"country":"IE","name":"Ulster"},{"_id":2965534,"coord":{"lat":53.916672,"lon":-7.25},"country":"IE","name":"An Cabhán"},{"_id":2966572,"coord":{"lat":54.049999,"lon":-7.31667},"country":"IE","name":"Ballyhaise"},{"_id":2964751,"coord":{"lat":54.916672,"lon":-8},"country":"IE","name":"County Donegal"},{"_id":2965929,"coord":{"lat":54.477821,"lon":-8.28094},"country":"IE","name":"Bundoran"},{"_id":2961028,"coord":{"lat":55.336391,"lon":-7.28528},"country":"IE","name":"Urbalreagh"},{"_id":2963397,"coord":{"lat":52.583328,"lon":-7.25},"country":"IE","name":"Kilkenny"},{"_id":2960964,"coord":{"lat":52.334171,"lon":-6.4575},"country":"IE","name":"Loch Garman"},{"_id":3310247,"coord":{"lat":52.703892,"lon":-8.86417},"country":"IE","name":"Shannon"},{"_id":3303113,"coord":{"lat":52.749168,"lon":-6.87472},"country":"IE","name":"Ballytarsha Cross Roads"},{"_id":3291024,"coord":{"lat":52.26667,"lon":-9.73056},"country":"IE","name":"Lohercannan"},{"_id":2963436,"coord":{"lat":53.156109,"lon":-6.91444},"country":"IE","name":"Kildare"},{"_id":2960936,"coord":{"lat":52.974998,"lon":-6.04944},"country":"IE","name":"Wicklow"},{"_id":3313943,"coord":{"lat":53.400829,"lon":-7.38333},"country":"IE","name":"Templeoran"},{"_id":2965119,"coord":{"lat":53.716671,"lon":-8.76667},"country":"IE","name":"Corraun"},{"_id":2962029,"coord":{"lat":53.16222,"lon":-7.19111},"country":"IE","name":"Portarlington"},{"_id":2963940,"coord":{"lat":54.955002,"lon":-7.72556},"country":"IE","name":"Gortlee"},{"_id":2965750,"coord":{"lat":53.950279,"lon":-8.6925},"country":"IE","name":"Carracastle"},{"_id":2963567,"coord":{"lat":52.749168,"lon":-7.55417},"country":"IE","name":"Johnstown"},{"_id":7869942,"coord":{"lat":52.724388,"lon":-8.55251},"country":"IE","name":"Clonlara"},{"_id":2962661,"coord":{"lat":53.666672,"lon":-6.66667},"country":"IE","name":"An Mhí"},{"_id":2964472,"coord":{"lat":53.512501,"lon":-6.54},"country":"IE","name":"Dunshaughlin"},{"_id":3315550,"coord":{"lat":53.554169,"lon":-10.13444},"country":"IE","name":"Emlagh"},{"_id":2963398,"coord":{"lat":52.654171,"lon":-7.25222},"country":"IE","name":"Kilkenny"},{"_id":7838918,"coord":{"lat":52.258202,"lon":-7.13154},"country":"IE","name":"Hillview"},{"_id":7778677,"coord":{"lat":53.355122,"lon":-6.24922},"country":"IE","name":"Dublin City"},{"_id":2964574,"coord":{"lat":53.34399,"lon":-6.26719},"country":"IE","name":"Dublin"},{"_id":7869980,"coord":{"lat":51.903271,"lon":-8.48857},"country":"IE","name":"Gurranebraher"},{"_id":2964752,"coord":{"lat":54.650002,"lon":-8.11667},"country":"IE","name":"Donegal"},{"_id":2966566,"coord":{"lat":53.76667,"lon":-8.76667},"country":"IE","name":"Ballyhaunis"},{"_id":2960992,"coord":{"lat":52.258331,"lon":-7.11194},"country":"IE","name":"Waterford"},{"_id":2961297,"coord":{"lat":53.459721,"lon":-6.21806},"country":"IE","name":"Swords"},{"_id":2962793,"coord":{"lat":53.833328,"lon":-6.5},"country":"IE","name":"Lú"},{"_id":2962794,"coord":{"lat":53.948608,"lon":-6.54139},"country":"IE","name":"Louth"},{"_id":2964180,"coord":{"lat":53.271938,"lon":-9.04889},"country":"IE","name":"Gaillimh"},{"_id":2962941,"coord":{"lat":52.5,"lon":-8.75},"country":"IE","name":"County Limerick"},{"_id":2962943,"coord":{"lat":52.664719,"lon":-8.62306},"country":"IE","name":"Luimneach"},{"_id":2963311,"coord":{"lat":52.099998,"lon":-9.78333},"country":"IE","name":"Killorglin"},{"_id":2966837,"coord":{"lat":52.99139,"lon":-6.98028},"country":"IE","name":"Athy"},{"_id":2962839,"coord":{"lat":53.666672,"lon":-7.75},"country":"IE","name":"An Longfort"},{"_id":2962840,"coord":{"lat":53.73333,"lon":-7.8},"country":"IE","name":"Longford"},{"_id":3313472,"coord":{"lat":53.422779,"lon":-7.93722},"country":"IE","name":"Athlone"},{"_id":2961422,"coord":{"lat":54.25,"lon":-8.66667},"country":"IE","name":"Sligo"},{"_id":3311197,"coord":{"lat":54.26889,"lon":-8.49444},"country":"IE","name":"Magheraboy"},{"_id":2965381,"coord":{"lat":53.32444,"lon":-6.39722},"country":"IE","name":"Clondalkin"},{"_id":2963528,"coord":{"lat":53.726391,"lon":-6.87917},"country":"IE","name":"Kells"},{"_id":2962334,"coord":{"lat":53.215832,"lon":-6.66694},"country":"IE","name":"Naas"},{"_id":2962187,"coord":{"lat":53.25,"lon":-7.5},"country":"IE","name":"Uíbh Fhailí"},{"_id":2961086,"coord":{"lat":53.273891,"lon":-7.48889},"country":"IE","name":"Tullamore"},{"_id":3315287,"coord":{"lat":53.314571,"lon":-6.275},"country":"IE","name":"Rathgar"},{"_id":2961896,"coord":{"lat":53.320278,"lon":-6.26333},"country":"IE","name":"Rathmines"},{"_id":7838913,"coord":{"lat":53.289742,"lon":-6.13604},"country":"IE","name":"Dun Laoghire"},{"_id":2965535,"coord":{"lat":53.990829,"lon":-7.36056},"country":"IE","name":"Cavan"},{"_id":2962308,"coord":{"lat":53.652779,"lon":-6.68139},"country":"IE","name":"Navan"},{"_id":2961731,"coord":{"lat":53.75,"lon":-8.25},"country":"IE","name":"Roscommon"},{"_id":2961732,"coord":{"lat":53.633331,"lon":-8.18333},"country":"IE","name":"Roscommon"},{"_id":2963848,"coord":{"lat":53.140831,"lon":-6.06306},"country":"IE","name":"Greystones"},{"_id":2964661,"coord":{"lat":53.718891,"lon":-6.34778},"country":"IE","name":"Drogheda"},{"_id":2965654,"coord":{"lat":53.849998,"lon":-9.3},"country":"IE","name":"Castlebar"},{"_id":7288565,"coord":{"lat":53.28595,"lon":-6.37739},"country":"IE","name":"South Dublin"},{"_id":3315270,"coord":{"lat":53.31361,"lon":-6.36389},"country":"IE","name":"Ballymount"},{"_id":2964540,"coord":{"lat":54,"lon":-6.41667},"country":"IE","name":"Dundalk"},{"_id":2961284,"coord":{"lat":53.2859,"lon":-6.37344},"country":"IE","name":"Tallaght"},{"_id":6697759,"coord":{"lat":53.29026,"lon":-6.34151},"country":"IE","name":"South Dublin"},{"_id":3315304,"coord":{"lat":53.387119,"lon":-6.2138},"country":"IE","name":"Artane"},{"_id":6691030,"coord":{"lat":53.388699,"lon":-6.19998},"country":"IE","name":"Coolock"},{"_id":2961099,"coord":{"lat":53.51667,"lon":-8.85},"country":"IE","name":"Tuam"},{"_id":2965260,"coord":{"lat":51.85722,"lon":-8.29917},"country":"IE","name":"Cobh"},{"_id":2965230,"coord":{"lat":52.829441,"lon":-9.19306},"country":"IE","name":"Connolly"},{"_id":2965573,"coord":{"lat":53.666672,"lon":-7.3},"country":"IE","name":"Castlepollard"},{"_id":2962567,"coord":{"lat":54.25,"lon":-7},"country":"IE","name":"County Monaghan"},{"_id":2962568,"coord":{"lat":54.25,"lon":-6.96667},"country":"IE","name":"Monaghan"},{"_id":2964405,"coord":{"lat":52.843609,"lon":-8.98639},"country":"IE","name":"Ennis"},{"_id":2963986,"coord":{"lat":52.50333,"lon":-6.90417},"country":"IE","name":"Glynn"},{"_id":2961589,"coord":{"lat":53.334999,"lon":-6.21139},"country":"IE","name":"Sandymount"},{"_id":2961816,"coord":{"lat":53.341942,"lon":-6.22639},"country":"IE","name":"Ringsend"},{"_id":2966360,"coord":{"lat":52.448059,"lon":-8.0625},"country":"IE","name":"Bansha"},{"_id":2961388,"coord":{"lat":53.24667,"lon":-9.30278},"country":"IE","name":"Spiddal"},{"_id":2962465,"coord":{"lat":52.99889,"lon":-7.47278},"country":"IE","name":"Mountrath"},{"_id":2967092,"coord":{"lat":52.89917,"lon":-7.3575},"country":"IE","name":"Abbeyleix"},{"_id":2966131,"coord":{"lat":53.301498,"lon":-6.1778},"country":"IE","name":"Blackrock"},{"_id":6691046,"coord":{"lat":53.303799,"lon":-6.18642},"country":"IE","name":"Sion Hill"},{"_id":2964403,"coord":{"lat":52.500832,"lon":-6.55778},"country":"IE","name":"Enniscorthy"},{"_id":3315319,"coord":{"lat":53.36694,"lon":-6.29444},"country":"IE","name":"Cabra"},{"_id":3315278,"coord":{"lat":53.2747,"lon":-6.2253},"country":"IE","name":"Sandyford"},{"_id":2962961,"coord":{"lat":54.950001,"lon":-7.73333},"country":"IE","name":"Letterkenny"},{"_id":2962290,"coord":{"lat":53.181938,"lon":-6.79667},"country":"IE","name":"Droichead Nua"},{"_id":2966356,"coord":{"lat":51.683331,"lon":-9.45},"country":"IE","name":"Bantry"},{"_id":2965664,"coord":{"lat":52.515831,"lon":-7.88556},"country":"IE","name":"Cashel"},{"_id":2964528,"coord":{"lat":52.088058,"lon":-7.62528},"country":"IE","name":"Dungarvan"},{"_id":2966154,"coord":{"lat":53.091389,"lon":-7.91333},"country":"IE","name":"Birr"},{"_id":2966110,"coord":{"lat":53.388062,"lon":-6.37556},"country":"IE","name":"Blanchardstown"},{"_id":3315268,"coord":{"lat":53.303059,"lon":-6.39667},"country":"IE","name":"Belgard"},{"_id":2965353,"coord":{"lat":52.355,"lon":-7.70389},"country":"IE","name":"Cluain Meala"},{"_id":2966925,"coord":{"lat":53.859718,"lon":-6.54056},"country":"IE","name":"Ardee"},{"_id":3311206,"coord":{"lat":54.29417,"lon":-8.44083},"country":"IE","name":"Willsborough"},{"_id":3316393,"coord":{"lat":53.685001,"lon":-6.29972},"country":"IE","name":"Smithstown"},{"_id":2962974,"coord":{"lat":53.365829,"lon":-6.49556},"country":"IE","name":"Leixlip"},{"_id":2963370,"coord":{"lat":52.049999,"lon":-9.51667},"country":"IE","name":"Cill Airne"},{"_id":3315315,"coord":{"lat":53.398071,"lon":-6.26693},"country":"IE","name":"Ballymun"},{"_id":3310979,"coord":{"lat":54.022781,"lon":-8.90806},"country":"IE","name":"Claddagh"},{"_id":2964547,"coord":{"lat":53.400002,"lon":-6.46667},"country":"IE","name":"Dunboyne"},{"_id":2965913,"coord":{"lat":52.696671,"lon":-8.81556},"country":"IE","name":"Bunratty"},{"_id":3314339,"coord":{"lat":53.047218,"lon":-7.24556},"country":"IE","name":"Ballydavis"},{"_id":6691007,"coord":{"lat":53.29221,"lon":-6.23019},"country":"IE","name":"Goatstown"},{"_id":2962668,"coord":{"lat":53.384998,"lon":-6.59361},"country":"IE","name":"Maynooth"},{"_id":2961872,"coord":{"lat":53.50806,"lon":-6.4625},"country":"IE","name":"Ratoath"},{"_id":2964892,"coord":{"lat":53.278332,"lon":-6.10028},"country":"IE","name":"Dalkey"},{"_id":2964724,"coord":{"lat":53.022499,"lon":-9.39333},"country":"IE","name":"Doolin"},{"_id":2961312,"coord":{"lat":53.47694,"lon":-6.73639},"country":"IE","name":"Summerhill"},{"_id":2966044,"coord":{"lat":53.966671,"lon":-8.3},"country":"IE","name":"Boyle"},{"_id":2961327,"coord":{"lat":53.783329,"lon":-8.1},"country":"IE","name":"Strokestown"},{"_id":3312466,"coord":{"lat":53.375832,"lon":-9.065},"country":"IE","name":"Woodpark"},{"_id":2962084,"coord":{"lat":53.566669,"lon":-7.7},"country":"IE","name":"Pallas"},{"_id":2963722,"coord":{"lat":53.387779,"lon":-6.06528},"country":"IE","name":"Howth"},{"_id":2965536,"coord":{"lat":52.41333,"lon":-9.73194},"country":"IE","name":"Causeway"},{"_id":2966778,"coord":{"lat":54.116669,"lon":-9.16667},"country":"IE","name":"Ballina"},{"_id":2962725,"coord":{"lat":53.450829,"lon":-6.15444},"country":"IE","name":"Malahide"},{"_id":2964745,"coord":{"lat":53.313751,"lon":-6.22274},"country":"IE","name":"Donnybrook"},{"_id":3315432,"coord":{"lat":53.323608,"lon":-6.35583},"country":"IE","name":"Fox and Geese"},{"_id":2961107,"coord":{"lat":53.555,"lon":-6.79167},"country":"IE","name":"Trim"},{"_id":2960926,"coord":{"lat":53.29361,"lon":-6.31194},"country":"IE","name":"Willbrook"},{"_id":3315404,"coord":{"lat":53.29528,"lon":-6.30889},"country":"IE","name":"Templeogue"},{"_id":2963169,"coord":{"lat":53.908058,"lon":-6.80556},"country":"IE","name":"Kingscourt"},{"_id":2964102,"coord":{"lat":53.38028,"lon":-6.26417},"country":"IE","name":"Glasnevin"},{"_id":3290679,"coord":{"lat":52.054722,"lon":-9.24417},"country":"IE","name":"Raheen"},{"_id":2963522,"coord":{"lat":51.883331,"lon":-9.58333},"country":"IE","name":"Kenmare"},{"_id":2964303,"coord":{"lat":53.389172,"lon":-6.29694},"country":"IE","name":"Finglas"},{"_id":3315279,"coord":{"lat":53.26833,"lon":-6.19972},"country":"IE","name":"Leopardstown"},{"_id":2962217,"coord":{"lat":53.822781,"lon":-6.75056},"country":"IE","name":"Nobber"},{"_id":3315295,"coord":{"lat":53.32526,"lon":-6.25504},"country":"IE","name":"Ranelagh"},{"_id":2964436,"coord":{"lat":53.34528,"lon":-7.04972},"country":"IE","name":"Edenderry"},{"_id":2964963,"coord":{"lat":53.324169,"lon":-6.32861},"country":"IE","name":"Crumlin"},{"_id":3313053,"coord":{"lat":53.14806,"lon":-8.335},"country":"IE","name":"Feebrack"},{"_id":2966870,"coord":{"lat":53.51083,"lon":-6.42722},"country":"IE","name":"Ashbourne"},{"_id":2965372,"coord":{"lat":53.411671,"lon":-6.44417},"country":"IE","name":"Clonee"},{"_id":2962785,"coord":{"lat":53.359169,"lon":-6.43889},"country":"IE","name":"Lucan"},{"_id":2962997,"coord":{"lat":51.592499,"lon":-9.13},"country":"IE","name":"Leap"},{"_id":2965408,"coord":{"lat":53.433891,"lon":-6.22639},"country":"IE","name":"Cloghran"},{"_id":2966753,"coord":{"lat":53.327499,"lon":-8.21944},"country":"IE","name":"Ballinasloe"},{"_id":2963218,"coord":{"lat":52.639721,"lon":-9.48333},"country":"IE","name":"Kilrush"},{"_id":2961911,"coord":{"lat":53.30056,"lon":-6.28278},"country":"IE","name":"Rathfarnham"},{"_id":2961730,"coord":{"lat":52.951111,"lon":-7.80167},"country":"IE","name":"Roscrea"},{"_id":2965529,"coord":{"lat":53.338612,"lon":-6.54361},"country":"IE","name":"Celbridge"},{"_id":2962262,"coord":{"lat":52.759998,"lon":-8.89556},"country":"IE","name":"Newmarket on Fergus"},{"_id":3315282,"coord":{"lat":53.279171,"lon":-6.14058},"country":"IE","name":"Sallynoggin"},{"_id":2966848,"coord":{"lat":53.61861,"lon":-6.92056},"country":"IE","name":"Athboy"},{"_id":2961929,"coord":{"lat":53.28278,"lon":-6.47278},"country":"IE","name":"Rathcoole"},{"_id":2961214,"coord":{"lat":52.681938,"lon":-7.80222},"country":"IE","name":"Thurles"},{"_id":2965504,"coord":{"lat":52.066669,"lon":-9.68333},"country":"IE","name":"Churchtown"},{"_id":2961651,"coord":{"lat":53.522301,"lon":-6.09308},"country":"IE","name":"An Ros"},{"_id":2963155,"coord":{"lat":51.7075,"lon":-8.53056},"country":"IE","name":"Kinsale"},{"_id":3301879,"coord":{"lat":52.284168,"lon":-6.76444},"country":"IE","name":"Rochestown"},{"_id":2963341,"coord":{"lat":53.213329,"lon":-7.44944},"country":"IE","name":"Killeigh"},{"_id":2654332,"coord":{"lat":55.133331,"lon":-7.45},"country":"IE","name":"Buncrana"},{"_id":2961362,"coord":{"lat":53.290489,"lon":-6.19487},"country":"IE","name":"Stillorgan"},{"_id":6691008,"coord":{"lat":53.287029,"lon":-6.21539},"country":"IE","name":"Kilmacud"},{"_id":2964782,"coord":{"lat":52.140831,"lon":-10.26889},"country":"IE","name":"Dingle"},{"_id":2962580,"coord":{"lat":53.549999,"lon":-7.71667},"country":"IE","name":"Moate"},{"_id":3311141,"coord":{"lat":54.08778,"lon":-8.32583},"country":"IE","name":"Derry"},{"_id":3312394,"coord":{"lat":53.28611,"lon":-9.0075},"country":"IE","name":"Ballybaan"},{"_id":2966370,"coord":{"lat":51.746941,"lon":-8.7425},"country":"IE","name":"Bandon"},{"_id":2962476,"coord":{"lat":53.113609,"lon":-7.32},"country":"IE","name":"Mountmellick"},{"_id":3315335,"coord":{"lat":53.374439,"lon":-6.40556},"country":"IE","name":"Annfield"},{"_id":2961299,"coord":{"lat":53.950001,"lon":-8.95},"country":"IE","name":"Swinford"},{"_id":2964817,"coord":{"lat":55.083328,"lon":-8.28944},"country":"IE","name":"Derrybeg"},{"_id":2962800,"coord":{"lat":53.196941,"lon":-8.56694},"country":"IE","name":"Loughrea"},{"_id":2962304,"coord":{"lat":52.861938,"lon":-8.19667},"country":"IE","name":"Nenagh"},{"_id":2965350,"coord":{"lat":52.824718,"lon":-6.56889},"country":"IE","name":"Clonmore"},{"_id":2966843,"coord":{"lat":53.296391,"lon":-8.74306},"country":"IE","name":"Athenry"},{"_id":2964558,"coord":{"lat":53.65667,"lon":-6.41917},"country":"IE","name":"Duleek"},{"_id":2964764,"coord":{"lat":53.713329,"lon":-6.27917},"country":"IE","name":"Donacarney"},{"_id":2966940,"coord":{"lat":53.897781,"lon":-6.74306},"country":"IE","name":"Ardagh"},{"_id":2965604,"coord":{"lat":52.23333,"lon":-9.46667},"country":"IE","name":"Castleisland"},{"_id":2963454,"coord":{"lat":52.049999,"lon":-8.95},"country":"IE","name":"Kilcorney"},{"_id":2966715,"coord":{"lat":53.633331,"lon":-9.23333},"country":"IE","name":"Ballinrobe"},{"_id":3312222,"coord":{"lat":53.249401,"lon":-9.21495},"country":"IE","name":"Furbogh"},{"_id":3315311,"coord":{"lat":53.391392,"lon":-6.24056},"country":"IE","name":"Beaumont"},{"_id":2961980,"coord":{"lat":52.818611,"lon":-8.86694},"country":"IE","name":"Quin"},{"_id":2964504,"coord":{"lat":53.834999,"lon":-6.39611},"country":"IE","name":"Dunleer"},{"_id":2962605,"coord":{"lat":53.981941,"lon":-6.91306},"country":"IE","name":"Milltown"},{"_id":2965852,"coord":{"lat":51.948608,"lon":-10.22222},"country":"IE","name":"Cahersiveen"},{"_id":2961497,"coord":{"lat":54,"lon":-6.9},"country":"IE","name":"Shercock"},{"_id":2962026,"coord":{"lat":53.034409,"lon":-7.29979},"country":"IE","name":"Portlaoise"},{"_id":2962945,"coord":{"lat":54.83194,"lon":-7.48361},"country":"IE","name":"Leifear"},{"_id":2962144,"coord":{"lat":53.416672,"lon":-9.33333},"country":"IE","name":"Oughterard"},{"_id":2961046,"coord":{"lat":53.149441,"lon":-8.3725},"country":"IE","name":"Tynagh"},{"_id":2965944,"coord":{"lat":52.42194,"lon":-8.66417},"country":"IE","name":"Bruree"},{"_id":2961208,"coord":{"lat":53.334999,"lon":-6.83861},"country":"IE","name":"Timahoe"},{"_id":2966911,"coord":{"lat":51.949169,"lon":-7.72528},"country":"IE","name":"Ardmore"},{"_id":2965340,"coord":{"lat":53.383331,"lon":-6.41667},"country":"IE","name":"Clonsilla"},{"_id":3301942,"coord":{"lat":52.352219,"lon":-6.64028},"country":"IE","name":"Harristown"},{"_id":2963217,"coord":{"lat":53.89056,"lon":-6.38889},"country":"IE","name":"Kilsaran"},{"_id":2961787,"coord":{"lat":54.131672,"lon":-8.39444},"country":"IE","name":"Riverstown"},{"_id":2962179,"coord":{"lat":53.76833,"lon":-7.15861},"country":"IE","name":"Oldcastle"},{"_id":7838920,"coord":{"lat":53.230438,"lon":-6.19509},"country":"IE","name":"Kilternan"},{"_id":3230593,"coord":{"lat":53.165001,"lon":-9.07944},"country":"IE","name":"Aughinish"},{"_id":2962153,"coord":{"lat":53.26833,"lon":-8.92},"country":"IE","name":"Oranmore"},{"_id":2965474,"coord":{"lat":53.338612,"lon":-8.945},"country":"IE","name":"Claregalway"},{"_id":2962353,"coord":{"lat":52.63583,"lon":-8.69667},"country":"IE","name":"Mungret"},{"_id":2961470,"coord":{"lat":52.74139,"lon":-8.77417},"country":"IE","name":"Sixmilebridge"},{"_id":3301124,"coord":{"lat":52.068329,"lon":-7.64333},"country":"IE","name":"Newtown"},{"_id":3315303,"coord":{"lat":53.391392,"lon":-6.14583},"country":"IE","name":"Kilbarrack"},{"_id":3312393,"coord":{"lat":53.29694,"lon":-8.99361},"country":"IE","name":"Ballybrit"},{"_id":3316260,"coord":{"lat":54.198059,"lon":-9.20528},"country":"IE","name":"Meelick"},{"_id":2962345,"coord":{"lat":53.783329,"lon":-9.65},"country":"IE","name":"Murrisk"},{"_id":2966396,"coord":{"lat":53.118061,"lon":-9.15028},"country":"IE","name":"Ballyvaghan"},{"_id":2965367,"coord":{"lat":54.183331,"lon":-7.23333},"country":"IE","name":"Clones"},{"_id":2965402,"coord":{"lat":51.623058,"lon":-8.87056},"country":"IE","name":"Clonakilty"},{"_id":2961459,"coord":{"lat":51.549999,"lon":-9.26667},"country":"IE","name":"Skibbereen"},{"_id":2963962,"coord":{"lat":52.674721,"lon":-6.2925},"country":"IE","name":"Gorey"},{"_id":2960951,"coord":{"lat":52.949169,"lon":-8.37139},"country":"IE","name":"Whitegate"},{"_id":2962975,"coord":{"lat":54.116669,"lon":-8},"country":"IE","name":"County Leitrim"},{"_id":3311596,"coord":{"lat":54.459438,"lon":-8.28222},"country":"IE","name":"Gubacreeny"},{"_id":2964846,"coord":{"lat":53.610561,"lon":-7.0925},"country":"IE","name":"Delvin"},{"_id":7838916,"coord":{"lat":53.365971,"lon":-6.23985},"country":"IE","name":"Fairview"},{"_id":2965715,"coord":{"lat":51.811668,"lon":-8.39861},"country":"IE","name":"Carrigaline"},{"_id":2963888,"coord":{"lat":53.82056,"lon":-6.33472},"country":"IE","name":"Grangebellew"},{"_id":2962310,"coord":{"lat":53.58667,"lon":-6.28972},"country":"IE","name":"Naul"},{"_id":2965733,"coord":{"lat":53.972778,"lon":-6.71889},"country":"IE","name":"Carrickmacross"},{"_id":2964743,"coord":{"lat":53.693062,"lon":-6.41972},"country":"IE","name":"Donore"},{"_id":2964326,"coord":{"lat":52.157501,"lon":-7.22639},"country":"IE","name":"Fennor"},{"_id":3310833,"coord":{"lat":54.089439,"lon":-8.09444},"country":"IE","name":"Greagh"},{"_id":2964408,"coord":{"lat":54.340561,"lon":-6.95917},"country":"IE","name":"Emyvale"},{"_id":3310670,"coord":{"lat":54.356941,"lon":-7.02778},"country":"IE","name":"Carrickroe"},{"_id":2963970,"coord":{"lat":54.333328,"lon":-7.05},"country":"IE","name":"Golan"},{"_id":2964103,"coord":{"lat":54.318611,"lon":-6.895},"country":"IE","name":"Glaslough"},{"_id":2961303,"coord":{"lat":54.194721,"lon":-7.70444},"country":"IE","name":"Swanlinbar"},{"_id":2965773,"coord":{"lat":53.757778,"lon":-6.83944},"country":"IE","name":"Carlanstown"},{"_id":2963235,"coord":{"lat":53.866669,"lon":-7.31667},"country":"IE","name":"Kilnaleck"},{"_id":2966550,"coord":{"lat":53.86528,"lon":-7.20278},"country":"IE","name":"Ballyjamesduff"},{"_id":2965352,"coord":{"lat":53.662498,"lon":-7.01056},"country":"IE","name":"Clonmellon"},{"_id":2960874,"coord":{"lat":53.673328,"lon":-6.57167},"country":"IE","name":"Yellow Furze"},{"_id":2963885,"coord":{"lat":53.762779,"lon":-6.54667},"country":"IE","name":"Grangegeeth"},{"_id":2965420,"coord":{"lat":53.79361,"lon":-6.2375},"country":"IE","name":"Clogherhead"},{"_id":2962378,"coord":{"lat":53.456669,"lon":-6.63167},"country":"IE","name":"Mullagh"},{"_id":2963557,"coord":{"lat":53.677219,"lon":-6.31917},"country":"IE","name":"Julianstown"},{"_id":3316390,"coord":{"lat":53.666389,"lon":-6.24083},"country":"IE","name":"Mosney"},{"_id":2961207,"coord":{"lat":51.64222,"lon":-8.77306},"country":"IE","name":"Timoleague"},{"_id":2965887,"coord":{"lat":51.597221,"lon":-8.72694},"country":"IE","name":"Butlerstown"},{"_id":3316294,"coord":{"lat":53.477501,"lon":-6.14306},"country":"IE","name":"Corballis"},{"_id":2963958,"coord":{"lat":53.066391,"lon":-8.81667},"country":"IE","name":"Gort"},{"_id":2963151,"coord":{"lat":53.139439,"lon":-8.93361},"country":"IE","name":"Kinvarra"},{"_id":2963792,"coord":{"lat":53.466671,"lon":-9.1},"country":"IE","name":"Headford"},{"_id":2961994,"coord":{"lat":53.290279,"lon":-6.75389},"country":"IE","name":"Prosperous"},{"_id":2963275,"coord":{"lat":52.400002,"lon":-8.57722},"country":"IE","name":"Kilmallock"},{"_id":2962587,"coord":{"lat":52.265831,"lon":-8.26806},"country":"IE","name":"Mitchelstown"},{"_id":2964320,"coord":{"lat":52.13583,"lon":-8.27583},"country":"IE","name":"Fermoy"},{"_id":2962714,"coord":{"lat":52.133331,"lon":-8.63333},"country":"IE","name":"Mallow"},{"_id":2966101,"coord":{"lat":53.169998,"lon":-6.5325},"country":"IE","name":"Blessington"},{"_id":2965649,"coord":{"lat":54.116669,"lon":-6.73333},"country":"IE","name":"Castleblayney"},{"_id":2962630,"coord":{"lat":51.91526,"lon":-8.18052},"country":"IE","name":"Midleton"},{"_id":2964114,"coord":{"lat":51.915829,"lon":-8.39972},"country":"IE","name":"Glanmire"},{"_id":2961224,"coord":{"lat":52.526669,"lon":-7.13722},"country":"IE","name":"Thomastown"},{"_id":2963460,"coord":{"lat":53.102779,"lon":-6.065},"country":"IE","name":"Kilcoole"},{"_id":2961938,"coord":{"lat":53.22139,"lon":-6.995},"country":"IE","name":"Rathangan"},{"_id":2965945,"coord":{"lat":52.474171,"lon":-8.54583},"country":"IE","name":"Bruff"},{"_id":2963902,"coord":{"lat":53.76667,"lon":-7.5},"country":"IE","name":"Granard"},{"_id":2961079,"coord":{"lat":52.800282,"lon":-6.73694},"country":"IE","name":"Tullow"},{"_id":2964401,"coord":{"lat":53.192501,"lon":-6.16917},"country":"IE","name":"Enniskerry"},{"_id":2963444,"coord":{"lat":53.13028,"lon":-6.74444},"country":"IE","name":"Kilcullen"},{"_id":2961655,"coord":{"lat":52.700001,"lon":-6.98667},"country":"IE","name":"Royaloak"},{"_id":2966784,"coord":{"lat":53.900002,"lon":-8.58333},"country":"IE","name":"Ballaghaderreen"},{"_id":3313832,"coord":{"lat":53.174171,"lon":-7.72556},"country":"IE","name":"Kilcormac"},{"_id":2967095,"coord":{"lat":52.38139,"lon":-9.3025},"country":"IE","name":"Abbeyfeale"},{"_id":2961918,"coord":{"lat":52.926392,"lon":-6.23556},"country":"IE","name":"Rathdrum"},{"_id":2965516,"coord":{"lat":52.349998,"lon":-8.68333},"country":"IE","name":"Rath Luirc"},{"_id":2961607,"coord":{"lat":53.24889,"lon":-6.66611},"country":"IE","name":"Sallins"},{"_id":2966668,"coord":{"lat":54.799999,"lon":-7.78333},"country":"IE","name":"Ballybofey"},{"_id":2963555,"coord":{"lat":52.166672,"lon":-8.9},"country":"IE","name":"Kanturk"},{"_id":2965726,"coord":{"lat":52.349171,"lon":-7.41306},"country":"IE","name":"Carrick-on-Suir"},{"_id":2963472,"coord":{"lat":53.402222,"lon":-6.67083},"country":"IE","name":"Kilcock"},{"_id":2966796,"coord":{"lat":53.916672,"lon":-6.96667},"country":"IE","name":"Bailieborough"},{"_id":2965484,"coord":{"lat":53.291389,"lon":-6.68917},"country":"IE","name":"Clane"},{"_id":2965653,"coord":{"lat":53.900829,"lon":-6.39028},"country":"IE","name":"Castlebellingham"},{"_id":2961077,"coord":{"lat":53.736111,"lon":-6.42278},"country":"IE","name":"Tullyallen"},{"_id":2965643,"coord":{"lat":52.80611,"lon":-7.21056},"country":"IE","name":"Castlecomer"},{"_id":2962769,"coord":{"lat":53.527431,"lon":-6.16423},"country":"IE","name":"Lusk"},{"_id":2966201,"coord":{"lat":54.099998,"lon":-7.45},"country":"IE","name":"Belturbet"},{"_id":2965158,"coord":{"lat":54.072498,"lon":-7.08194},"country":"IE","name":"Cootehill"},{"_id":2965873,"coord":{"lat":52.376942,"lon":-7.92167},"country":"IE","name":"Cahir"},{"_id":2962804,"coord":{"lat":53.243889,"lon":-6.13306},"country":"IE","name":"Loughlinstown"},{"_id":2964765,"coord":{"lat":53.487221,"lon":-6.15194},"country":"IE","name":"Donabate"},{"_id":2962706,"coord":{"lat":54.306389,"lon":-8.17611},"country":"IE","name":"Manorhamilton"},{"_id":3308992,"coord":{"lat":54.89056,"lon":-8.14667},"country":"IE","name":"Drumnaha"},{"_id":2961905,"coord":{"lat":52.524441,"lon":-8.93806},"country":"IE","name":"Rathkeale"},{"_id":2962283,"coord":{"lat":52.449169,"lon":-9.06111},"country":"IE","name":"Newcastle West"},{"_id":2965421,"coord":{"lat":53.75,"lon":-9.23333},"country":"IE","name":"Clogher"},{"_id":2961237,"coord":{"lat":52.79472,"lon":-7.83389},"country":"IE","name":"Templemore"},{"_id":2963376,"coord":{"lat":52.806671,"lon":-8.44361},"country":"IE","name":"Killaloe"},{"_id":2965267,"coord":{"lat":51.900002,"lon":-8.78333},"country":"IE","name":"Coachford"},{"_id":2963400,"coord":{"lat":52.679169,"lon":-9.64417},"country":"IE","name":"Kilkee"},{"_id":3316137,"coord":{"lat":54.180828,"lon":-9.72972},"country":"IE","name":"Glencullin Lower"},{"_id":2966107,"coord":{"lat":51.933331,"lon":-8.56667},"country":"IE","name":"Blarney"},{"_id":2963277,"coord":{"lat":52.827782,"lon":-9.11806},"country":"IE","name":"Kilmaley"},{"_id":2965570,"coord":{"lat":53.76667,"lon":-8.5},"country":"IE","name":"Castlerea"},{"_id":2962539,"coord":{"lat":52.975559,"lon":-6.815},"country":"IE","name":"Moone"},{"_id":2964995,"coord":{"lat":52.384998,"lon":-6.49528},"country":"IE","name":"Crossabeg"},{"_id":2960869,"coord":{"lat":51.950001,"lon":-7.85056},"country":"IE","name":"Youghal"},{"_id":2966406,"coord":{"lat":54.5,"lon":-8.18333},"country":"IE","name":"Ballyshannon"},{"_id":2964802,"coord":{"lat":52.909439,"lon":-8.57333},"country":"IE","name":"Derrymore"},{"_id":2962745,"coord":{"lat":51.900002,"lon":-8.95},"country":"IE","name":"Macroom"},{"_id":2966788,"coord":{"lat":53.799999,"lon":-9.13333},"country":"IE","name":"Balla"},{"_id":2965073,"coord":{"lat":52.695,"lon":-8.75972},"country":"IE","name":"Cratloe"},{"_id":2963389,"coord":{"lat":52.806671,"lon":-8.74583},"country":"IE","name":"Kilkishen"},{"_id":2961096,"coord":{"lat":52.864719,"lon":-8.76056},"country":"IE","name":"Tulla"},{"_id":6691005,"coord":{"lat":53.31065,"lon":-6.22066},"country":"IE","name":"Belfield"},{"_id":2966371,"coord":{"lat":53.18861,"lon":-7.98667},"country":"IE","name":"Banagher"},{"_id":2961920,"coord":{"lat":52.854721,"lon":-7.58028},"country":"IE","name":"Rathdowney"},{"_id":3311782,"coord":{"lat":53.000278,"lon":-9.12611},"country":"IE","name":"Deerpark"},{"_id":2963669,"coord":{"lat":51.7654,"lon":-8.65705},"country":"IE","name":"Innishannon"},{"_id":3312236,"coord":{"lat":53.34444,"lon":-9.20583},"country":"IE","name":"Drimmavohaun"},{"_id":2961960,"coord":{"lat":53.38681,"lon":-6.18067},"country":"IE","name":"Raheny"},{"_id":2961523,"coord":{"lat":53.226109,"lon":-6.12444},"country":"IE","name":"Shankill"},{"_id":2962459,"coord":{"lat":52.930561,"lon":-8.42583},"country":"IE","name":"Mountshannon"},{"_id":3315323,"coord":{"lat":53.375278,"lon":-6.33056},"country":"IE","name":"Ashtown"},{"_id":2965731,"coord":{"lat":53.251942,"lon":-6.17111},"country":"IE","name":"Carrickmines"},{"_id":2961171,"coord":{"lat":53.842781,"lon":-6.30278},"country":"IE","name":"Togher"},{"_id":2964524,"coord":{"lat":54.951111,"lon":-8.35917},"country":"IE","name":"Dungloe"},{"_id":2966916,"coord":{"lat":51.740559,"lon":-9.89556},"country":"IE","name":"Ardgroom"},{"_id":2961282,"coord":{"lat":52.092781,"lon":-8.00806},"country":"IE","name":"Tallow"},{"_id":3315276,"coord":{"lat":53.28167,"lon":-6.33917},"country":"IE","name":"Firhouse"},{"_id":3307633,"coord":{"lat":55.030281,"lon":-7.38861},"country":"IE","name":"Bunnamayne"},{"_id":3311631,"coord":{"lat":54.273609,"lon":-7.90278},"country":"IE","name":"Cornagee"},{"_id":2963421,"coord":{"lat":52.28083,"lon":-9.84139},"country":"IE","name":"Kilfenora"},{"_id":2965207,"coord":{"lat":52.756939,"lon":-7.12222},"country":"IE","name":"Coolcullen"},{"_id":3315281,"coord":{"lat":53.253868,"lon":-6.13526},"country":"IE","name":"Ballybrack"},{"_id":2963295,"coord":{"lat":54.633331,"lon":-8.45},"country":"IE","name":"Killybegs"},{"_id":2964496,"coord":{"lat":51.716671,"lon":-9.11667},"country":"IE","name":"Dunmanway"},{"_id":3313946,"coord":{"lat":53.353611,"lon":-7.41917},"country":"IE","name":"Cappanrush"},{"_id":3311784,"coord":{"lat":53.041111,"lon":-9.1475},"country":"IE","name":"Caherconnell"},{"_id":2963426,"coord":{"lat":52.246109,"lon":-8.42722},"country":"IE","name":"Kildorrery"},{"_id":3309287,"coord":{"lat":54.968891,"lon":-7.44139},"country":"IE","name":"Cloon"},{"_id":3311217,"coord":{"lat":54.339439,"lon":-8.50111},"country":"IE","name":"Milltown"},{"_id":2966082,"coord":{"lat":52.619999,"lon":-8.46111},"country":"IE","name":"Boher"},{"_id":2966749,"coord":{"lat":51.883331,"lon":-8.58333},"country":"IE","name":"Ballincollig"},{"_id":2961235,"coord":{"lat":53.309719,"lon":-6.28528},"country":"IE","name":"Terenure"},{"_id":2965249,"coord":{"lat":53.781109,"lon":-6.48694},"country":"IE","name":"Collon"},{"_id":2963487,"coord":{"lat":53.456108,"lon":-6.39639},"country":"IE","name":"Kilbride Cross Roads"},{"_id":3315280,"coord":{"lat":53.26667,"lon":-6.17417},"country":"IE","name":"Foxrock"},{"_id":3292102,"coord":{"lat":51.999722,"lon":-9.06139},"country":"IE","name":"Glantane"},{"_id":2962010,"coord":{"lat":53.089169,"lon":-8.21889},"country":"IE","name":"Portumna"},{"_id":2963963,"coord":{"lat":52.631111,"lon":-6.99472},"country":"IE","name":"Goresbridge"},{"_id":3290748,"coord":{"lat":52.089722,"lon":-9.56528},"country":"IE","name":"Aghacurreen"},{"_id":6691049,"coord":{"lat":53.378311,"lon":-6.20573},"country":"IE","name":"Kilester"},{"_id":3292071,"coord":{"lat":52.028889,"lon":-8.74611},"country":"IE","name":"Beenalaght"},{"_id":2961364,"coord":{"lat":53.252499,"lon":-6.21361},"country":"IE","name":"Stepaside"},{"_id":3315322,"coord":{"lat":53.329639,"lon":-6.33963},"country":"IE","name":"Walkinstown"},{"_id":2962851,"coord":{"lat":52.40556,"lon":-9.61694},"country":"IE","name":"Lixnaw"},{"_id":2965896,"coord":{"lat":54.985561,"lon":-8.43111},"country":"IE","name":"Burtonport"},{"_id":2964352,"coord":{"lat":52.166672,"lon":-9.55},"country":"IE","name":"Farranfore"},{"_id":2966842,"coord":{"lat":53.153889,"lon":-6.805},"country":"IE","name":"Athgarvan"},{"_id":2964822,"coord":{"lat":53.341671,"lon":-6.94111},"country":"IE","name":"Derrinturn"},{"_id":2966529,"coord":{"lat":52.943611,"lon":-7.04222},"country":"IE","name":"Ballylynan"},{"_id":2965356,"coord":{"lat":55.26667,"lon":-7.41667},"country":"IE","name":"Clonmany"},{"_id":3309350,"coord":{"lat":54.10833,"lon":-6.3475},"country":"IE","name":"Edentober"},{"_id":2966689,"coord":{"lat":52.740559,"lon":-6.76778},"country":"IE","name":"Ballon"},{"_id":2961910,"coord":{"lat":53.593609,"lon":-6.48611},"country":"IE","name":"Rathfeigh"},{"_id":3230815,"coord":{"lat":51.962219,"lon":-7.7175},"country":"IE","name":"Curragh"},{"_id":2964409,"coord":{"lat":53.096111,"lon":-7.21},"country":"IE","name":"Emo"},{"_id":2964529,"coord":{"lat":52.342781,"lon":-6.97444},"country":"IE","name":"Dunganstown"},{"_id":3302279,"coord":{"lat":52.455559,"lon":-6.95694},"country":"IE","name":"The Rower"},{"_id":2966608,"coord":{"lat":52.146671,"lon":-8.05361},"country":"IE","name":"Ballyduff"},{"_id":2961409,"coord":{"lat":51.833328,"lon":-9.9},"country":"IE","name":"Sneem"},{"_id":2963301,"coord":{"lat":53.51194,"lon":-7.1425},"country":"IE","name":"Killucan"},{"_id":2962019,"coord":{"lat":53.423061,"lon":-6.1375},"country":"IE","name":"Portmarnock"},{"_id":2965467,"coord":{"lat":52.632221,"lon":-8.72889},"country":"IE","name":"Clarina"},{"_id":2966981,"coord":{"lat":53.392502,"lon":-9.06639},"country":"IE","name":"Annaghdown"},{"_id":2965727,"coord":{"lat":53.946941,"lon":-8.09},"country":"IE","name":"Carrick-on-Shannon"},{"_id":2965932,"coord":{"lat":52.655281,"lon":-6.65611},"country":"IE","name":"Bunclody"},{"_id":2965388,"coord":{"lat":53.533329,"lon":-9.36667},"country":"IE","name":"Clonbur"},{"_id":2962597,"coord":{"lat":52.855282,"lon":-9.39833},"country":"IE","name":"Miltown Malbay"},{"_id":2962298,"coord":{"lat":52.340279,"lon":-6.78444},"country":"IE","name":"Newbawn"},{"_id":2963162,"coord":{"lat":54.450001,"lon":-8.28333},"country":"IE","name":"Kinlough"},{"_id":2964848,"coord":{"lat":53.130829,"lon":-6.09139},"country":"IE","name":"Delgany"},{"_id":3311855,"coord":{"lat":52.917221,"lon":-8.58056},"country":"IE","name":"Capparoe"},{"_id":2964466,"coord":{"lat":52.14444,"lon":-7.51778},"country":"IE","name":"Durrow Cross Roads"},{"_id":2966585,"coord":{"lat":51.827499,"lon":-8.46389},"country":"IE","name":"Ballygarvan"},{"_id":2966056,"coord":{"lat":52.93639,"lon":-7.63639},"country":"IE","name":"Borris in Ossory"},{"_id":2964311,"coord":{"lat":52.191669,"lon":-6.85167},"country":"IE","name":"Fethard"},{"_id":2967096,"coord":{"lat":52.349998,"lon":-9.68333},"country":"IE","name":"Abbeydorney"},{"_id":2960955,"coord":{"lat":52.10944,"lon":-7.74944},"country":"IE","name":"Whitechurch"},{"_id":2963640,"coord":{"lat":54,"lon":-6.58333},"country":"IE","name":"Inniskeen"},{"_id":3309085,"coord":{"lat":54.958889,"lon":-8.39111},"country":"IE","name":"Meenmore"},{"_id":2963959,"coord":{"lat":53.64056,"lon":-6.23778},"country":"IE","name":"Gormanston"},{"_id":2961981,"coord":{"lat":52.81694,"lon":-9.45083},"country":"IE","name":"Quilty"},{"_id":2966922,"coord":{"lat":52.333328,"lon":-9.78333},"country":"IE","name":"Ardfert"},{"_id":2966857,"coord":{"lat":52.59972,"lon":-8.97556},"country":"IE","name":"Askeaton"},{"_id":2964747,"coord":{"lat":52.216671,"lon":-8.58333},"country":"IE","name":"Doneraile"},{"_id":2963718,"coord":{"lat":52.452499,"lon":-7.24667},"country":"IE","name":"Hugginstown"},{"_id":2965857,"coord":{"lat":53.5,"lon":-9.01667},"country":"IE","name":"Caherlistrane"},{"_id":2965248,"coord":{"lat":54.183331,"lon":-8.5},"country":"IE","name":"Collooney"},{"_id":2962919,"coord":{"lat":53.03278,"lon":-9.28833},"country":"IE","name":"Lisdoonvarna"},{"_id":2966956,"coord":{"lat":52.138062,"lon":-7.30444},"country":"IE","name":"Annestown"},{"_id":2963499,"coord":{"lat":53.369438,"lon":-7.50333},"country":"IE","name":"Kilbeggan"},{"_id":2966058,"coord":{"lat":52.599998,"lon":-6.9175},"country":"IE","name":"Borris"},{"_id":2964985,"coord":{"lat":51.798328,"lon":-8.30083},"country":"IE","name":"Crosshaven"},{"_id":2965841,"coord":{"lat":52.544998,"lon":-7.39111},"country":"IE","name":"Callan"},{"_id":2965216,"coord":{"lat":54.178059,"lon":-8.59972},"country":"IE","name":"Coolaney"},{"_id":2965980,"coord":{"lat":52.804722,"lon":-8.63222},"country":"IE","name":"Broadford"},{"_id":3312417,"coord":{"lat":53.275829,"lon":-9.20556},"country":"IE","name":"Shannafreaghoge"},{"_id":2963136,"coord":{"lat":52.450001,"lon":-8.96667},"country":"IE","name":"Knockaderry"},{"_id":2965466,"coord":{"lat":53.228611,"lon":-8.8775},"country":"IE","name":"Clarinbridge"},{"_id":2964233,"coord":{"lat":53.98333,"lon":-9.11667},"country":"IE","name":"Foxford"},{"_id":3315082,"coord":{"lat":53.109169,"lon":-6.10667},"country":"IE","name":"Kilpedder"},{"_id":3315009,"coord":{"lat":53.003891,"lon":-6.20056},"country":"IE","name":"Ballycullen"},{"_id":2966208,"coord":{"lat":54.224998,"lon":-9.99083},"country":"IE","name":"Belmullet"},{"_id":2962658,"coord":{"lat":53.173061,"lon":-8.0875},"country":"IE","name":"Meelick"},{"_id":3313244,"coord":{"lat":53.210831,"lon":-8.22111},"country":"IE","name":"Craughwell"},{"_id":2965111,"coord":{"lat":52.947781,"lon":-9.06306},"country":"IE","name":"Corofin"},{"_id":2965616,"coord":{"lat":52.25806,"lon":-10.0225},"country":"IE","name":"Castlegregory"},{"_id":2965396,"coord":{"lat":53.147499,"lon":-7.52444},"country":"IE","name":"Clonaslee"},{"_id":3316286,"coord":{"lat":53.43528,"lon":-6.1775},"country":"IE","name":"Feltrim"},{"_id":2966492,"coord":{"lat":54.083328,"lon":-8.51667},"country":"IE","name":"Ballymote"},{"_id":2966690,"coord":{"lat":53.53167,"lon":-6.96111},"country":"IE","name":"Ballivor"},{"_id":2966596,"coord":{"lat":54.068062,"lon":-8.19944},"country":"IE","name":"Ballyfarnan"},{"_id":2961342,"coord":{"lat":53.315559,"lon":-6.63472},"country":"IE","name":"Straffan"},{"_id":2964973,"coord":{"lat":55.133331,"lon":-8.1},"country":"IE","name":"Falcarragh"},{"_id":2963609,"coord":{"lat":52.488892,"lon":-7.06278},"country":"IE","name":"Inistioge"},{"_id":2963208,"coord":{"lat":53.849998,"lon":-9},"country":"IE","name":"Kiltamagh"},{"_id":2961358,"coord":{"lat":52.60722,"lon":-8.87306},"country":"IE","name":"Stonehall"},{"_id":2961574,"coord":{"lat":52.898891,"lon":-8.50917},"country":"IE","name":"Scarriff"},{"_id":3307495,"coord":{"lat":55.049171,"lon":-7.81639},"country":"IE","name":"Termon"},{"_id":2964507,"coord":{"lat":53.055561,"lon":-6.70389},"country":"IE","name":"Dunlavin"},{"_id":2965226,"coord":{"lat":54.860828,"lon":-7.66556},"country":"IE","name":"Convoy"},{"_id":2961481,"coord":{"lat":53.516811,"lon":-9.08902},"country":"IE","name":"Shrule"},{"_id":2961884,"coord":{"lat":52.990559,"lon":-6.08528},"country":"IE","name":"Rathnew"},{"_id":3313413,"coord":{"lat":53.40583,"lon":-7.97333},"country":"IE","name":"Kilnamanagh"},{"_id":3300045,"coord":{"lat":51.971661,"lon":-8.26498},"country":"IE","name":"Leamlara"},{"_id":2966132,"coord":{"lat":51.896938,"lon":-8.41},"country":"IE","name":"Blackrock"},{"_id":2961770,"coord":{"lat":53.414169,"lon":-7.29611},"country":"IE","name":"Rochfortbridge"},{"_id":2967076,"coord":{"lat":52.561939,"lon":-8.79556},"country":"IE","name":"Adare"},{"_id":3305688,"coord":{"lat":52.888062,"lon":-8.4575},"country":"IE","name":"Ogonnelloe"},{"_id":2961228,"coord":{"lat":53.050282,"lon":-8.19889},"country":"IE","name":"Terryglass"},{"_id":2966245,"coord":{"lat":51.738892,"lon":-8.49},"country":"IE","name":"Belgooly"},{"_id":2962226,"coord":{"lat":53.166111,"lon":-9.02083},"country":"IE","name":"Newtownlynch"},{"_id":3313917,"coord":{"lat":53.269169,"lon":-7.77639},"country":"IE","name":"Kilcolgan"},{"_id":2966555,"coord":{"lat":52.149441,"lon":-8.40056},"country":"IE","name":"Ballyhooly"},{"_id":2964584,"coord":{"lat":54.049999,"lon":-8.03333},"country":"IE","name":"Drumshanbo"},{"_id":2966122,"coord":{"lat":52.446671,"lon":-6.34528},"country":"IE","name":"Blackwater"},{"_id":2963259,"coord":{"lat":52.72139,"lon":-9.31861},"country":"IE","name":"Kilmihil"},{"_id":2962540,"coord":{"lat":52.28944,"lon":-7.24833},"country":"IE","name":"Mooncoin"},{"_id":2966037,"coord":{"lat":52.166672,"lon":-9.7},"country":"IE","name":"Brackhill"},{"_id":3309865,"coord":{"lat":54.1325,"lon":-7.07583},"country":"IE","name":"Kilmore"},{"_id":2965413,"coord":{"lat":52.940281,"lon":-8.03556},"country":"IE","name":"Cloughjordan"},{"_id":2964120,"coord":{"lat":51.573059,"lon":-9.11889},"country":"IE","name":"Glandore"},{"_id":2961617,"coord":{"lat":52.597221,"lon":-8.70889},"country":"IE","name":"Patrickswell"},{"_id":2964329,"coord":{"lat":52.28083,"lon":-9.8675},"country":"IE","name":"Fenit"},{"_id":2966719,"coord":{"lat":53.73333,"lon":-8.63333},"country":"IE","name":"Ballinlough"},{"_id":2963399,"coord":{"lat":53.866669,"lon":-8.85},"country":"IE","name":"Kilkelly"},{"_id":2964052,"coord":{"lat":52.962219,"lon":-6.14583},"country":"IE","name":"Glenealy"},{"_id":3301342,"coord":{"lat":52.200829,"lon":-7.3},"country":"IE","name":"Carrickphilip"},{"_id":2965780,"coord":{"lat":53.358608,"lon":-6.96583},"country":"IE","name":"Carbury"},{"_id":2961043,"coord":{"lat":53.388889,"lon":-7.37361},"country":"IE","name":"Tyrrellspass"},{"_id":2963062,"coord":{"lat":53.366669,"lon":-8.86667},"country":"IE","name":"Lackagh"},{"_id":2964589,"coord":{"lat":53.866669,"lon":-7.91667},"country":"IE","name":"Dromod"},{"_id":3315306,"coord":{"lat":53.409439,"lon":-6.17417},"country":"IE","name":"Balgriffin"},{"_id":2966231,"coord":{"lat":53.933331,"lon":-7.41667},"country":"IE","name":"Bellananagh"},{"_id":2960948,"coord":{"lat":53.75,"lon":-7.93333},"country":"IE","name":"Whitehall"},{"_id":2963736,"coord":{"lat":52.61639,"lon":-7.77528},"country":"IE","name":"Horse and Jockey"},{"_id":2965645,"coord":{"lat":52.386391,"lon":-6.44944},"country":"IE","name":"Castlebridge"},{"_id":2964293,"coord":{"lat":53.76667,"lon":-7.38333},"country":"IE","name":"Finnea"},{"_id":3312459,"coord":{"lat":53.399719,"lon":-8.99917},"country":"IE","name":"Corrandulla"},{"_id":2963998,"coord":{"lat":52.570278,"lon":-9.28278},"country":"IE","name":"Glin"},{"_id":2966650,"coord":{"lat":52.580559,"lon":-6.56806},"country":"IE","name":"Ballycarney"},{"_id":2966726,"coord":{"lat":51.814171,"lon":-8.53694},"country":"IE","name":"Ballinhassig"},{"_id":2965834,"coord":{"lat":53.599998,"lon":-7.93333},"country":"IE","name":"Caltragh"},{"_id":2961182,"coord":{"lat":54.049999,"lon":-8.73333},"country":"IE","name":"Tobercurry"},{"_id":2966530,"coord":{"lat":52.326939,"lon":-7.97889},"country":"IE","name":"Ballylooby"},{"_id":2966649,"coord":{"lat":53.799999,"lon":-9.21667},"country":"IE","name":"Belcarra"},{"_id":2962025,"coord":{"lat":52.28833,"lon":-7.32056},"country":"IE","name":"Portlaw"},{"_id":2964318,"coord":{"lat":52.588329,"lon":-6.49972},"country":"IE","name":"Ferns"},{"_id":3311721,"coord":{"lat":52.961109,"lon":-9.23583},"country":"IE","name":"Ballagh"},{"_id":2962472,"coord":{"lat":53.816669,"lon":-7.25},"country":"IE","name":"Mount Nugent"},{"_id":2964109,"coord":{"lat":52.186668,"lon":-8.3575},"country":"IE","name":"Glanworth"},{"_id":2966271,"coord":{"lat":52.066669,"lon":-9.63333},"country":"IE","name":"Beaufort House"},{"_id":2964755,"coord":{"lat":53.019169,"lon":-6.61472},"country":"IE","name":"Donard"},{"_id":2964152,"coord":{"lat":53.566109,"lon":-6.38556},"country":"IE","name":"Garristown"},{"_id":2964976,"coord":{"lat":52.773331,"lon":-7.61139},"country":"IE","name":"Crosspatrick"},{"_id":2966844,"coord":{"lat":52.459721,"lon":-9.28944},"country":"IE","name":"Athea"},{"_id":3315233,"coord":{"lat":53.246109,"lon":-6.55139},"country":"IE","name":"Porterstown"},{"_id":2962981,"coord":{"lat":52.936668,"lon":-9.34528},"country":"IE","name":"Lehinch"},{"_id":3314744,"coord":{"lat":53.348888,"lon":-7.21556},"country":"IE","name":"Killure"},{"_id":2964951,"coord":{"lat":55.283329,"lon":-7.16667},"country":"IE","name":"Culdaff"},{"_id":2965761,"coord":{"lat":55.25,"lon":-7.26667},"country":"IE","name":"Carndonagh"},{"_id":2965694,"coord":{"lat":51.908329,"lon":-8.26333},"country":"IE","name":"Carrigtwohill"},{"_id":2963158,"coord":{"lat":53.452221,"lon":-7.09972},"country":"IE","name":"Kinnegad"},{"_id":2965590,"coord":{"lat":51.910278,"lon":-8.05389},"country":"IE","name":"Castlemartyr"},{"_id":6691027,"coord":{"lat":53.367149,"lon":-6.2683},"country":"IE","name":"Drumcondra"},{"_id":2966667,"coord":{"lat":53.52528,"lon":-6.2625},"country":"IE","name":"Ballyboghil"},{"_id":2963036,"coord":{"lat":53.666672,"lon":-7.98333},"country":"IE","name":"Lanesborough"},{"_id":2964322,"coord":{"lat":53.26944,"lon":-7.82694},"country":"IE","name":"Ferbane"},{"_id":2965276,"coord":{"lat":51.862782,"lon":-8.12444},"country":"IE","name":"Cloyne"},{"_id":3303300,"coord":{"lat":52.752499,"lon":-6.70389},"country":"IE","name":"Ardattin"},{"_id":2961231,"coord":{"lat":53.763329,"lon":-6.26778},"country":"IE","name":"Termonfeckin"},{"_id":2965145,"coord":{"lat":53.957218,"lon":-6.62361},"country":"IE","name":"Corcreeghagh"},{"_id":2965946,"coord":{"lat":54.636391,"lon":-8.38333},"country":"IE","name":"Bruckless"},{"_id":2960987,"coord":{"lat":52.011391,"lon":-8.34417},"country":"IE","name":"Watergrasshill"},{"_id":2961792,"coord":{"lat":51.7775,"lon":-8.49778},"country":"IE","name":"Riverstick"},{"_id":2963283,"coord":{"lat":52.209721,"lon":-7.42583},"country":"IE","name":"Kilmacthomas"},{"_id":2960924,"coord":{"lat":53.683331,"lon":-8.58333},"country":"IE","name":"Williamstown"},{"_id":2964710,"coord":{"lat":52.731941,"lon":-9.52278},"country":"IE","name":"Doonbeg"},{"_id":2963850,"coord":{"lat":52.015259,"lon":-8.60882},"country":"IE","name":"Grenagh"},{"_id":2966357,"coord":{"lat":52.116669,"lon":-8.9},"country":"IE","name":"Banteer"},{"_id":2965902,"coord":{"lat":53.146671,"lon":-9.07556},"country":"IE","name":"Burren"},{"_id":2965872,"coord":{"lat":52.964722,"lon":-8.64528},"country":"IE","name":"Caher"},{"_id":2962362,"coord":{"lat":52.367222,"lon":-7.16472},"country":"IE","name":"Mullinavat"},{"_id":2962570,"coord":{"lat":53.916672,"lon":-7.86667},"country":"IE","name":"Mohill"},{"_id":2962139,"coord":{"lat":52.852779,"lon":-6.21694},"country":"IE","name":"Avoca"},{"_id":2965595,"coord":{"lat":52.086941,"lon":-8.27889},"country":"IE","name":"Castlelyons"},{"_id":2964212,"coord":{"lat":53.866669,"lon":-8.4},"country":"IE","name":"Frenchpark"},{"_id":2960980,"coord":{"lat":52.263329,"lon":-6.77833},"country":"IE","name":"Wellingtonbridge"},{"_id":2963261,"coord":{"lat":53.55917,"lon":-6.65667},"country":"IE","name":"Kilmessan"},{"_id":2967030,"coord":{"lat":51.85722,"lon":-8.73889},"country":"IE","name":"Aherla"},{"_id":3299481,"coord":{"lat":51.869999,"lon":-8.38306},"country":"IE","name":"Rochestown"},{"_id":2964006,"coord":{"lat":54.797501,"lon":-8.2825},"country":"IE","name":"Glenties"},{"_id":2962523,"coord":{"lat":53.723331,"lon":-6.2825},"country":"IE","name":"Mornington"},{"_id":2962054,"coord":{"lat":53.296108,"lon":-7.28944},"country":"IE","name":"Daingean"},{"_id":2965476,"coord":{"lat":52.815559,"lon":-8.96667},"country":"IE","name":"Clarecastle"},{"_id":2966531,"coord":{"lat":52.54583,"lon":-9.47417},"country":"IE","name":"Ballylongford"},{"_id":2962795,"coord":{"lat":53.76667,"lon":-9.81667},"country":"IE","name":"Louisburgh"},{"_id":2964339,"coord":{"lat":52.924721,"lon":-8.64528},"country":"IE","name":"Feakle"},{"_id":2964763,"coord":{"lat":53.350281,"lon":-6.74583},"country":"IE","name":"Donadea"},{"_id":2966625,"coord":{"lat":53.32444,"lon":-7.68278},"country":"IE","name":"Ballycumber"},{"_id":2966055,"coord":{"lat":52.995281,"lon":-8.12806},"country":"IE","name":"Borrisokane"},{"_id":2963600,"coord":{"lat":53.242222,"lon":-9.42917},"country":"IE","name":"Inveran"},{"_id":2965632,"coord":{"lat":52.90889,"lon":-6.84222},"country":"IE","name":"Castledermot"},{"_id":2964999,"coord":{"lat":52.51944,"lon":-8.71778},"country":"IE","name":"Croom"},{"_id":2964642,"coord":{"lat":53.927502,"lon":-6.41139},"country":"IE","name":"Dromiskin"},{"_id":2962080,"coord":{"lat":52.643059,"lon":-8.86889},"country":"IE","name":"Pallaskenry"},{"_id":2961025,"coord":{"lat":52.720558,"lon":-7.5825},"country":"IE","name":"Urlingford"},{"_id":2964132,"coord":{"lat":53.235279,"lon":-7.32},"country":"IE","name":"Geashill"},{"_id":2961283,"coord":{"lat":53.922779,"lon":-6.54639},"country":"IE","name":"Tallanstown"},{"_id":2965714,"coord":{"lat":53.977219,"lon":-7.64583},"country":"IE","name":"Carrigallen"},{"_id":2963918,"coord":{"lat":52.62944,"lon":-7.07333},"country":"IE","name":"Gowran"},{"_id":2966569,"coord":{"lat":52.46806,"lon":-7.19639},"country":"IE","name":"Ballyhale"},{"_id":2965234,"coord":{"lat":52.090832,"lon":-8.11056},"country":"IE","name":"Conna"},{"_id":2961095,"coord":{"lat":54.46833,"lon":-8.33111},"country":"IE","name":"Tullaghan"},{"_id":2966684,"coord":{"lat":52.964169,"lon":-7.08167},"country":"IE","name":"Ballyadams"},{"_id":2965095,"coord":{"lat":51.631939,"lon":-8.71306},"country":"IE","name":"Courtmacsherry"},{"_id":2966737,"coord":{"lat":51.736938,"lon":-8.95694},"country":"IE","name":"Ballineen"},{"_id":2962504,"coord":{"lat":52.316669,"lon":-9.23333},"country":"IE","name":"Mountcollins"},{"_id":2963124,"coord":{"lat":52.869999,"lon":-6.49556},"country":"IE","name":"Knockananna"},{"_id":2962594,"coord":{"lat":51.764439,"lon":-8.37417},"country":"IE","name":"Minane Bridge"},{"_id":2967061,"coord":{"lat":51.839169,"lon":-8.21222},"country":"IE","name":"Aghada"},{"_id":3300460,"coord":{"lat":52.151939,"lon":-8.50389},"country":"IE","name":"Castletownroche"},{"_id":2966670,"coord":{"lat":53.28056,"lon":-6.31639},"country":"IE","name":"Ballyboden"},{"_id":2961882,"coord":{"lat":53.650002,"lon":-7.5},"country":"IE","name":"Rathowen"},{"_id":2964598,"coord":{"lat":54.166672,"lon":-8.15},"country":"IE","name":"Drumkeeran"},{"_id":2961533,"coord":{"lat":51.854439,"lon":-8.07083},"country":"IE","name":"Shanagarry"},{"_id":2963184,"coord":{"lat":52.176392,"lon":-8.24417},"country":"IE","name":"Kilworth"},{"_id":2966618,"coord":{"lat":51.549999,"lon":-9.46667},"country":"IE","name":"Ballydehob"},{"_id":2966496,"coord":{"lat":53.133331,"lon":-6.61667},"country":"IE","name":"Ballymore Eustace"},{"_id":2963482,"coord":{"lat":54.633888,"lon":-8.59333},"country":"IE","name":"Kilcar"},{"_id":2964020,"coord":{"lat":53.606461,"lon":-8.56007},"country":"IE","name":"Glenamaddy"},{"_id":3305640,"coord":{"lat":52.71389,"lon":-8.49944},"country":"IE","name":"Castleconnell"},{"_id":2966935,"coord":{"lat":54.764439,"lon":-8.4075},"country":"IE","name":"Ardara"},{"_id":3315194,"coord":{"lat":53.202221,"lon":-6.50111},"country":"IE","name":"Hempstown"},{"_id":3315332,"coord":{"lat":53.393059,"lon":-6.42694},"country":"IE","name":"Hartstown"},{"_id":2961571,"coord":{"lat":52.183331,"lon":-9.4},"country":"IE","name":"Scartaglin"},{"_id":2962012,"coord":{"lat":52.8825,"lon":-8.35028},"country":"IE","name":"Portroe"},{"_id":2964542,"coord":{"lat":52.225281,"lon":-6.64583},"country":"IE","name":"Duncormick"},{"_id":3299471,"coord":{"lat":51.91111,"lon":-8.36111},"country":"IE","name":"Glounthaune"},{"_id":2963413,"coord":{"lat":51.900002,"lon":-9.45},"country":"IE","name":"Kilgarvan"},{"_id":2965885,"coord":{"lat":52.23333,"lon":-8.66667},"country":"IE","name":"Buttevant"},{"_id":2963455,"coord":{"lat":52.616669,"lon":-8.88333},"country":"IE","name":"Kilcornan"},{"_id":2963438,"coord":{"lat":53.570278,"lon":-6.90306},"country":"IE","name":"Kildalkey"},{"_id":2965436,"coord":{"lat":53.221668,"lon":-7.88417},"country":"IE","name":"Cloghan"},{"_id":2964980,"coord":{"lat":54.099998,"lon":-9.31667},"country":"IE","name":"Crossmolina"},{"_id":2966301,"coord":{"lat":53.469719,"lon":-6.53639},"country":"IE","name":"Batterstown"},{"_id":2964143,"coord":{"lat":51.875561,"lon":-8.00028},"country":"IE","name":"Garryvoe"},{"_id":2965161,"coord":{"lat":52.700829,"lon":-9.42083},"country":"IE","name":"Cooraclare"},{"_id":2962045,"coord":{"lat":52.353329,"lon":-7.34028},"country":"IE","name":"Piltown"},{"_id":2964025,"coord":{"lat":52.766941,"lon":-9.265},"country":"IE","name":"Glenmore"},{"_id":2961894,"coord":{"lat":53.490002,"lon":-6.79861},"country":"IE","name":"Rathmolyon"},{"_id":2966638,"coord":{"lat":54.116669,"lon":-7.58333},"country":"IE","name":"Ballyconnell"},{"_id":3313875,"coord":{"lat":53.309441,"lon":-7.54806},"country":"IE","name":"Kildangan"},{"_id":2963056,"coord":{"lat":51.895279,"lon":-8.04583},"country":"IE","name":"Ladysbridge"},{"_id":2964989,"coord":{"lat":53.883331,"lon":-7.28333},"country":"IE","name":"Crosserlough"},{"_id":2963336,"coord":{"lat":53.51667,"lon":-8.31667},"country":"IE","name":"Killeroran"},{"_id":2965250,"coord":{"lat":53.644169,"lon":-7.20667},"country":"IE","name":"Collinstown"},{"_id":3314364,"coord":{"lat":53.13306,"lon":-7.14861},"country":"IE","name":"Killenard"},{"_id":2961893,"coord":{"lat":52.083328,"lon":-9.21667},"country":"IE","name":"Rathmore"},{"_id":2963199,"coord":{"lat":52.901112,"lon":-6.60722},"country":"IE","name":"Kiltegan"},{"_id":2963857,"coord":{"lat":54.033329,"lon":-6.13333},"country":"IE","name":"Greenore"},{"_id":2964400,"coord":{"lat":52.944721,"lon":-9.29222},"country":"IE","name":"Ennistimon"},{"_id":2965449,"coord":{"lat":53.48333,"lon":-10.01667},"country":"IE","name":"Clifden"},{"_id":2962424,"coord":{"lat":53.900002,"lon":-7.63333},"country":"IE","name":"Moyne"},{"_id":2965760,"coord":{"lat":52.708061,"lon":-6.49444},"country":"IE","name":"Carnew"},{"_id":2964666,"coord":{"lat":51.916672,"lon":-8.75},"country":"IE","name":"Dripsey"},{"_id":2964632,"coord":{"lat":54.23333,"lon":-8.3},"country":"IE","name":"Dromahair"},{"_id":2962363,"coord":{"lat":52.509998,"lon":-7.50417},"country":"IE","name":"Mullinahone"},{"_id":2963264,"coord":{"lat":52.415001,"lon":-8.9175},"country":"IE","name":"Kilmeedy"},{"_id":2961972,"coord":{"lat":53.522499,"lon":-7.0925},"country":"IE","name":"Raharney"},{"_id":3315247,"coord":{"lat":53.236938,"lon":-6.45222},"country":"IE","name":"Brittas"},{"_id":2961924,"coord":{"lat":52.076939,"lon":-8.28194},"country":"IE","name":"Rathcormac"},{"_id":2961944,"coord":{"lat":54.874722,"lon":-7.59833},"country":"IE","name":"Raphoe"},{"_id":2965828,"coord":{"lat":52.615559,"lon":-6.42056},"country":"IE","name":"Camolin"},{"_id":3308493,"coord":{"lat":54.758888,"lon":-7.75056},"country":"IE","name":"Gortahork"},{"_id":2961855,"coord":{"lat":52.88583,"lon":-6.14583},"country":"IE","name":"Redcross"},{"_id":2966515,"coord":{"lat":53.566669,"lon":-7.76667},"country":"IE","name":"Ballymahon"},{"_id":2966089,"coord":{"lat":52.883888,"lon":-8.60111},"country":"IE","name":"Bodyke"},{"_id":2964582,"coord":{"lat":53.933331,"lon":-8},"country":"IE","name":"Drumsna"},{"_id":2963409,"coord":{"lat":54.23917,"lon":-9.05611},"country":"IE","name":"Kilglass"},{"_id":2966375,"coord":{"lat":52.937222,"lon":-6.70917},"country":"IE","name":"Baltinglass"},{"_id":2963025,"coord":{"lat":54.271938,"lon":-8.59333},"country":"IE","name":"Strandhill"},{"_id":3311499,"coord":{"lat":54.325829,"lon":-8.31389},"country":"IE","name":"Gurteen"},{"_id":2962160,"coord":{"lat":54.086941,"lon":-6.26167},"country":"IE","name":"Omeath"},{"_id":2964225,"coord":{"lat":52.611389,"lon":-9.11028},"country":"IE","name":"Foynes"},{"_id":3302374,"coord":{"lat":52.593609,"lon":-6.98139},"country":"IE","name":"Skeaghvasteen"},{"_id":3286703,"coord":{"lat":51.888889,"lon":-8.40417},"country":"IE","name":"Ballinure"},{"_id":2966507,"coord":{"lat":53.700001,"lon":-8.46667},"country":"IE","name":"Ballymoe"},{"_id":2964077,"coord":{"lat":52.05806,"lon":-9.93778},"country":"IE","name":"Glenbeigh"},{"_id":2964204,"coord":{"lat":53.616669,"lon":-8.26667},"country":"IE","name":"Fuerty"},{"_id":3316342,"coord":{"lat":53.555828,"lon":-6.30472},"country":"IE","name":"Damastown"},{"_id":2965463,"coord":{"lat":52.003059,"lon":-7.81944},"country":"IE","name":"Clashmore"},{"_id":3309347,"coord":{"lat":54.104172,"lon":-6.29306},"country":"IE","name":"Cornamucklagh"},{"_id":2963682,"coord":{"lat":51.833328,"lon":-9.11667},"country":"IE","name":"Inchigeelagh"},{"_id":2962165,"coord":{"lat":53.52528,"lon":-6.31556},"country":"IE","name":"Oldtown"},{"_id":2965786,"coord":{"lat":52.147221,"lon":-7.85528},"country":"IE","name":"Cappoquin"},{"_id":2962707,"coord":{"lat":54.950001,"lon":-7.61667},"country":"IE","name":"Manorcunningham"},{"_id":2966740,"coord":{"lat":53.666672,"lon":-8.96667},"country":"IE","name":"Ballindine"},{"_id":2961344,"coord":{"lat":53.98333,"lon":-7.23333},"country":"IE","name":"Stradone"},{"_id":2966760,"coord":{"lat":54.049999,"lon":-7.8},"country":"IE","name":"Ballinamore"},{"_id":2963282,"coord":{"lat":52.463058,"lon":-7.32861},"country":"IE","name":"Kilmaganny"},{"_id":2966646,"coord":{"lat":54.283329,"lon":-9.36667},"country":"IE","name":"Ballycastle"},{"_id":2966779,"coord":{"lat":52.807781,"lon":-8.43556},"country":"IE","name":"Ballina"},{"_id":2963471,"coord":{"lat":53.833328,"lon":-7.41667},"country":"IE","name":"Kilcogy"},{"_id":2961288,"coord":{"lat":52.242779,"lon":-6.38028},"country":"IE","name":"Tagoat"},{"_id":2965699,"coord":{"lat":51.988609,"lon":-8.47972},"country":"IE","name":"Carrignavar"},{"_id":2966769,"coord":{"lat":54.15694,"lon":-8.005},"country":"IE","name":"Ballinagleragh"},{"_id":2963013,"coord":{"lat":51.75,"lon":-9.76667},"country":"IE","name":"Lauragh"},{"_id":2961014,"coord":{"lat":52.1325,"lon":-10.36694},"country":"IE","name":"Ventry"},{"_id":3310905,"coord":{"lat":54.107498,"lon":-8.48972},"country":"IE","name":"Carrigans"},{"_id":3298515,"coord":{"lat":52.190559,"lon":-10.42972},"country":"IE","name":"Farran"},{"_id":2962930,"coord":{"lat":52.941669,"lon":-9.38583},"country":"IE","name":"Liscannor"},{"_id":2961489,"coord":{"lat":52.982498,"lon":-7.92444},"country":"IE","name":"Shinrone"},{"_id":2964395,"coord":{"lat":52.858891,"lon":-7.68528},"country":"IE","name":"Errill"},{"_id":2963299,"coord":{"lat":51.866669,"lon":-8.65},"country":"IE","name":"Killumney"},{"_id":2963905,"coord":{"lat":52.540279,"lon":-6.95472},"country":"IE","name":"Graiguenamanagh"},{"_id":3310688,"coord":{"lat":53.951111,"lon":-6.60167},"country":"IE","name":"Drumgowna"},{"_id":2966425,"coord":{"lat":52.269169,"lon":-8.10028},"country":"IE","name":"Ballyporeen"},{"_id":3311954,"coord":{"lat":53.091942,"lon":-8.71306},"country":"IE","name":"Hollymount"},{"_id":2966780,"coord":{"lat":52.876942,"lon":-7.01083},"country":"IE","name":"Ballickmoyler"},{"_id":2966542,"coord":{"lat":52.372501,"lon":-8.34583},"country":"IE","name":"Ballylanders"},{"_id":2962293,"coord":{"lat":54.156391,"lon":-7.135},"country":"IE","name":"Newbliss"},{"_id":2965759,"coord":{"lat":54.340561,"lon":-8.52722},"country":"IE","name":"Carney"},{"_id":2963202,"coord":{"lat":52.521938,"lon":-8.39917},"country":"IE","name":"Kilteely"},{"_id":2964533,"coord":{"lat":52.560558,"lon":-8.04222},"country":"IE","name":"Dundrum"},{"_id":2962276,"coord":{"lat":51.782219,"lon":-8.87361},"country":"IE","name":"Newcestown"},{"_id":2961267,"coord":{"lat":52.572781,"lon":-9.37528},"country":"IE","name":"Tarbert"},{"_id":2960949,"coord":{"lat":52.68111,"lon":-7.02222},"country":"IE","name":"Paulstown"},{"_id":2963203,"coord":{"lat":53.235001,"lon":-6.52472},"country":"IE","name":"Kilteel"},{"_id":2966767,"coord":{"lat":52.87389,"lon":-7.30806},"country":"IE","name":"Ballinakill"},{"_id":2961165,"coord":{"lat":52.897221,"lon":-8.53861},"country":"IE","name":"Tuamgraney"},{"_id":2963538,"coord":{"lat":53.623161,"lon":-7.81488},"country":"IE","name":"Keenagh"},{"_id":2963366,"coord":{"lat":53.683331,"lon":-7.88333},"country":"IE","name":"Killashee"},{"_id":2962157,"coord":{"lat":52.52972,"lon":-8.25833},"country":"IE","name":"Oola"},{"_id":2963273,"coord":{"lat":52.621941,"lon":-7.42444},"country":"IE","name":"Kilmanagh"},{"_id":2963323,"coord":{"lat":52.252781,"lon":-6.45056},"country":"IE","name":"Killinick"},{"_id":2964735,"coord":{"lat":54.906391,"lon":-8.20944},"country":"IE","name":"Doochary"},{"_id":2966700,"coord":{"lat":54.200001,"lon":-8.36667},"country":"IE","name":"Ballintogher"},{"_id":7870968,"coord":{"lat":53.851768,"lon":-6.65626},"country":"IE","name":"Drumconrath"},{"_id":2962083,"coord":{"lat":52.547218,"lon":-8.3525},"country":"IE","name":"Pallas Grean"},{"_id":2961204,"coord":{"lat":52.796669,"lon":-6.46333},"country":"IE","name":"Tinahely"},{"_id":3316293,"coord":{"lat":53.47472,"lon":-6.17639},"country":"IE","name":"Seafield"},{"_id":2966692,"coord":{"lat":53.006939,"lon":-6.81944},"country":"IE","name":"Ballitore"},{"_id":2967080,"coord":{"lat":54.033329,"lon":-8.9},"country":"IE","name":"Aclare"},{"_id":2966342,"coord":{"lat":53.251942,"lon":-9.14972},"country":"IE","name":"Bearna"},{"_id":2963105,"coord":{"lat":53.973202,"lon":-6.48597},"country":"IE","name":"Knockbridge"},{"_id":2965764,"coord":{"lat":53.330559,"lon":-9.82778},"country":"IE","name":"Carna"},{"_id":3305990,"coord":{"lat":52.69389,"lon":-8.14389},"country":"IE","name":"Kilcommon"},{"_id":2966906,"coord":{"lat":52.683331,"lon":-8.61667},"country":"IE","name":"Ardnacrusha"},{"_id":3299468,"coord":{"lat":51.94722,"lon":-8.32583},"country":"IE","name":"Killeena"},{"_id":2963103,"coord":{"lat":53.566669,"lon":-8.1},"country":"IE","name":"Knockcroghery"},{"_id":2963484,"coord":{"lat":51.67556,"lon":-8.69333},"country":"IE","name":"Kilbrittain"},{"_id":2961055,"coord":{"lat":53.374722,"lon":-8.86472},"country":"IE","name":"Turloughmore"},{"_id":2962204,"coord":{"lat":52.750561,"lon":-6.90972},"country":"IE","name":"Nurney"},{"_id":2961349,"coord":{"lat":53.01556,"lon":-7.15278},"country":"IE","name":"Stradbally"},{"_id":2964918,"coord":{"lat":53.536942,"lon":-6.44667},"country":"IE","name":"Curragha"},{"_id":2961606,"coord":{"lat":51.935001,"lon":-8.38639},"country":"IE","name":"Sallybrook"},{"_id":3300829,"coord":{"lat":52.355,"lon":-8.48472},"country":"IE","name":"Murrins Cross Roads"},{"_id":2961883,"coord":{"lat":52.49889,"lon":-6.76306},"country":"IE","name":"Rathnure"},{"_id":2965056,"coord":{"lat":55.116669,"lon":-7.9},"country":"IE","name":"Creeslough"},{"_id":2964677,"coord":{"lat":54.191109,"lon":-8.015},"country":"IE","name":"Dowra"},{"_id":2962505,"coord":{"lat":54.646389,"lon":-8.19556},"country":"IE","name":"Mountcharles"},{"_id":2966054,"coord":{"lat":52.75222,"lon":-7.95306},"country":"IE","name":"Borrisoleigh"},{"_id":2964457,"coord":{"lat":53.466671,"lon":-7.45},"country":"IE","name":"Dysart"},{"_id":2966390,"coord":{"lat":51.94606,"lon":-9.16689},"country":"IE","name":"Baile Bhuirne"},{"_id":2966817,"coord":{"lat":52.853329,"lon":-6.3275},"country":"IE","name":"Aughrim"},{"_id":2964420,"coord":{"lat":53.849998,"lon":-8.2},"country":"IE","name":"Elphin"},{"_id":2967039,"coord":{"lat":52.06889,"lon":-7.8275},"country":"IE","name":"Aglish"},{"_id":2965251,"coord":{"lat":53.03167,"lon":-6.74806},"country":"IE","name":"Colbinstown"},{"_id":2964596,"coord":{"lat":53.816669,"lon":-7.76667},"country":"IE","name":"Drumlish"},{"_id":2966950,"coord":{"lat":52.208328,"lon":-8.11611},"country":"IE","name":"Araglin"},{"_id":2965746,"coord":{"lat":53.26556,"lon":-9.58361},"country":"IE","name":"Carraroe"},{"_id":2966528,"coord":{"lat":52.264439,"lon":-7.74472},"country":"IE","name":"Ballymacarbry"},{"_id":2963079,"coord":{"lat":52.483608,"lon":-7.21194},"country":"IE","name":"Knocktopher"},{"_id":2963367,"coord":{"lat":54.01667,"lon":-7.53333},"country":"IE","name":"Killeshandra"},{"_id":2961491,"coord":{"lat":52.753891,"lon":-6.53722},"country":"IE","name":"Shillelagh"},{"_id":2965333,"coord":{"lat":54.10194,"lon":-8.7775},"country":"IE","name":"Cloonacool"},{"_id":2965602,"coord":{"lat":53.40028,"lon":-7.12611},"country":"IE","name":"Castlejordan"},{"_id":2963226,"coord":{"lat":52.241112,"lon":-6.3525},"country":"IE","name":"Kilrane"},{"_id":2966840,"coord":{"lat":53.566669,"lon":-8.25},"country":"IE","name":"Athleague"},{"_id":2962613,"coord":{"lat":52.066669,"lon":-9.06667},"country":"IE","name":"Millstreet"},{"_id":2963547,"coord":{"lat":51.757221,"lon":-9.39917},"country":"IE","name":"Kealkill"},{"_id":2965833,"coord":{"lat":53.08279,"lon":-6.7977},"country":"IE","name":"Calverstown"},{"_id":3314863,"coord":{"lat":53.33556,"lon":-6.6925},"country":"IE","name":"Rathcoffey"},{"_id":2961874,"coord":{"lat":52.878891,"lon":-6.69333},"country":"IE","name":"Rathvilly"},{"_id":3310686,"coord":{"lat":54.40889,"lon":-7.05},"country":"IE","name":"Derrygorry"},{"_id":2964315,"coord":{"lat":52.264439,"lon":-7.10778},"country":"IE","name":"Ferrybank"},{"_id":2966704,"coord":{"lat":53.716671,"lon":-8.41667},"country":"IE","name":"Ballintober"},{"_id":2961337,"coord":{"lat":54.799999,"lon":-7.76667},"country":"IE","name":"Stranorlar"},{"_id":6691002,"coord":{"lat":53.313011,"lon":-6.2453},"country":"IE","name":"Milltown"},{"_id":2966420,"coord":{"lat":52.788891,"lon":-7.33028},"country":"IE","name":"Ballyragget"},{"_id":2963356,"coord":{"lat":51.942219,"lon":-7.99778},"country":"IE","name":"Killeagh"},{"_id":3291406,"coord":{"lat":52.375278,"lon":-9.04222},"country":"IE","name":"Raheenagh"},{"_id":2963195,"coord":{"lat":53.466671,"lon":-8.01667},"country":"IE","name":"Kiltoom"},{"_id":2961726,"coord":{"lat":53.134441,"lon":-7.40444},"country":"IE","name":"Rosenallis"},{"_id":2963280,"coord":{"lat":53.333328,"lon":-6.28333},"country":"IE","name":"Kilmainham"},{"_id":2963335,"coord":{"lat":52.84444,"lon":-7.00306},"country":"IE","name":"Killeshin"},{"_id":2962057,"coord":{"lat":53.115002,"lon":-8.74139},"country":"IE","name":"Peterswell"},{"_id":3309739,"coord":{"lat":54.052219,"lon":-6.66611},"country":"IE","name":"Culloville"},{"_id":2965865,"coord":{"lat":52.593609,"lon":-8.47028},"country":"IE","name":"Caherconlish"},{"_id":2963819,"coord":{"lat":52.863892,"lon":-6.55694},"country":"IE","name":"Hacketstown"},{"_id":2962722,"coord":{"lat":55.299999,"lon":-7.26667},"country":"IE","name":"Malin"},{"_id":6691001,"coord":{"lat":53.331261,"lon":-6.29199},"country":"IE","name":"Crumlin"},{"_id":2962427,"coord":{"lat":53.788609,"lon":-6.88278},"country":"IE","name":"Moynalty"},{"_id":2965338,"coord":{"lat":54.203609,"lon":-6.83833},"country":"IE","name":"Clontibret"},{"_id":2962849,"coord":{"lat":53.786671,"lon":-6.64806},"country":"IE","name":"Lobinstown"},{"_id":6691041,"coord":{"lat":53.311241,"lon":-6.26418},"country":"IE","name":"Dartry"},{"_id":2963084,"coord":{"lat":51.95639,"lon":-8.34056},"country":"IE","name":"Knockraha"},{"_id":2966513,"coord":{"lat":51.933331,"lon":-9.13333},"country":"IE","name":"Ballymakeery"},{"_id":2966734,"coord":{"lat":52.587219,"lon":-7.54},"country":"IE","name":"Ballingarry"},{"_id":2965317,"coord":{"lat":53.37611,"lon":-9.01278},"country":"IE","name":"Cloonboo"},{"_id":2964308,"coord":{"lat":52.330002,"lon":-7.31556},"country":"IE","name":"Fiddown"},{"_id":2963281,"coord":{"lat":53.583328,"lon":-9.11667},"country":"IE","name":"Kilmaine"},{"_id":2962306,"coord":{"lat":53.566669,"lon":-9.23333},"country":"IE","name":"Neale"},{"_id":2962233,"coord":{"lat":53.76667,"lon":-7.83333},"country":"IE","name":"Newtown Forbes"},{"_id":2966698,"coord":{"lat":54.576939,"lon":-8.11972},"country":"IE","name":"Ballintra"},{"_id":3313427,"coord":{"lat":53.29528,"lon":-8.10833},"country":"IE","name":"Cloonfad"},{"_id":2965791,"coord":{"lat":52.614441,"lon":-8.33556},"country":"IE","name":"Cappamore"},{"_id":2966919,"coord":{"lat":52.311668,"lon":-7.875},"country":"IE","name":"Ardfinnan"},{"_id":2966520,"coord":{"lat":51.889999,"lon":-7.9325},"country":"IE","name":"Ballymacoda"},{"_id":2965863,"coord":{"lat":51.76667,"lon":-10.1},"country":"IE","name":"Caherdaniel"},{"_id":2961354,"coord":{"lat":52.536388,"lon":-7.22},"country":"IE","name":"Stonyford"},{"_id":2966304,"coord":{"lat":52.048328,"lon":-8.26583},"country":"IE","name":"Bartlemy"},{"_id":2961622,"coord":{"lat":54.935532,"lon":-7.46109},"country":"IE","name":"St Johnston"},{"_id":2962640,"coord":{"lat":53.302502,"lon":-9.06917},"country":"IE","name":"Menlough"},{"_id":3315294,"coord":{"lat":53.336109,"lon":-6.51528},"country":"IE","name":"Stacumny"},{"_id":2966179,"coord":{"lat":52.591942,"lon":-7.18},"country":"IE","name":"Bennettsbridge"},{"_id":2966663,"coord":{"lat":53.10944,"lon":-7.1375},"country":"IE","name":"Ballybrittas"},{"_id":3305767,"coord":{"lat":52.512501,"lon":-8.21111},"country":"IE","name":"Monard"},{"_id":2964523,"coord":{"lat":51.96833,"lon":-8.09722},"country":"IE","name":"Dungourney"},{"_id":2966416,"coord":{"lat":52.94556,"lon":-7.30417},"country":"IE","name":"Ballyroan"},{"_id":2964984,"coord":{"lat":53.103611,"lon":-7.02},"country":"IE","name":"Crosskeys"},{"_id":2965705,"coord":{"lat":51.933331,"lon":-9.63333},"country":"IE","name":"Carrig East"},{"_id":2962980,"coord":{"lat":52.736389,"lon":-6.9725},"country":"IE","name":"Leighlinbridge"},{"_id":3309509,"coord":{"lat":53.946388,"lon":-7.48556},"country":"IE","name":"Cornafean"},{"_id":2964240,"coord":{"lat":52.310829,"lon":-6.75056},"country":"IE","name":"Foulkesmill"},{"_id":2963121,"coord":{"lat":52.051941,"lon":-7.88528},"country":"IE","name":"Knockanore"},{"_id":2964671,"coord":{"lat":51.650002,"lon":-9.26667},"country":"IE","name":"Drimoleague"},{"_id":2963284,"coord":{"lat":55.03083,"lon":-7.77917},"country":"IE","name":"Kilmacrenan"},{"_id":2966573,"coord":{"lat":52.55917,"lon":-9.19278},"country":"IE","name":"Ballyhahill"},{"_id":3311152,"coord":{"lat":54.192219,"lon":-8.44639},"country":"IE","name":"Ballygawley"},{"_id":2964051,"coord":{"lat":54.76667,"lon":-7.68333},"country":"IE","name":"Gleneely"},{"_id":3314416,"coord":{"lat":53.106392,"lon":-6.88639},"country":"IE","name":"Suncroft"},{"_id":2963417,"coord":{"lat":52.349998,"lon":-9.63333},"country":"IE","name":"Kilflynn"},{"_id":2964653,"coord":{"lat":54.240002,"lon":-8.67611},"country":"IE","name":"Dromard"},{"_id":2962928,"coord":{"lat":53.73333,"lon":-9.55},"country":"IE","name":"Liscarney"},{"_id":2966640,"coord":{"lat":53.29361,"lon":-7.36333},"country":"IE","name":"Ballycommon"},{"_id":2963328,"coord":{"lat":51.900002,"lon":-8.85},"country":"IE","name":"Killinardrish"},{"_id":3310813,"coord":{"lat":54.003609,"lon":-8.19583},"country":"IE","name":"Riversdale"},{"_id":2967013,"coord":{"lat":53.286942,"lon":-6.89444},"country":"IE","name":"Allenwood"},{"_id":2961849,"coord":{"lat":54.099998,"lon":-7.31667},"country":"IE","name":"Redhills"},{"_id":2966590,"coord":{"lat":52.72361,"lon":-7.23028},"country":"IE","name":"Ballyfoyle"},{"_id":2966617,"coord":{"lat":52.183331,"lon":-9.23333},"country":"IE","name":"Ballydesmond"},{"_id":3315085,"coord":{"lat":53.12833,"lon":-6.075},"country":"IE","name":"Ballynerrin"},{"_id":2966080,"coord":{"lat":52.158508,"lon":-9.06878},"country":"IE","name":"Boherbue"},{"_id":2966293,"coord":{"lat":54.121391,"lon":-7.67556},"country":"IE","name":"Bawnboy"},{"_id":2966248,"coord":{"lat":53.48333,"lon":-8.93333},"country":"IE","name":"Belclare"},{"_id":3310956,"coord":{"lat":54.03056,"lon":-8.69972},"country":"IE","name":"Moylough"},{"_id":3310349,"coord":{"lat":52.73167,"lon":-9.07694},"country":"IE","name":"Lavally"},{"_id":2962549,"coord":{"lat":52.88028,"lon":-7.95861},"country":"IE","name":"Moneygall"},{"_id":2966437,"coord":{"lat":52.596111,"lon":-8.54694},"country":"IE","name":"Ballyneety"},{"_id":2960952,"coord":{"lat":51.830559,"lon":-8.22972},"country":"IE","name":"Whitegate"},{"_id":3311710,"coord":{"lat":52.984718,"lon":-9.29417},"country":"IE","name":"Kilshanny"},{"_id":2966873,"coord":{"lat":53.916672,"lon":-7.58333},"country":"IE","name":"Arvagh"},{"_id":2966373,"coord":{"lat":53.740559,"lon":-6.2675},"country":"IE","name":"Baltray"},{"_id":2960909,"coord":{"lat":52.465561,"lon":-7.39972},"country":"IE","name":"Windgap"},{"_id":2963212,"coord":{"lat":52.360279,"lon":-7.57667},"country":"IE","name":"Kilsheelan"},{"_id":2963174,"coord":{"lat":55.025269,"lon":-8.39098},"country":"IE","name":"Kincasslagh"},{"_id":3314133,"coord":{"lat":52.903061,"lon":-7.11861},"country":"IE","name":"Wolfhill"},{"_id":2962354,"coord":{"lat":53.616669,"lon":-7.38333},"country":"IE","name":"Multyfarnham"},{"_id":2965741,"coord":{"lat":55.174438,"lon":-7.79778},"country":"IE","name":"Carrigart"},{"_id":2963097,"coord":{"lat":52.435829,"lon":-8.40639},"country":"IE","name":"Knocklong"},{"_id":2965934,"coord":{"lat":55.059719,"lon":-8.30028},"country":"IE","name":"Bunbeg"},{"_id":3314536,"coord":{"lat":53.147221,"lon":-6.83639},"country":"IE","name":"Curragh Camp"},{"_id":3315183,"coord":{"lat":53.203331,"lon":-6.19944},"country":"IE","name":"Ballybrew"},{"_id":2965014,"coord":{"lat":53.340561,"lon":-7.27722},"country":"IE","name":"Croghan"},{"_id":2964625,"coord":{"lat":54.066669,"lon":-6.48333},"country":"IE","name":"Drumbilla"},{"_id":2961531,"coord":{"lat":52.572498,"lon":-9.1025},"country":"IE","name":"Shanagolden"},{"_id":2966330,"coord":{"lat":54.69194,"lon":-7.99472},"country":"IE","name":"Barnesmore"},{"_id":3315325,"coord":{"lat":53.30431,"lon":-6.24925},"country":"IE","name":"Windy Arbour"},{"_id":2966834,"coord":{"lat":52.836109,"lon":-7.37139},"country":"IE","name":"Attanagh"},{"_id":3291047,"coord":{"lat":52.333611,"lon":-9.63167},"country":"IE","name":"Knockbrack"},{"_id":2961897,"coord":{"lat":55.036732,"lon":-7.64923},"country":"IE","name":"Ramelton"},{"_id":2966683,"coord":{"lat":52.40139,"lon":-8.78583},"country":"IE","name":"Ballyagran"},{"_id":2966841,"coord":{"lat":52.45694,"lon":-8.64861},"country":"IE","name":"Athlacca"},{"_id":3291519,"coord":{"lat":51.874439,"lon":-8.73778},"country":"IE","name":"Farran"},{"_id":2965939,"coord":{"lat":53.246941,"lon":-8.55167},"country":"IE","name":"Bullaun"},{"_id":2964959,"coord":{"lat":52.939442,"lon":-8.89333},"country":"IE","name":"Crusheen"},{"_id":2965689,"coord":{"lat":55.133331,"lon":-7.65},"country":"IE","name":"Kerrykeel"},{"_id":2965033,"coord":{"lat":53.077221,"lon":-7.89722},"country":"IE","name":"Crinkill"},{"_id":2967093,"coord":{"lat":53.76667,"lon":-7.45},"country":"IE","name":"Abbeylara"},{"_id":2963428,"coord":{"lat":53.083328,"lon":-6.9},"country":"IE","name":"Kildoon"},{"_id":2963156,"coord":{"lat":53.095558,"lon":-7.72139},"country":"IE","name":"Kinnitty"},{"_id":2966770,"coord":{"lat":53.264439,"lon":-7.335},"country":"IE","name":"Ballinagar"},{"_id":2962335,"coord":{"lat":52.685001,"lon":-6.77833},"country":"IE","name":"Myshall"},{"_id":3315212,"coord":{"lat":53.221668,"lon":-6.21361},"country":"IE","name":"Glencullen"},{"_id":2965424,"coord":{"lat":52.275829,"lon":-7.99222},"country":"IE","name":"Clogheen"},{"_id":3316373,"coord":{"lat":53.589722,"lon":-6.33667},"country":"IE","name":"Clonalvy"},{"_id":2961568,"coord":{"lat":54.121941,"lon":-7.2475},"country":"IE","name":"Scotshouse"},{"_id":2962021,"coord":{"lat":51.886108,"lon":-10.36167},"country":"IE","name":"Portmagee"},{"_id":2962311,"coord":{"lat":53.047501,"lon":-6.83444},"country":"IE","name":"Narraghmore"},{"_id":3311053,"coord":{"lat":54.23111,"lon":-8.71861},"country":"IE","name":"Lecarrow"},{"_id":3314737,"coord":{"lat":53.32972,"lon":-7.25361},"country":"IE","name":"Coole"},{"_id":2964991,"coord":{"lat":53.952782,"lon":-7.43333},"country":"IE","name":"Crossdoney"},{"_id":2964521,"coord":{"lat":52.16972,"lon":-7.25694},"country":"IE","name":"Dunhill"},{"_id":2966378,"coord":{"lat":53.595558,"lon":-6.21639},"country":"IE","name":"Balrothery"},{"_id":2965739,"coord":{"lat":53.633331,"lon":-7.68333},"country":"IE","name":"Carrickboy"},{"_id":2961734,"coord":{"lat":52.399719,"lon":-6.94778},"country":"IE","name":"Rosbercon"},{"_id":2962962,"coord":{"lat":53.549999,"lon":-9.95},"country":"IE","name":"Letterfrack"},{"_id":3301290,"coord":{"lat":52.16806,"lon":-7.52222},"country":"IE","name":"Lemybrien"},{"_id":3309631,"coord":{"lat":53.957779,"lon":-7.17472},"country":"IE","name":"Clifferna"},{"_id":3310731,"coord":{"lat":54.03194,"lon":-6.49028},"country":"IE","name":"Slieve"},{"_id":3302136,"coord":{"lat":52.225281,"lon":-6.39056},"country":"IE","name":"Lough"},{"_id":3314152,"coord":{"lat":52.945,"lon":-6.93722},"country":"IE","name":"Rosetown"},{"_id":2961206,"coord":{"lat":52.982498,"lon":-6.81167},"country":"IE","name":"Timolin"},{"_id":2962224,"coord":{"lat":53.089722,"lon":-6.11194},"country":"IE","name":"Newtown Mount Kennedy"},{"_id":2966756,"coord":{"lat":53.866669,"lon":-7.71667},"country":"IE","name":"Ballinamuck"},{"_id":2964675,"coord":{"lat":52.516109,"lon":-7.58806},"country":"IE","name":"Drangan"},{"_id":2965626,"coord":{"lat":54.799999,"lon":-7.58333},"country":"IE","name":"Castlefinn"},{"_id":2964131,"coord":{"lat":54.099998,"lon":-8.25},"country":"IE","name":"Geevagh"},{"_id":2963513,"coord":{"lat":54.01778,"lon":-7.94333},"country":"IE","name":"Keshcarrigan"},{"_id":2966482,"coord":{"lat":53.583328,"lon":-7.53333},"country":"IE","name":"Ballynacarrigy"},{"_id":2966485,"coord":{"lat":52.71917,"lon":-9.06583},"country":"IE","name":"Ballynacally"},{"_id":2966743,"coord":{"lat":53.18639,"lon":-8.90639},"country":"IE","name":"Ballinderreen"},{"_id":2966469,"coord":{"lat":53.404999,"lon":-7.46417},"country":"IE","name":"Ballynagore"},{"_id":3309781,"coord":{"lat":54.105831,"lon":-6.73333},"country":"IE","name":"Tullyvin"},{"_id":2963186,"coord":{"lat":54.35833,"lon":-8.03667},"country":"IE","name":"Kiltyclogher"},{"_id":2966762,"coord":{"lat":53.900002,"lon":-8.3},"country":"IE","name":"Ballinameen"},{"_id":2960928,"coord":{"lat":53.735561,"lon":-6.71306},"country":"IE","name":"Wilkinstown"},{"_id":2967064,"coord":{"lat":51.933331,"lon":-8.8},"country":"IE","name":"Aghabullogue"},{"_id":2964494,"coord":{"lat":53.616669,"lon":-8.73333},"country":"IE","name":"Dunmore"},{"_id":2964760,"coord":{"lat":53.496109,"lon":-6.36972},"country":"IE","name":"Donaghmore"},{"_id":2963385,"coord":{"lat":52.671669,"lon":-9.10639},"country":"IE","name":"Killadysert"},{"_id":2963286,"coord":{"lat":52.30611,"lon":-7.17167},"country":"IE","name":"Kilmacow"},{"_id":3310884,"coord":{"lat":54.07917,"lon":-8.37611},"country":"IE","name":"Castlebaldwin"},{"_id":2961775,"coord":{"lat":53.592499,"lon":-6.72861},"country":"IE","name":"Robinstown"},{"_id":2961002,"coord":{"lat":53.612782,"lon":-6.55306},"country":"IE","name":"Walterstown"},{"_id":2961292,"coord":{"lat":52.321671,"lon":-6.6475},"country":"IE","name":"Taghmon"},{"_id":2965455,"coord":{"lat":53.549999,"lon":-10.11667},"country":"IE","name":"Cleggan"},{"_id":3306235,"coord":{"lat":52.77528,"lon":-8.06167},"country":"IE","name":"Templederry"},{"_id":2963880,"coord":{"lat":52.45639,"lon":-7.49417},"country":"IE","name":"Grangemockler"},{"_id":3302117,"coord":{"lat":52.33778,"lon":-6.55694},"country":"IE","name":"Davidstown"},{"_id":2965306,"coord":{"lat":53.950001,"lon":-7.78333},"country":"IE","name":"Cloone"},{"_id":2965007,"coord":{"lat":55.025002,"lon":-8.26083},"country":"IE","name":"Crolly"},{"_id":2964049,"coord":{"lat":54.286942,"lon":-7.98722},"country":"IE","name":"Glenfarne"},{"_id":2966479,"coord":{"lat":51.896111,"lon":-8.165},"country":"IE","name":"Ballinacurra"},{"_id":2966899,"coord":{"lat":53.157501,"lon":-8.80583},"country":"IE","name":"Ardrahan"},{"_id":2961580,"coord":{"lat":53.083328,"lon":-6.58333},"country":"IE","name":"Scalp"},{"_id":2963331,"coord":{"lat":53.16333,"lon":-8.28472},"country":"IE","name":"Killimor"},{"_id":3314589,"coord":{"lat":53.186668,"lon":-6.63611},"country":"IE","name":"Punchestown"},{"_id":2965243,"coord":{"lat":52.627499,"lon":-7.54139},"country":"IE","name":"Commons"},{"_id":2966709,"coord":{"lat":51.667782,"lon":-8.60028},"country":"IE","name":"Ballinspittle"},{"_id":2965961,"coord":{"lat":53.190559,"lon":-7.77528},"country":"IE","name":"Broughal"},{"_id":2967090,"coord":{"lat":53.583328,"lon":-7.65},"country":"IE","name":"Abbeyshrule"},{"_id":2962983,"coord":{"lat":53.616669,"lon":-7.61667},"country":"IE","name":"Legan"},{"_id":2964335,"coord":{"lat":52.54528,"lon":-8.6025},"country":"IE","name":"Fedamore"},{"_id":2961084,"coord":{"lat":52.66222,"lon":-7.43639},"country":"IE","name":"Tullaroan"},{"_id":2965821,"coord":{"lat":53.003609,"lon":-7.59056},"country":"IE","name":"Camross"},{"_id":3313993,"coord":{"lat":53.329441,"lon":-7.62444},"country":"IE","name":"Erry"},{"_id":2965370,"coord":{"lat":52.690559,"lon":-6.64528},"country":"IE","name":"Clonegal"},{"_id":2966697,"coord":{"lat":52.981392,"lon":-7.08944},"country":"IE","name":"Ballintubbert"},{"_id":2963357,"coord":{"lat":52.164169,"lon":-7.01444},"country":"IE","name":"Killea"},{"_id":2966294,"coord":{"lat":52.829441,"lon":-8.21528},"country":"IE","name":"Bawn"},{"_id":3316395,"coord":{"lat":53.709171,"lon":-6.29278},"country":"IE","name":"Colp"},{"_id":2961061,"coord":{"lat":53.783329,"lon":-8.25},"country":"IE","name":"Tulsk"},{"_id":2966075,"coord":{"lat":53.900002,"lon":-9.05},"country":"IE","name":"Bohola"},{"_id":2965176,"coord":{"lat":52.979721,"lon":-7.56861},"country":"IE","name":"Coolrain"},{"_id":3314264,"coord":{"lat":53.017502,"lon":-6.90917},"country":"IE","name":"Ardscull"},{"_id":2961516,"coord":{"lat":53.277779,"lon":-8.03722},"country":"IE","name":"Shannonbridge"},{"_id":2961650,"coord":{"lat":51.849998,"lon":-8.31667},"country":"IE","name":"Rushbrooke"},{"_id":2964002,"coord":{"lat":52.043892,"lon":-8.42472},"country":"IE","name":"Glenville"},{"_id":2961939,"coord":{"lat":53.136108,"lon":-7.8075},"country":"IE","name":"Rath"},{"_id":2963939,"coord":{"lat":53.388889,"lon":-9.15944},"country":"IE","name":"Gortmore"},{"_id":2964942,"coord":{"lat":54.213329,"lon":-8.99194},"country":"IE","name":"Culleens"},{"_id":2965358,"coord":{"lat":53.283329,"lon":-7.88333},"country":"IE","name":"Clonlyon"},{"_id":2965905,"coord":{"lat":55.049999,"lon":-7.4},"country":"IE","name":"Burnfoot"},{"_id":2966754,"coord":{"lat":51.672218,"lon":-8.90528},"country":"IE","name":"Ballinascarty"},{"_id":2964276,"coord":{"lat":52.985828,"lon":-8.64389},"country":"IE","name":"Flagmount"},{"_id":2964402,"coord":{"lat":51.741669,"lon":-8.93806},"country":"IE","name":"Enniskean"},{"_id":2965167,"coord":{"lat":52.663059,"lon":-8.68944},"country":"IE","name":"Coonagh"},{"_id":3304371,"coord":{"lat":52.525829,"lon":-6.27028},"country":"IE","name":"Coolroe"},{"_id":2964101,"coord":{"lat":53.466671,"lon":-7.86667},"country":"IE","name":"Glassan"},{"_id":3308036,"coord":{"lat":52.815559,"lon":-7.46722},"country":"IE","name":"Graigueavoice"},{"_id":2962911,"coord":{"lat":51.973331,"lon":-8.21917},"country":"IE","name":"Lisgoold"},{"_id":2963028,"coord":{"lat":53.00444,"lon":-6.29889},"country":"IE","name":"Laragh"},{"_id":2962182,"coord":{"lat":52.42667,"lon":-6.53889},"country":"IE","name":"Oilgate"},{"_id":2961567,"coord":{"lat":54.2775,"lon":-7.065},"country":"IE","name":"Scotstown"},{"_id":2962015,"coord":{"lat":54.842499,"lon":-8.46667},"country":"IE","name":"Portnoo"},{"_id":3314600,"coord":{"lat":53.251942,"lon":-7.22056},"country":"IE","name":"Walshisland"},{"_id":2961057,"coord":{"lat":53.09222,"lon":-9.06528},"country":"IE","name":"Turlough"},{"_id":2963292,"coord":{"lat":54.799999,"lon":-7.68333},"country":"IE","name":"Killygordon"},{"_id":2963248,"coord":{"lat":53.883331,"lon":-8.68333},"country":"IE","name":"Kilmovee"},{"_id":3315434,"coord":{"lat":53.368889,"lon":-6.50944},"country":"IE","name":"Easton"},{"_id":3301750,"coord":{"lat":52.269169,"lon":-7.20806},"country":"IE","name":"Carrigeen"},{"_id":2966654,"coord":{"lat":52.608891,"lon":-6.30306},"country":"IE","name":"Ballycanew"},{"_id":2961926,"coord":{"lat":53.450001,"lon":-6.84417},"country":"IE","name":"Rathcore"},{"_id":2963742,"coord":{"lat":52.639721,"lon":-7.86306},"country":"IE","name":"Holycross"},{"_id":3291994,"coord":{"lat":51.936939,"lon":-8.69861},"country":"IE","name":"Berrings"},{"_id":2961876,"coord":{"lat":53.435558,"lon":-6.79639},"country":"IE","name":"Rathtroane"},{"_id":3315310,"coord":{"lat":53.396389,"lon":-6.22806},"country":"IE","name":"Kilmore"},{"_id":2965313,"coord":{"lat":53.783329,"lon":-8.66667},"country":"IE","name":"Clooncan"},{"_id":3314689,"coord":{"lat":53.299171,"lon":-6.845},"country":"IE","name":"Coolearagh"},{"_id":2961450,"coord":{"lat":53.709999,"lon":-6.54333},"country":"IE","name":"Slane"},{"_id":2966454,"coord":{"lat":54.116669,"lon":-7.91667},"country":"IE","name":"Ballynameeltoge"},{"_id":3315013,"coord":{"lat":52.996941,"lon":-6.26583},"country":"IE","name":"Trooperstown"},{"_id":3314579,"coord":{"lat":53.167221,"lon":-6.61028},"country":"IE","name":"Tipperkevin"},{"_id":2961561,"coord":{"lat":53.533329,"lon":-8.56667},"country":"IE","name":"Scregg East"},{"_id":2962918,"coord":{"lat":52.78944,"lon":-7.38861},"country":"IE","name":"Lisdowney"},{"_id":2967049,"coord":{"lat":52.914169,"lon":-6.41694},"country":"IE","name":"Aghavannagh"},{"_id":2966990,"coord":{"lat":52.83889,"lon":-6.35861},"country":"IE","name":"Annacurragh"},{"_id":2961564,"coord":{"lat":53.76667,"lon":-8.05},"country":"IE","name":"Scramoge"},{"_id":2961265,"coord":{"lat":52.538059,"lon":-9.37889},"country":"IE","name":"Tarmon"},{"_id":3314830,"coord":{"lat":53.370281,"lon":-6.83361},"country":"IE","name":"Mucklon"},{"_id":2966077,"coord":{"lat":53.662781,"lon":-6.80194},"country":"IE","name":"Bohermeen"},{"_id":3315111,"coord":{"lat":53.073059,"lon":-6.46111},"country":"IE","name":"Garryknock"},{"_id":2966889,"coord":{"lat":52.797501,"lon":-8.88889},"country":"IE","name":"Ardsollus Bridge"},{"_id":2963899,"coord":{"lat":52.897781,"lon":-6.79056},"country":"IE","name":"Graney"},{"_id":3306996,"coord":{"lat":52.522221,"lon":-7.71694},"country":"IE","name":"Moglass"},{"_id":3307807,"coord":{"lat":52.76944,"lon":-7.27111},"country":"IE","name":"Barrack Village"},{"_id":3314118,"coord":{"lat":52.921108,"lon":-7.19556},"country":"IE","name":"Knocklead"},{"_id":2966713,"coord":{"lat":52.95306,"lon":-8.82611},"country":"IE","name":"Ballinruan"},{"_id":3315318,"coord":{"lat":53.400829,"lon":-6.32917},"country":"IE","name":"Cappoge"},{"_id":2961645,"coord":{"lat":53.788059,"lon":-7.05861},"country":"IE","name":"Ryefield"},{"_id":3311804,"coord":{"lat":53.038059,"lon":-9.07806},"country":"IE","name":"Carran"},{"_id":3312364,"coord":{"lat":53.235828,"lon":-8.81556},"country":"IE","name":"Ballygarriff"},{"_id":2962559,"coord":{"lat":52.520828,"lon":-8.67194},"country":"IE","name":"Monaster"},{"_id":3313633,"coord":{"lat":53.05056,"lon":-7.37528},"country":"IE","name":"Clondarrig"},{"_id":3314180,"coord":{"lat":52.925831,"lon":-6.67667},"country":"IE","name":"Woodfield"},{"_id":2964990,"coord":{"lat":53.666672,"lon":-7.63333},"country":"IE","name":"Crossea"},{"_id":3315091,"coord":{"lat":53.091389,"lon":-6.22694},"country":"IE","name":"Sraghmore"},{"_id":3313600,"coord":{"lat":52.996109,"lon":-7.63944},"country":"IE","name":"Ballinrally"},{"_id":3313303,"coord":{"lat":53.26944,"lon":-8.26194},"country":"IE","name":"Crossconnell"},{"_id":3300361,"coord":{"lat":52.128609,"lon":-8.00722},"country":"IE","name":"Garrycloyne"},{"_id":2961385,"coord":{"lat":52.380001,"lon":-8.3375},"country":"IE","name":"Spittle"},{"_id":2966731,"coord":{"lat":51.849998,"lon":-9.23333},"country":"IE","name":"Ballingeary"},{"_id":3314765,"coord":{"lat":53.369438,"lon":-7.15},"country":"IE","name":"Ballyheashill"},{"_id":2965003,"coord":{"lat":53.599998,"lon":-7.28333},"country":"IE","name":"Crookedwood"},{"_id":2962056,"coord":{"lat":54.549999,"lon":-7.83333},"country":"IE","name":"Pettigoe"},{"_id":3301427,"coord":{"lat":52.290562,"lon":-7.55306},"country":"IE","name":"Curraheen"},{"_id":2961457,"coord":{"lat":54.243328,"lon":-8.73111},"country":"IE","name":"Skreen"},{"_id":2963065,"coord":{"lat":52.623329,"lon":-9.24694},"country":"IE","name":"Labasheeda"},{"_id":3315200,"coord":{"lat":53.202782,"lon":-6.57806},"country":"IE","name":"Eadestown"},{"_id":2965084,"coord":{"lat":53.547779,"lon":-7.06611},"country":"IE","name":"Craddanstown"},{"_id":3314335,"coord":{"lat":52.963058,"lon":-6.59444},"country":"IE","name":"Ballytoole"},{"_id":3300352,"coord":{"lat":52.131111,"lon":-7.98278},"country":"IE","name":"Castlerichard"},{"_id":2961181,"coord":{"lat":53.533329,"lon":-8.06667},"country":"IE","name":"Toberdan"},{"_id":3314919,"coord":{"lat":52.96917,"lon":-6.54306},"country":"IE","name":"Coan"},{"_id":3313948,"coord":{"lat":53.350559,"lon":-7.44444},"country":"IE","name":"Grange and Kiltober"},{"_id":2967066,"coord":{"lat":52.918892,"lon":-7.51194},"country":"IE","name":"Aghaboe"},{"_id":3307000,"coord":{"lat":52.561111,"lon":-7.70694},"country":"IE","name":"Graystown"},{"_id":2963358,"coord":{"lat":52.145828,"lon":-8.51389},"country":"IE","name":"Killavullen"},{"_id":3316316,"coord":{"lat":53.431671,"lon":-6.30028},"country":"IE","name":"Saint Margaret’s"},{"_id":2962819,"coord":{"lat":53.090561,"lon":-8.12111},"country":"IE","name":"Lorrha"},{"_id":2964189,"coord":{"lat":52.40028,"lon":-8.29278},"country":"IE","name":"Galbally"},{"_id":2964144,"coord":{"lat":52.412781,"lon":-8.37944},"country":"IE","name":"Garryspillane"},{"_id":2966775,"coord":{"lat":52.899719,"lon":-6.26139},"country":"IE","name":"Ballinaclash"},{"_id":2964411,"coord":{"lat":52.46389,"lon":-8.34917},"country":"IE","name":"Emly"},{"_id":3315578,"coord":{"lat":53.588329,"lon":-9.96194},"country":"IE","name":"Tullycross"},{"_id":2962439,"coord":{"lat":53.666672,"lon":-7.76667},"country":"IE","name":"Moydow"},{"_id":3314220,"coord":{"lat":53.039719,"lon":-7.1925},"country":"IE","name":"Ballymaddock"},{"_id":2962916,"coord":{"lat":53.797218,"lon":-7.02944},"country":"IE","name":"Lisduff"},{"_id":2964913,"coord":{"lat":53.650002,"lon":-8.65},"country":"IE","name":"Curragh West"},{"_id":3300369,"coord":{"lat":52.123058,"lon":-8.08611},"country":"IE","name":"Kilcoran"},{"_id":3315787,"coord":{"lat":53.986111,"lon":-9.24167},"country":"IE","name":"Terrybaun"},{"_id":2966500,"coord":{"lat":53.48333,"lon":-7.66667},"country":"IE","name":"Ballymore"},{"_id":2966773,"coord":{"lat":53.73333,"lon":-8.08333},"country":"IE","name":"Ballinafad"},{"_id":3313416,"coord":{"lat":53.36639,"lon":-7.97417},"country":"IE","name":"Cloonown"},{"_id":3291507,"coord":{"lat":51.967781,"lon":-8.9825},"country":"IE","name":"Moanflugh"},{"_id":3314213,"coord":{"lat":52.988331,"lon":-7.15417},"country":"IE","name":"Ballinteskin"},{"_id":3315232,"coord":{"lat":53.231941,"lon":-6.57333},"country":"IE","name":"Arthurstown"},{"_id":2966929,"coord":{"lat":53.608059,"lon":-6.39139},"country":"IE","name":"Ardcath"},{"_id":2961837,"coord":{"lat":52.650002,"lon":-7.53667},"country":"IE","name":"Renaghmore"},{"_id":2963016,"coord":{"lat":54.069721,"lon":-6.94806},"country":"IE","name":"Latton"},{"_id":2963144,"coord":{"lat":52.166672,"lon":-9.16667},"country":"IE","name":"Kishkeam"},{"_id":2967048,"coord":{"lat":53.953892,"lon":-7.71611},"country":"IE","name":"Aghavas"},{"_id":2961767,"coord":{"lat":54.116669,"lon":-7.01667},"country":"IE","name":"Rockcorry"},{"_id":3306680,"coord":{"lat":52.716671,"lon":-7.90667},"country":"IE","name":"Bouladuff"},{"_id":2964209,"coord":{"lat":52.734169,"lon":-7.39889},"country":"IE","name":"Freshford"},{"_id":2965904,"coord":{"lat":52.066669,"lon":-8.6},"country":"IE","name":"Burnfort"},{"_id":2964356,"coord":{"lat":51.864719,"lon":-8.80611},"country":"IE","name":"Farnanes Cross Roads"},{"_id":2966695,"coord":{"lat":52.563061,"lon":-7.76889},"country":"IE","name":"Ballinure"},{"_id":2962069,"coord":{"lat":53.700001,"lon":-9.28333},"country":"IE","name":"Partry"},{"_id":2963123,"coord":{"lat":51.966671,"lon":-8.73333},"country":"IE","name":"Knockanare"},{"_id":2963434,"coord":{"lat":52.681389,"lon":-6.68667},"country":"IE","name":"Kildavin"},{"_id":2962247,"coord":{"lat":52.349998,"lon":-8.76667},"country":"IE","name":"Newtownshandrum"},{"_id":2962220,"coord":{"lat":52.561939,"lon":-8.35333},"country":"IE","name":"Nicker"},{"_id":3311805,"coord":{"lat":53.036388,"lon":-9.04444},"country":"IE","name":"Fahee"},{"_id":3315215,"coord":{"lat":53.240002,"lon":-6.22167},"country":"IE","name":"Golden Ball"},{"_id":2963010,"coord":{"lat":53.969719,"lon":-7.2425},"country":"IE","name":"Lavey"},{"_id":3316425,"coord":{"lat":53.80167,"lon":-6.25556},"country":"IE","name":"Hackett’s Cross"},{"_id":3311752,"coord":{"lat":53.074718,"lon":-9.24889},"country":"IE","name":"Lismorahaun"},{"_id":3314611,"coord":{"lat":53.299721,"lon":-7.255},"country":"IE","name":"Killoneen"},{"_id":3313863,"coord":{"lat":53.315559,"lon":-7.36806},"country":"IE","name":"Barnaboy"},{"_id":2964987,"coord":{"lat":53.79361,"lon":-6.73639},"country":"IE","name":"Cross Guns"},{"_id":2965132,"coord":{"lat":53.883331,"lon":-7.71667},"country":"IE","name":"Cornacullew"},{"_id":2961619,"coord":{"lat":52.492779,"lon":-6.92306},"country":"IE","name":"Saint Mullins"},{"_id":2961757,"coord":{"lat":54.066669,"lon":-8.15},"country":"IE","name":"Rockhill"},{"_id":2963781,"coord":{"lat":52.518608,"lon":-8.46556},"country":"IE","name":"Herbertstown"},{"_id":2964613,"coord":{"lat":53.633331,"lon":-7.1625},"country":"IE","name":"Drumcree"},{"_id":3310955,"coord":{"lat":54.040001,"lon":-8.7225},"country":"IE","name":"Carrowreagh"},{"_id":2965050,"coord":{"lat":52.561668,"lon":-9.03222},"country":"IE","name":"Creeves"},{"_id":3314301,"coord":{"lat":52.998058,"lon":-6.71417},"country":"IE","name":"Ballyhook"},{"_id":2961892,"coord":{"lat":53.21722,"lon":-6.56444},"country":"IE","name":"Rathmore"},{"_id":3301246,"coord":{"lat":52.197498,"lon":-7.67861},"country":"IE","name":"Knockboy"},{"_id":2964535,"coord":{"lat":53.605831,"lon":-6.77417},"country":"IE","name":"Dunderry"},{"_id":2965254,"coord":{"lat":53.494999,"lon":-6.68556},"country":"IE","name":"Collegeland"},{"_id":3313016,"coord":{"lat":53.056938,"lon":-8.31472},"country":"IE","name":"Cloonmoylan"},{"_id":2964075,"coord":{"lat":52.785831,"lon":-8.02222},"country":"IE","name":"Glenbreedy"},{"_id":3314844,"coord":{"lat":53.419441,"lon":-6.74056},"country":"IE","name":"Nicholastown"},{"_id":3314156,"coord":{"lat":52.946388,"lon":-6.89861},"country":"IE","name":"Kilkea"},{"_id":2963338,"coord":{"lat":52.568329,"lon":-7.67139},"country":"IE","name":"Killenaule"},{"_id":2966015,"coord":{"lat":52.434719,"lon":-6.60472},"country":"IE","name":"Bree"},{"_id":2961642,"coord":{"lat":51.98333,"lon":-8.83333},"country":"IE","name":"Rylane Cross"},{"_id":2965762,"coord":{"lat":53.75111,"lon":-6.95417},"country":"IE","name":"Carnaross"},{"_id":2964588,"coord":{"lat":53.718609,"lon":-7.15222},"country":"IE","name":"Drumone"},{"_id":3315145,"coord":{"lat":53.153889,"lon":-6.40972},"country":"IE","name":"Ballylow"},{"_id":2962574,"coord":{"lat":52.95472,"lon":-8.05806},"country":"IE","name":"Modreeny"},{"_id":3306094,"coord":{"lat":52.659168,"lon":-7.94083},"country":"IE","name":"Ballyoughter Bridge"},{"_id":3314135,"coord":{"lat":52.904442,"lon":-7.08806},"country":"IE","name":"Kilcruise"},{"_id":2965892,"coord":{"lat":52.799171,"lon":-8.35861},"country":"IE","name":"Bushfield"},{"_id":3316376,"coord":{"lat":53.621941,"lon":-6.31833},"country":"IE","name":"Greenanstown"},{"_id":2965281,"coord":{"lat":52.941391,"lon":-8.57167},"country":"IE","name":"Cloonusker"},{"_id":3300673,"coord":{"lat":52.179169,"lon":-7.90528},"country":"IE","name":"Monalour"},{"_id":3305475,"coord":{"lat":52.396111,"lon":-8.42556},"country":"IE","name":"Ballinvreena"},{"_id":2966827,"coord":{"lat":52.73917,"lon":-8.54028},"country":"IE","name":"Aughboy"},{"_id":2963903,"coord":{"lat":53.0625,"lon":-6.50139},"country":"IE","name":"Granabeg"},{"_id":3315123,"coord":{"lat":53.10667,"lon":-6.48944},"country":"IE","name":"Lugnaskeagh"},{"_id":3307950,"coord":{"lat":52.898609,"lon":-7.67083},"country":"IE","name":"Garranmaconly"},{"_id":3313601,"coord":{"lat":53.024719,"lon":-7.64},"country":"IE","name":"Srahanboy"},{"_id":3304164,"coord":{"lat":52.43528,"lon":-6.39167},"country":"IE","name":"Ballyroe"},{"_id":2961175,"coord":{"lat":51.781109,"lon":-9.15556},"country":"IE","name":"Togher"},{"_id":2961931,"coord":{"lat":53.51667,"lon":-7.51667},"country":"IE","name":"Rathconrath"},{"_id":2962547,"coord":{"lat":53.367779,"lon":-8.69778},"country":"IE","name":"Monivea"},{"_id":2965036,"coord":{"lat":53.599998,"lon":-8.35},"country":"IE","name":"Creggs"},{"_id":2962884,"coord":{"lat":52.142502,"lon":-10.16028},"country":"IE","name":"Lispole"},{"_id":2964419,"coord":{"lat":52.428329,"lon":-8.46111},"country":"IE","name":"Elton"},{"_id":2961666,"coord":{"lat":53.900002,"lon":-9.71778},"country":"IE","name":"Rosturk"},{"_id":2963189,"coord":{"lat":53.271671,"lon":-8.63417},"country":"IE","name":"Kiltullagh"},