{"countryCityList":[{"_id":141668,"coord":{"lat":30.429831,"lon":49.076279},"country":"IR","name":"Bandar Emām Khomeynī"},{"_id":66108,"coord":{"lat":36.416672,"lon":55.01667},"country":"IR","name":"Shāhrūd"},{"_id":127082,"coord":{"lat":31.5,"lon":49},"country":"IR","name":"Ostān-e Khūzestān"},{"_id":138327,"coord":{"lat":33.610401,"lon":51.258701},"country":"IR","name":"Jowkān"},{"_id":7648907,"coord":{"lat":36.011169,"lon":50.809559},"country":"IR","name":"Ostān-e Alborz"},{"_id":113646,"coord":{"lat":38.080002,"lon":46.291901},"country":"IR","name":"Tabriz"},{"_id":1159301,"coord":{"lat":29.4963,"lon":60.8629},"country":"IR","name":"Zahedan"},{"_id":1161724,"coord":{"lat":25.291901,"lon":60.643002},"country":"IR","name":"Chah Bahar"},{"_id":124544,"coord":{"lat":36.25,"lon":52.333328},"country":"IR","name":"Ostān-e Māzandarān"},{"_id":449504,"coord":{"lat":35.560501,"lon":51.2346},"country":"IR","name":"Eslāmshahr"},{"_id":1113217,"coord":{"lat":31.0287,"lon":61.501202},"country":"IR","name":"Zabol"},{"_id":128321,"coord":{"lat":29.61949,"lon":51.654148},"country":"IR","name":"Kazerun"},{"_id":127989,"coord":{"lat":38.193401,"lon":45.630901},"country":"IR","name":"Khāmeneh"},{"_id":7642294,"coord":{"lat":36.703781,"lon":52.64043},"country":"IR","name":"Shahrak-e Dāneshgāh"},{"_id":6709842,"coord":{"lat":36.485298,"lon":46.209},"country":"IR","name":"Maḩall-e Eḩdās̄-e Shahrak-e Shardārī-ye Būkān"},{"_id":119161,"coord":{"lat":35.166401,"lon":47.804501},"country":"IR","name":"Qorveh"},{"_id":132938,"coord":{"lat":37.250038,"lon":55.16721},"country":"IR","name":"Gonbad-e Qabus"},{"_id":129933,"coord":{"lat":36.641151,"lon":52.912441},"country":"IR","name":"Juybar"},{"_id":140380,"coord":{"lat":37.474731,"lon":57.329029},"country":"IR","name":"Bojnurd"},{"_id":141679,"coord":{"lat":37.472698,"lon":49.4622},"country":"IR","name":"Bandar-e Anzali"},{"_id":6909756,"coord":{"lat":30.9111,"lon":52.700401},"country":"IR","name":"Fasārūd"},{"_id":14256,"coord":{"lat":34.790878,"lon":48.570728},"country":"IR","name":"Azadshahr"},{"_id":115770,"coord":{"lat":32.325562,"lon":50.864441},"country":"IR","name":"Shahr-e Kord"},{"_id":116406,"coord":{"lat":31.41667,"lon":51.566669},"country":"IR","name":"Semirom"},{"_id":121861,"coord":{"lat":30.75972,"lon":49.705002},"country":"IR","name":"Omidiyeh"},{"_id":126409,"coord":{"lat":33.535,"lon":47.606098},"country":"IR","name":"Kuhdasht"},{"_id":134721,"coord":{"lat":28.938299,"lon":53.648201},"country":"IR","name":"Fasa"},{"_id":142358,"coord":{"lat":36.702511,"lon":52.6576},"country":"IR","name":"Babolsar"},{"_id":142554,"coord":{"lat":37.477901,"lon":47.0508},"country":"IR","name":"Hashtrud"},{"_id":144794,"coord":{"lat":36.066669,"lon":50.549999},"country":"IR","name":"Abyek"},{"_id":1159384,"coord":{"lat":34.740002,"lon":60.7756},"country":"IR","name":"Taybad"},{"_id":130758,"coord":{"lat":32,"lon":53},"country":"IR","name":"Islamic Republic of Iran"},{"_id":413931,"coord":{"lat":38.5,"lon":48},"country":"IR","name":"Ostān-e Ardabīl"},{"_id":37755,"coord":{"lat":38.4398,"lon":48.080002},"country":"IR","name":"Ravīndūzaq"},{"_id":128222,"coord":{"lat":34.416672,"lon":46.75},"country":"IR","name":"Ostān-e Kermānshāh"},{"_id":6720817,"coord":{"lat":34.301899,"lon":47.071201},"country":"IR","name":"Shahrak-e Be‘s̄at"},{"_id":115637,"coord":{"lat":31.5741,"lon":49.173698},"country":"IR","name":"Shajarāt"},{"_id":30321,"coord":{"lat":34.214401,"lon":58.43586},"country":"IR","name":"Zīrjān"},{"_id":113832,"coord":{"lat":35.457298,"lon":53.320202},"country":"IR","name":"Şūfīābād"},{"_id":41964,"coord":{"lat":35.466671,"lon":50.533329},"country":"IR","name":"Kūchaklī"},{"_id":115019,"coord":{"lat":29.6036,"lon":52.538799},"country":"IR","name":"Shiraz"},{"_id":18007,"coord":{"lat":37.383331,"lon":46.25},"country":"IR","name":"Gollar"},{"_id":111453,"coord":{"lat":36.673599,"lon":48.478699},"country":"IR","name":"Zanjan"},{"_id":112311,"coord":{"lat":33.860901,"lon":48.8339},"country":"IR","name":"Vālānjerd"},{"_id":139817,"coord":{"lat":28.968399,"lon":50.838501},"country":"IR","name":"Bandar Bushehr"},{"_id":119374,"coord":{"lat":26.958099,"lon":56.2719},"country":"IR","name":"Qeshm"},{"_id":118367,"coord":{"lat":35.4846,"lon":51.082901},"country":"IR","name":"Robat Karim"},{"_id":125897,"coord":{"lat":37.19701,"lon":50.153511},"country":"IR","name":"Langerud"},{"_id":23814,"coord":{"lat":34.383801,"lon":47.055302},"country":"IR","name":"Kahriz"},{"_id":115781,"coord":{"lat":30.116501,"lon":55.118599},"country":"IR","name":"Shahr-e Babak"},{"_id":118704,"coord":{"lat":31.265619,"lon":56.80545},"country":"IR","name":"Ravar"},{"_id":121959,"coord":{"lat":36.648998,"lon":51.495998},"country":"IR","name":"Now Shahr"},{"_id":129512,"coord":{"lat":37.380711,"lon":55.491638},"country":"IR","name":"Kalaleh"},{"_id":142000,"coord":{"lat":34.9072,"lon":48.441399},"country":"IR","name":"Bahar"},{"_id":142255,"coord":{"lat":31.612829,"lon":55.410671},"country":"IR","name":"Bafq"},{"_id":144696,"coord":{"lat":30.7006,"lon":49.831501},"country":"IR","name":"Aghajari"},{"_id":417594,"coord":{"lat":32.03389,"lon":51.87944},"country":"IR","name":"Shahreza"},{"_id":6874767,"coord":{"lat":31.1562,"lon":52.411999},"country":"IR","name":"Dowlatābād"},{"_id":418862,"coord":{"lat":33,"lon":52.166672},"country":"IR","name":"Ostān-e Eşfahān"},{"_id":132142,"coord":{"lat":34.833328,"lon":48.583328},"country":"IR","name":"Ostān-e Hamadān"},{"_id":140082,"coord":{"lat":34.174278,"lon":48.470081},"country":"IR","name":"Borjak"},{"_id":6201375,"coord":{"lat":35.25,"lon":59},"country":"IR","name":"Ostān-e Khorāsān-e Raẕavī"},{"_id":443794,"coord":{"lat":34.75,"lon":51},"country":"IR","name":"Ostān-e Qom"},{"_id":403714,"coord":{"lat":34.4161,"lon":50.537701},"country":"IR","name":"Khorramābād"},{"_id":123256,"coord":{"lat":35.195129,"lon":59.136929},"country":"IR","name":"Ḩowẕ-e Sorkh"},{"_id":116401,"coord":{"lat":35.5,"lon":55},"country":"IR","name":"Ostān-e Semnān"},{"_id":110791,"coord":{"lat":35.666672,"lon":51.416672},"country":"IR","name":"Ostān-e Tehrān"},{"_id":120219,"coord":{"lat":35.2528,"lon":50.981098},"country":"IR","name":"Qal‘eh-ye Moḩammad ‘Alī Khān"},{"_id":124763,"coord":{"lat":34.333328,"lon":49.833328},"country":"IR","name":"Ostān-e Markazī"},{"_id":126584,"coord":{"lat":35.666672,"lon":47},"country":"IR","name":"Ostān-e Kordestān"},{"_id":3530,"coord":{"lat":36.173302,"lon":46.168499},"country":"IR","name":"Qabāghlū"},{"_id":6201376,"coord":{"lat":37.5,"lon":57},"country":"IR","name":"Ostān-e Khorāsān-e Shomālī"},{"_id":129406,"coord":{"lat":37.573441,"lon":58.198681},"country":"IR","name":"Kalāteh-ye Bālī"},{"_id":122721,"coord":{"lat":38.426899,"lon":48.483898},"country":"IR","name":"Namīn"},{"_id":142550,"coord":{"lat":37.666672,"lon":45},"country":"IR","name":"Ostān-e Āz̄arbāyjān-e Gharbī"},{"_id":14177,"coord":{"lat":39.197498,"lon":44.26556},"country":"IR","name":"Āqdūz"},{"_id":112646,"coord":{"lat":35.27401,"lon":59.21949},"country":"IR","name":"Torbat-e Heydariyeh"},{"_id":124665,"coord":{"lat":36.297001,"lon":59.606201},"country":"IR","name":"Mashhad"},{"_id":112931,"coord":{"lat":35.694389,"lon":51.421509},"country":"IR","name":"Tehran"},{"_id":134460,"coord":{"lat":35.666672,"lon":51.433331},"country":"IR","name":"Fīsherābād"},{"_id":418863,"coord":{"lat":32.657219,"lon":51.677608},"country":"IR","name":"Esfahan"},{"_id":134766,"coord":{"lat":29,"lon":53},"country":"IR","name":"Ostān-e Fārs"},{"_id":128747,"coord":{"lat":35.835499,"lon":51.0103},"country":"IR","name":"Karaj"},{"_id":142549,"coord":{"lat":38,"lon":46.75},"country":"IR","name":"Ostān-e Āz̄arbāyjān-e Sharqī"},{"_id":130801,"coord":{"lat":33.166672,"lon":47},"country":"IR","name":"Ostān-e Īlām"},{"_id":130802,"coord":{"lat":33.637402,"lon":46.422699},"country":"IR","name":"Ilam"},{"_id":143127,"coord":{"lat":34.09174,"lon":49.689159},"country":"IR","name":"Arak"},{"_id":128231,"coord":{"lat":29.75,"lon":57.25},"country":"IR","name":"Ostān-e Kermān"},{"_id":128234,"coord":{"lat":30.283211,"lon":57.078789},"country":"IR","name":"Kerman"},{"_id":116402,"coord":{"lat":35.57291,"lon":53.397141},"country":"IR","name":"Semnan"},{"_id":111452,"coord":{"lat":36.5,"lon":48.333328},"country":"IR","name":"Ostān-e Zanjān"},{"_id":1159456,"coord":{"lat":28.5,"lon":60.5},"country":"IR","name":"Ostān-e Sīstān va Balūchestān"},{"_id":125605,"coord":{"lat":33.5,"lon":48.5},"country":"IR","name":"Ostān-e Lorestān"},{"_id":143083,"coord":{"lat":38.249802,"lon":48.293301},"country":"IR","name":"Ardabil"},{"_id":443793,"coord":{"lat":36,"lon":49.75},"country":"IR","name":"Ostān-e Qazvīn"},{"_id":119505,"coord":{"lat":36.279701,"lon":50.004902},"country":"IR","name":"Qazvin"},{"_id":139816,"coord":{"lat":28.75,"lon":51.5},"country":"IR","name":"Ostān-e Būshehr"},{"_id":116996,"coord":{"lat":36.56332,"lon":53.060089},"country":"IR","name":"Shari-i-Tajan"},{"_id":128226,"coord":{"lat":34.314171,"lon":47.064999},"country":"IR","name":"Kermanshah"},{"_id":7789591,"coord":{"lat":36.807171,"lon":50.878052},"country":"IR","name":"Pas Kalāyeh-ye Kūchak"},{"_id":140918,"coord":{"lat":36.692348,"lon":53.55262},"country":"IR","name":"Behshahr"},{"_id":133349,"coord":{"lat":37.166672,"lon":49.5},"country":"IR","name":"Ostān-e Gīlān"},{"_id":118743,"coord":{"lat":37.280769,"lon":49.583191},"country":"IR","name":"Rasht"},{"_id":136256,"coord":{"lat":32.38114,"lon":48.40581},"country":"IR","name":"Dezful"},{"_id":126878,"coord":{"lat":30.83333,"lon":50.666672},"country":"IR","name":"Ostān-e Kohgīlūyeh va Bowyer Aḩmad"},{"_id":125315,"coord":{"lat":30.66028,"lon":51.612202},"country":"IR","name":"Maḩmūdābād-e Soflá"},{"_id":118994,"coord":{"lat":30.4067,"lon":55.9939},"country":"IR","name":"Rafsanjan"},{"_id":142363,"coord":{"lat":36.551319,"lon":52.678951},"country":"IR","name":"Babol"},{"_id":132144,"coord":{"lat":34.799221,"lon":48.514561},"country":"IR","name":"Hamadan"},{"_id":418606,"coord":{"lat":32.634399,"lon":51.366798},"country":"IR","name":"Najafabad"},{"_id":69349,"coord":{"lat":32.866669,"lon":59.216671},"country":"IR","name":"‘Abbāsābād-e Qūsheh"},{"_id":144449,"coord":{"lat":31.355301,"lon":48.7505},"country":"IR","name":"Ahvāz"},{"_id":116667,"coord":{"lat":35.021301,"lon":50.356602},"country":"IR","name":"Saveh"},{"_id":443792,"coord":{"lat":37.25,"lon":55},"country":"IR","name":"Ostān-e Golestān"},{"_id":132892,"coord":{"lat":36.838661,"lon":54.43475},"country":"IR","name":"Gorgan"},{"_id":111821,"coord":{"lat":32.5,"lon":55.583328},"country":"IR","name":"Ostān-e Yazd"},{"_id":111822,"coord":{"lat":31.897221,"lon":54.3675},"country":"IR","name":"Yazd"},{"_id":18093,"coord":{"lat":37.552502,"lon":45.106998},"country":"IR","name":"Dīgāleh"},{"_id":119208,"coord":{"lat":34.640099,"lon":50.8764},"country":"IR","name":"Qom"},{"_id":131222,"coord":{"lat":27.75,"lon":56.5},"country":"IR","name":"Ostān-e Hormozgān"},{"_id":133964,"coord":{"lat":35.218239,"lon":52.340851},"country":"IR","name":"Garmsār"},{"_id":124862,"coord":{"lat":38.432899,"lon":45.774899},"country":"IR","name":"Marand"},{"_id":6686755,"coord":{"lat":36.749901,"lon":45.7229},"country":"IR","name":"Mahābād"},{"_id":6672193,"coord":{"lat":39.294399,"lon":44.4809},"country":"IR","name":"Mākū"},{"_id":114259,"coord":{"lat":29.452,"lon":55.6814},"country":"IR","name":"Sirjan"},{"_id":7637212,"coord":{"lat":36.462719,"lon":52.36055},"country":"IR","name":"Maḩalleh-ye Khāvar"},{"_id":6861952,"coord":{"lat":33.523998,"lon":51.898899},"country":"IR","name":"Shahrak-e Moḩammad-e Montaz̧erī"},{"_id":124085,"coord":{"lat":36.969398,"lon":46.102699},"country":"IR","name":"Miandowab"},{"_id":1160571,"coord":{"lat":28.221069,"lon":61.21582},"country":"IR","name":"Khash"},{"_id":124291,"coord":{"lat":33.1222,"lon":46.1646},"country":"IR","name":"Mehran"},{"_id":114584,"coord":{"lat":32.045502,"lon":48.856701},"country":"IR","name":"Shushtar"},{"_id":126972,"coord":{"lat":38.550301,"lon":44.952099},"country":"IR","name":"Khvoy"},{"_id":117574,"coord":{"lat":35.3144,"lon":46.992298},"country":"IR","name":"Sanandaj"},{"_id":144616,"coord":{"lat":38.477402,"lon":47.069901},"country":"IR","name":"Ahar"},{"_id":117656,"coord":{"lat":38.1973,"lon":44.765301},"country":"IR","name":"Salmas"},{"_id":121380,"coord":{"lat":39.648201,"lon":47.9174},"country":"IR","name":"Parsabad"},{"_id":144795,"coord":{"lat":36.039928,"lon":50.531021},"country":"IR","name":"Ābyek"},{"_id":128831,"coord":{"lat":34.504299,"lon":47.965302},"country":"IR","name":"Kangavar"},{"_id":122397,"coord":{"lat":36.650791,"lon":53.299049},"country":"IR","name":"Neka"},{"_id":9874,"coord":{"lat":36.894329,"lon":50.679192},"country":"IR","name":"Ţālesh Maḩalleh"},{"_id":7516325,"coord":{"lat":31.600281,"lon":55.395748},"country":"IR","name":"Fatḩābād"},{"_id":122285,"coord":{"lat":36.213291,"lon":58.795761},"country":"IR","name":"Neyshabur"},{"_id":145459,"coord":{"lat":30.339199,"lon":48.304298},"country":"IR","name":"Abadan"},{"_id":36741,"coord":{"lat":32.533329,"lon":48.383331},"country":"IR","name":"Andīmeshk"},{"_id":143921,"coord":{"lat":33.400631,"lon":49.694901},"country":"IR","name":"Aligudarz"},{"_id":142676,"coord":{"lat":38.4291,"lon":48.872002},"country":"IR","name":"Astara"},{"_id":127349,"coord":{"lat":33.487782,"lon":48.355831},"country":"IR","name":"Khorramabad"},{"_id":127319,"coord":{"lat":30.439699,"lon":48.166401},"country":"IR","name":"Khorramshahr"},{"_id":137268,"coord":{"lat":31.560801,"lon":48.183102},"country":"IR","name":"Susangerd"},{"_id":6659521,"coord":{"lat":35.692501,"lon":51.329201},"country":"IR","name":"Kūy-e Ekhteşāşī-ye Gomrok"},{"_id":6711051,"coord":{"lat":37.372002,"lon":46.123699},"country":"IR","name":"Āz̄ar Bonāb"},{"_id":132548,"coord":{"lat":30.700001,"lon":51.549999},"country":"IR","name":"Gūsheh Shāhzādeh Qāsem"},{"_id":128137,"coord":{"lat":27.361401,"lon":53.176998},"country":"IR","name":"Khāfī"},{"_id":140851,"coord":{"lat":27.668699,"lon":54.3955},"country":"IR","name":"Berāk"},{"_id":11754,"coord":{"lat":36.649059,"lon":52.667271},"country":"IR","name":"Bālā Aḩmad Kolā"},{"_id":7052836,"coord":{"lat":36.546501,"lon":61.054298},"country":"IR","name":"Ḩasanābād"},{"_id":7034325,"coord":{"lat":30.257601,"lon":56.076302},"country":"IR","name":"Sa‘īdābād-e Pā‘īn"},{"_id":138568,"coord":{"lat":33.5732,"lon":46.405102},"country":"IR","name":"Cheshmeh Kabūd"},{"_id":125794,"coord":{"lat":26.809719,"lon":53.369999},"country":"IR","name":"Lāvān"},{"_id":400747,"coord":{"lat":25.86698,"lon":55.023628},"country":"IR","name":"Abū Mūsā"},{"_id":130216,"coord":{"lat":29.261391,"lon":50.330559},"country":"IR","name":"Khārk"},{"_id":6683626,"coord":{"lat":27.8242,"lon":52.348999},"country":"IR","name":"Chāh Gachī"},{"_id":1114776,"coord":{"lat":27.253941,"lon":60.72287},"country":"IR","name":"Tomp-e Rīgān"},{"_id":1160915,"coord":{"lat":25.4758,"lon":60.361401},"country":"IR","name":"Jahlīār"},{"_id":6651320,"coord":{"lat":31.099701,"lon":61.546501},"country":"IR","name":"Deh-e Dargī"},{"_id":8029482,"coord":{"lat":31.934919,"lon":54.296501},"country":"IR","name":"Darvāzeh Qorān"},{"_id":117067,"coord":{"lat":36.759701,"lon":48.3703},"country":"IR","name":"Sāremsāqlū"},{"_id":35056,"coord":{"lat":38.133331,"lon":46.23333},"country":"IR","name":"Tabrīz Jānī"},{"_id":18557,"coord":{"lat":37.674702,"lon":45.067501},"country":"IR","name":"Qarālar-e Mīrzā Ḩoseynqolī"},{"_id":6689293,"coord":{"lat":38.3237,"lon":48.396198},"country":"IR","name":"Reẕāābād"},{"_id":3245,"coord":{"lat":38.450001,"lon":44.98333},"country":"IR","name":"Taglag"},{"_id":390237,"coord":{"lat":29.525999,"lon":52.590801},"country":"IR","name":"Ja‘farābād-e Now"},{"_id":131965,"coord":{"lat":28.905399,"lon":53.714699},"country":"IR","name":"Hārom"},{"_id":11263,"coord":{"lat":36.631939,"lon":53.19902},"country":"IR","name":"Shahrīār Kandeh"},{"_id":118848,"coord":{"lat":36.898361,"lon":50.667931},"country":"IR","name":"Ramak"},{"_id":8084,"coord":{"lat":36.667431,"lon":51.461639},"country":"IR","name":"Behjatābād"},{"_id":39161,"coord":{"lat":36.892578,"lon":54.397739},"country":"IR","name":"Māmā’ī"},{"_id":130261,"coord":{"lat":33.665451,"lon":56.855751},"country":"IR","name":"Javādīyeh"},{"_id":7264,"coord":{"lat":36.163841,"lon":57.616982},"country":"IR","name":"Kalāteh-ye Dowlat"},{"_id":40847,"coord":{"lat":37.499722,"lon":57.31778},"country":"IR","name":"Reẕāābād"},{"_id":123600,"coord":{"lat":36.255001,"lon":59.64278},"country":"IR","name":"Moḩammadābād"},{"_id":6201374,"coord":{"lat":32.5,"lon":59.5},"country":"IR","name":"Ostān-e Khorāsān-e Jonūbī"},{"_id":129364,"coord":{"lat":32.901669,"lon":59.257221},"country":"IR","name":"Kalāteh-ye Karbalā’ī Ḩājjī"},{"_id":6649516,"coord":{"lat":26.7463,"lon":55.934898},"country":"IR","name":"Dayrestān"},{"_id":7044034,"coord":{"lat":29.084021,"lon":58.416851},"country":"IR","name":"Akbarābād"},{"_id":7011520,"coord":{"lat":30.26409,"lon":56.97311},"country":"IR","name":"Shahrak-e Jahād"},{"_id":117460,"coord":{"lat":27.19796,"lon":56.362061},"country":"IR","name":"Sang Kanī"},{"_id":6660023,"coord":{"lat":36.254902,"lon":50.0457},"country":"IR","name":"Neshāţīeh"},{"_id":129945,"coord":{"lat":34.884899,"lon":48.55444},"country":"IR","name":"Jūraqān"},{"_id":29033,"coord":{"lat":37.32085,"lon":49.608101},"country":"IR","name":"Rokan Sarā"},{"_id":139677,"coord":{"lat":32.166672,"lon":50.75},"country":"IR","name":"Ostān-e Chahār Maḩāl va Bakhtīārī"},{"_id":144569,"coord":{"lat":32.26667,"lon":50.849998},"country":"IR","name":"Aḩmadābād"},{"_id":417560,"coord":{"lat":32.730171,"lon":51.857761},"country":"IR","name":"Shāh Karam"},{"_id":133533,"coord":{"lat":35.257999,"lon":47.018501},"country":"IR","name":"Gerīzeh"},{"_id":32516,"coord":{"lat":33.42944,"lon":48.279442},"country":"IR","name":"Badrābād-e `Olyā"},{"_id":833,"coord":{"lat":34.330502,"lon":47.159401},"country":"IR","name":"Ḩeşār-e Sefīd"},{"_id":141656,"coord":{"lat":26.52433,"lon":54.798069},"country":"IR","name":"Shenās"},{"_id":137088,"coord":{"lat":26.5625,"lon":53.9925},"country":"IR","name":"Deh"},{"_id":8057484,"coord":{"lat":28.94874,"lon":50.836922},"country":"IR","name":"Bāgh-e Nār"},{"_id":6648634,"coord":{"lat":31.3431,"lon":48.7603},"country":"IR","name":"Barvār"},{"_id":44992,"coord":{"lat":30.549999,"lon":49.166672},"country":"IR","name":"Koshtārgāh"},{"_id":136014,"coord":{"lat":30.358601,"lon":50.7981},"country":"IR","name":"Do Gonbadan"},{"_id":6663476,"coord":{"lat":30.355101,"lon":50.8167},"country":"IR","name":"Kūy-e Emām Ḩasan"},{"_id":121859,"coord":{"lat":30.759171,"lon":49.703331},"country":"IR","name":"Omīdīyeh-ye Pā’īn"},{"_id":6687934,"coord":{"lat":32.433998,"lon":48.359299},"country":"IR","name":"Kūy-e Jomhūrī-ye Eslāmī"},{"_id":45013,"coord":{"lat":30.365499,"lon":48.224098},"country":"IR","name":"Jozf-e Soflá"},{"_id":122002,"coord":{"lat":38.489101,"lon":45.962299},"country":"IR","name":"Nowjeh Deh-e Sheykhlar"},{"_id":24851,"coord":{"lat":34.073399,"lon":47.9725},"country":"IR","name":"Nurabad"},{"_id":32723,"coord":{"lat":35.23455,"lon":52.309422},"country":"IR","name":"Istgah-e Garmsar"},{"_id":32767,"coord":{"lat":35.439442,"lon":51.56889},"country":"IR","name":"Qarchak"},{"_id":41210,"coord":{"lat":36.213001,"lon":49.195999},"country":"IR","name":"Khorram Darreh"},{"_id":110831,"coord":{"lat":37.087009,"lon":55.173969},"country":"IR","name":"Shah Pasand"},{"_id":111421,"coord":{"lat":30.81271,"lon":56.563992},"country":"IR","name":"Zarand"},{"_id":112214,"coord":{"lat":35.3242,"lon":51.645699},"country":"IR","name":"Varamin"},{"_id":112656,"coord":{"lat":36.816261,"lon":50.87376},"country":"IR","name":"Tonekabon"},{"_id":113343,"coord":{"lat":37.8008,"lon":48.903702},"country":"IR","name":"Hashtpar"},{"_id":113491,"coord":{"lat":36.069599,"lon":49.6959},"country":"IR","name":"Takestan"},{"_id":113508,"coord":{"lat":36.400902,"lon":47.1133},"country":"IR","name":"Takab"},{"_id":113632,"coord":{"lat":31.747101,"lon":54.20882},"country":"IR","name":"Taft"},{"_id":113659,"coord":{"lat":33.59586,"lon":56.92437},"country":"IR","name":"Tabas"},{"_id":114049,"coord":{"lat":34.783699,"lon":47.600399},"country":"IR","name":"Sonqor"},{"_id":114593,"coord":{"lat":32.194199,"lon":48.243599},"country":"IR","name":"Shush"},{"_id":116102,"coord":{"lat":30.649719,"lon":48.664719},"country":"IR","name":"Shadegan"},{"_id":117392,"coord":{"lat":36.24992,"lon":46.273499},"country":"IR","name":"Saqqez"},{"_id":117793,"coord":{"lat":36.679298,"lon":46.566898},"country":"IR","name":"Shahin Dezh"},{"_id":118063,"coord":{"lat":36.212601,"lon":57.681911},"country":"IR","name":"Sabzevar"},{"_id":118191,"coord":{"lat":37.137611,"lon":50.287998},"country":"IR","name":"Rudsar"},{"_id":118805,"coord":{"lat":30.8946,"lon":49.409199},"country":"IR","name":"Ramshir"},{"_id":118826,"coord":{"lat":31.27997,"lon":49.603512},"country":"IR","name":"Ramhormoz"},{"_id":119115,"coord":{"lat":37.105999,"lon":58.509548},"country":"IR","name":"Quchan"},{"_id":119730,"coord":{"lat":38.891499,"lon":45.025501},"country":"IR","name":"Qarah Zia od Din"},{"_id":120678,"coord":{"lat":32.27174,"lon":50.98008},"country":"IR","name":"Farrokh Shahr"},{"_id":120694,"coord":{"lat":33.72654,"lon":59.184391},"country":"IR","name":"Qayen"},{"_id":120931,"coord":{"lat":34.46109,"lon":45.86264},"country":"IR","name":"Sarpol-e Zahab"},{"_id":120972,"coord":{"lat":35.307999,"lon":51.7267},"country":"IR","name":"Pishva"},{"_id":121110,"coord":{"lat":36.701,"lon":45.1413},"country":"IR","name":"Piranshahr"},{"_id":121240,"coord":{"lat":35.0434,"lon":46.356499},"country":"IR","name":"Paveh"},{"_id":121795,"coord":{"lat":37.0397,"lon":45.098301},"country":"IR","name":"Oshnaviyeh"},{"_id":121801,"coord":{"lat":37.552738,"lon":45.07605},"country":"IR","name":"Orumiyeh"},{"_id":121925,"coord":{"lat":30.11405,"lon":51.52174},"country":"IR","name":"Nurabad"},{"_id":122289,"coord":{"lat":29.198799,"lon":54.327801},"country":"IR","name":"Neyriz"},{"_id":122438,"coord":{"lat":35.952099,"lon":50.607498},"country":"IR","name":"Nazarabad"},{"_id":122698,"coord":{"lat":36.955299,"lon":45.388},"country":"IR","name":"Naqadeh"},{"_id":122915,"coord":{"lat":34.188499,"lon":48.376999},"country":"IR","name":"Nahavand"},{"_id":123941,"coord":{"lat":27.1467,"lon":57.080101},"country":"IR","name":"Minab"},{"_id":124193,"coord":{"lat":32.250141,"lon":54.016579},"country":"IR","name":"Meybod"},{"_id":124274,"coord":{"lat":31.591681,"lon":54.431782},"country":"IR","name":"Mehriz"},{"_id":124620,"coord":{"lat":31.936399,"lon":49.303902},"country":"IR","name":"Masjed Soleyman"},{"_id":124647,"coord":{"lat":29.922661,"lon":56.574341},"country":"IR","name":"Bardsir"},{"_id":125185,"coord":{"lat":34.296902,"lon":48.823502},"country":"IR","name":"Malayer"},{"_id":125188,"coord":{"lat":35.665901,"lon":50.9767},"country":"IR","name":"Malard"},{"_id":125446,"coord":{"lat":36.7631,"lon":45.722198},"country":"IR","name":"Mahabad"},{"_id":126914,"coord":{"lat":26.557779,"lon":54.01944},"country":"IR","name":"Kish"},{"_id":127033,"coord":{"lat":33.22052,"lon":50.314968},"country":"IR","name":"Khvansar"},{"_id":127403,"coord":{"lat":33.642262,"lon":50.078899},"country":"IR","name":"Khomeyn"},{"_id":128008,"coord":{"lat":37.6189,"lon":48.525799},"country":"IR","name":"Herowabad"},{"_id":128447,"coord":{"lat":35.238312,"lon":58.46558},"country":"IR","name":"Kashmar"},{"_id":128477,"coord":{"lat":33.983082,"lon":51.43644},"country":"IR","name":"Kashan"},{"_id":128905,"coord":{"lat":34.795601,"lon":46.935501},"country":"IR","name":"Kamyaran"},{"_id":130245,"coord":{"lat":34.796108,"lon":46.51722},"country":"IR","name":"Javanrud"},{"_id":131962,"coord":{"lat":34.272099,"lon":47.586102},"country":"IR","name":"Harsin"},{"_id":132961,"coord":{"lat":34.352859,"lon":58.683651},"country":"IR","name":"Gonabad"},{"_id":133037,"coord":{"lat":33.453701,"lon":50.288361},"country":"IR","name":"Golpayegan"},{"_id":133595,"coord":{"lat":27.665199,"lon":54.1371},"country":"IR","name":"Gerash"},{"_id":134217,"coord":{"lat":29.5791,"lon":50.516998},"country":"IR","name":"Bandar-e Ganaveh"},{"_id":134518,"coord":{"lat":28.8438,"lon":52.570702},"country":"IR","name":"Firuzabad"},{"_id":134602,"coord":{"lat":36.68642,"lon":52.522549},"country":"IR","name":"Fereydun Kenar"},{"_id":134762,"coord":{"lat":32.256939,"lon":50.560959},"country":"IR","name":"Farsan"},{"_id":135298,"coord":{"lat":37.07645,"lon":57.51009},"country":"IR","name":"Esfarayen"},{"_id":135423,"coord":{"lat":36.41819,"lon":54.97628},"country":"IR","name":"Shahrud"},{"_id":136399,"coord":{"lat":33.990501,"lon":50.6838},"country":"IR","name":"Delijan"},{"_id":136702,"coord":{"lat":32.694099,"lon":47.267899},"country":"IR","name":"Dehloran"},{"_id":136987,"coord":{"lat":30.794901,"lon":50.564579},"country":"IR","name":"Dehdasht"},{"_id":137956,"coord":{"lat":28.75194,"lon":54.544441},"country":"IR","name":"Darab"},{"_id":138025,"coord":{"lat":36.168301,"lon":54.348},"country":"IR","name":"Damghan"},{"_id":138042,"coord":{"lat":35.717781,"lon":52.064999},"country":"IR","name":"Damavand"},{"_id":138742,"coord":{"lat":36.645458,"lon":59.121231},"country":"IR","name":"Chenaran"},{"_id":139223,"coord":{"lat":36.654999,"lon":51.420399},"country":"IR","name":"Chalus"},{"_id":139889,"coord":{"lat":36.521,"lon":46.2089},"country":"IR","name":"Bukan"},{"_id":140044,"coord":{"lat":33.897301,"lon":48.751598},"country":"IR","name":"Borujerd"},{"_id":140046,"coord":{"lat":31.965231,"lon":51.2873},"country":"IR","name":"Borujen"},{"_id":140097,"coord":{"lat":29.2666,"lon":51.2159},"country":"IR","name":"Borazjan"},{"_id":140463,"coord":{"lat":32.86628,"lon":59.221142},"country":"IR","name":"Birjand"},{"_id":140521,"coord":{"lat":35.866798,"lon":47.605061},"country":"IR","name":"Bijar"},{"_id":140889,"coord":{"lat":37.340401,"lon":46.056099},"country":"IR","name":"Bonab"},{"_id":140951,"coord":{"lat":30.5959,"lon":50.241699},"country":"IR","name":"Behbahan"},{"_id":141584,"coord":{"lat":35.997501,"lon":45.8853},"country":"IR","name":"Baneh"},{"_id":141665,"coord":{"lat":26.55792,"lon":54.880669},"country":"IR","name":"Bandar-e Lengeh"},{"_id":141681,"coord":{"lat":27.186501,"lon":56.2808},"country":"IR","name":"Bandar Abbas"},{"_id":141736,"coord":{"lat":29.106001,"lon":58.356998},"country":"IR","name":"Bam"},{"_id":142496,"coord":{"lat":33.609501,"lon":48.930698},"country":"IR","name":"Azna"},{"_id":142679,"coord":{"lat":37.259621,"lon":49.944439},"country":"IR","name":"Astaneh-ye Ashrafiyeh"},{"_id":142872,"coord":{"lat":34.78241,"lon":48.11853},"country":"IR","name":"Asadabad"},{"_id":143052,"coord":{"lat":33.376099,"lon":52.3694},"country":"IR","name":"Ardestan"},{"_id":143073,"coord":{"lat":32.310009,"lon":54.017471},"country":"IR","name":"Ardakan"},{"_id":143534,"coord":{"lat":36.469608,"lon":52.350719},"country":"IR","name":"Amol"},{"_id":143748,"coord":{"lat":36.318699,"lon":49.167801},"country":"IR","name":"Alvand"},{"_id":143860,"coord":{"lat":35.659599,"lon":51.059299},"country":"IR","name":"Shahriar"},{"_id":144269,"coord":{"lat":33.8633,"lon":48.261902},"country":"IR","name":"Aleshtar"},{"_id":144410,"coord":{"lat":29.246401,"lon":52.779301},"country":"IR","name":"Akbarabad"},{"_id":144443,"coord":{"lat":37.4776,"lon":45.894299},"country":"IR","name":"Ajab Shir"},{"_id":144448,"coord":{"lat":31.320299,"lon":48.6693},"country":"IR","name":"Ahvaz"},{"_id":145034,"coord":{"lat":36.146801,"lon":49.217999},"country":"IR","name":"Abhar"},{"_id":145233,"coord":{"lat":32.992599,"lon":47.4198},"country":"IR","name":"Abdanan"},{"_id":145449,"coord":{"lat":31.160801,"lon":52.6506},"country":"IR","name":"Abadeh"},{"_id":406993,"coord":{"lat":35.3022,"lon":51.535801},"country":"IR","name":"Eqbaliyeh"},{"_id":418521,"coord":{"lat":32.68462,"lon":51.601292},"country":"IR","name":"Rehnan"},{"_id":418571,"coord":{"lat":32.576698,"lon":51.455002},"country":"IR","name":"Qahderijan"},{"_id":418710,"coord":{"lat":32.70018,"lon":51.52113},"country":"IR","name":"Khomeyni Shahr"},{"_id":418723,"coord":{"lat":32.55603,"lon":51.526299},"country":"IR","name":"Kelishad"},{"_id":418851,"coord":{"lat":32.555302,"lon":51.509739},"country":"IR","name":"Mollavarjan"},{"_id":418868,"coord":{"lat":32.799782,"lon":51.69553},"country":"IR","name":"Dowlatabad"},{"_id":418896,"coord":{"lat":32.61528,"lon":51.555561},"country":"IR","name":"Dorcheh Piaz"},{"_id":1159362,"coord":{"lat":35.243999,"lon":60.622501},"country":"IR","name":"Torbat-e Jam"},{"_id":1159716,"coord":{"lat":36.544899,"lon":61.1577},"country":"IR","name":"Sarakhs"},{"_id":1160939,"coord":{"lat":27.20245,"lon":60.684761},"country":"IR","name":"Iranshahr"},{"_id":66093,"coord":{"lat":30.66824,"lon":51.587959},"country":"IR","nam