{"countryCode":"IR","countryName":"Iran","countryFilePath":"IR.json","countryCityList":[{"_id":141668,"name":"Bandar Emām Khomeynī","country":"IR","coord":{"lon":49.076279,"lat":30.429831}},{"_id":66108,"name":"Shāhrūd","country":"IR","coord":{"lon":55.01667,"lat":36.416672}},{"_id":127082,"name":"Ostān-e Khūzestān","country":"IR","coord":{"lon":49.0,"lat":31.5}},{"_id":138327,"name":"Jowkān","country":"IR","coord":{"lon":51.258701,"lat":33.610401}},{"_id":7648907,"name":"Ostān-e Alborz","country":"IR","coord":{"lon":50.809559,"lat":36.011169}},{"_id":113646,"name":"Tabriz","country":"IR","coord":{"lon":46.291901,"lat":38.080002}},{"_id":1159301,"name":"Zahedan","country":"IR","coord":{"lon":60.8629,"lat":29.4963}},{"_id":1161724,"name":"Chah Bahar","country":"IR","coord":{"lon":60.643002,"lat":25.291901}},{"_id":124544,"name":"Ostān-e Māzandarān","country":"IR","coord":{"lon":52.333328,"lat":36.25}},{"_id":449504,"name":"Eslāmshahr","country":"IR","coord":{"lon":51.2346,"lat":35.560501}},{"_id":1113217,"name":"Zabol","country":"IR","coord":{"lon":61.501202,"lat":31.0287}},{"_id":128321,"name":"Kazerun","country":"IR","coord":{"lon":51.654148,"lat":29.61949}},{"_id":127989,"name":"Khāmeneh","country":"IR","coord":{"lon":45.630901,"lat":38.193401}},{"_id":7642294,"name":"Shahrak-e Dāneshgāh","country":"IR","coord":{"lon":52.64043,"lat":36.703781}},{"_id":6709842,"name":"Maḩall-e Eḩdās̄-e Shahrak-e Shardārī-ye Būkān","country":"IR","coord":{"lon":46.209,"lat":36.485298}},{"_id":119161,"name":"Qorveh","country":"IR","coord":{"lon":47.804501,"lat":35.166401}},{"_id":132938,"name":"Gonbad-e Qabus","country":"IR","coord":{"lon":55.16721,"lat":37.250038}},{"_id":129933,"name":"Juybar","country":"IR","coord":{"lon":52.912441,"lat":36.641151}},{"_id":140380,"name":"Bojnurd","country":"IR","coord":{"lon":57.329029,"lat":37.474731}},{"_id":141679,"name":"Bandar-e Anzali","country":"IR","coord":{"lon":49.4622,"lat":37.472698}},{"_id":6909756,"name":"Fasārūd","country":"IR","coord":{"lon":52.700401,"lat":30.9111}},{"_id":14256,"name":"Azadshahr","country":"IR","coord":{"lon":48.570728,"lat":34.790878}},{"_id":115770,"name":"Shahr-e Kord","country":"IR","coord":{"lon":50.864441,"lat":32.325562}},{"_id":116406,"name":"Semirom","country":"IR","coord":{"lon":51.566669,"lat":31.41667}},{"_id":121861,"name":"Omidiyeh","country":"IR","coord":{"lon":49.705002,"lat":30.75972}},{"_id":126409,"name":"Kuhdasht","country":"IR","coord":{"lon":47.606098,"lat":33.535}},{"_id":134721,"name":"Fasa","country":"IR","coord":{"lon":53.648201,"lat":28.938299}},{"_id":142358,"name":"Babolsar","country":"IR","coord":{"lon":52.6576,"lat":36.702511}},{"_id":142554,"name":"Hashtrud","country":"IR","coord":{"lon":47.0508,"lat":37.477901}},{"_id":144794,"name":"Abyek","country":"IR","coord":{"lon":50.549999,"lat":36.066669}},{"_id":1159384,"name":"Taybad","country":"IR","coord":{"lon":60.7756,"lat":34.740002}},{"_id":130758,"name":"Islamic Republic of Iran","country":"IR","coord":{"lon":53.0,"lat":32.0}},{"_id":413931,"name":"Ostān-e Ardabīl","country":"IR","coord":{"lon":48.0,"lat":38.5}},{"_id":37755,"name":"Ravīndūzaq","country":"IR","coord":{"lon":48.080002,"lat":38.4398}},{"_id":128222,"name":"Ostān-e Kermānshāh","country":"IR","coord":{"lon":46.75,"lat":34.416672}},{"_id":6720817,"name":"Shahrak-e Be‘s̄at","country":"IR","coord":{"lon":47.071201,"lat":34.301899}},{"_id":115637,"name":"Shajarāt","country":"IR","coord":{"lon":49.173698,"lat":31.5741}},{"_id":30321,"name":"Zīrjān","country":"IR","coord":{"lon":58.43586,"lat":34.214401}},{"_id":113832,"name":"Şūfīābād","country":"IR","coord":{"lon":53.320202,"lat":35.457298}},{"_id":41964,"name":"Kūchaklī","country":"IR","coord":{"lon":50.533329,"lat":35.466671}},{"_id":115019,"name":"Shiraz","country":"IR","coord":{"lon":52.538799,"lat":29.6036}},{"_id":18007,"name":"Gollar","country":"IR","coord":{"lon":46.25,"lat":37.383331}},{"_id":111453,"name":"Zanjan","country":"IR","coord":{"lon":48.478699,"lat":36.673599}},{"_id":112311,"name":"Vālānjerd","country":"IR","coord":{"lon":48.8339,"lat":33.860901}},{"_id":139817,"name":"Bandar Bushehr","country":"IR","coord":{"lon":50.838501,"lat":28.968399}},{"_id":119374,"name":"Qeshm","country":"IR","coord":{"lon":56.2719,"lat":26.958099}},{"_id":118367,"name":"Robat Karim","country":"IR","coord":{"lon":51.082901,"lat":35.4846}},{"_id":125897,"name":"Langerud","country":"IR","coord":{"lon":50.153511,"lat":37.19701}},{"_id":23814,"name":"Kahriz","country":"IR","coord":{"lon":47.055302,"lat":34.383801}},{"_id":115781,"name":"Shahr-e Babak","country":"IR","coord":{"lon":55.118599,"lat":30.116501}},{"_id":118704,"name":"Ravar","country":"IR","coord":{"lon":56.80545,"lat":31.265619}},{"_id":121959,"name":"Now Shahr","country":"IR","coord":{"lon":51.495998,"lat":36.648998}},{"_id":129512,"name":"Kalaleh","country":"IR","coord":{"lon":55.491638,"lat":37.380711}},{"_id":142000,"name":"Bahar","country":"IR","coord":{"lon":48.441399,"lat":34.9072}},{"_id":142255,"name":"Bafq","country":"IR","coord":{"lon":55.410671,"lat":31.612829}},{"_id":144696,"name":"Aghajari","country":"IR","coord":{"lon":49.831501,"lat":30.7006}},{"_id":417594,"name":"Shahreza","country":"IR","coord":{"lon":51.87944,"lat":32.03389}},{"_id":6874767,"name":"Dowlatābād","country":"IR","coord":{"lon":52.411999,"lat":31.1562}},{"_id":418862,"name":"Ostān-e Eşfahān","country":"IR","coord":{"lon":52.166672,"lat":33.0}},{"_id":132142,"name":"Ostān-e Hamadān","country":"IR","coord":{"lon":48.583328,"lat":34.833328}},{"_id":140082,"name":"Borjak","country":"IR","coord":{"lon":48.470081,"lat":34.174278}},{"_id":6201375,"name":"Ostān-e Khorāsān-e Raẕavī","country":"IR","coord":{"lon":59.0,"lat":35.25}},{"_id":443794,"name":"Ostān-e Qom","country":"IR","coord":{"lon":51.0,"lat":34.75}},{"_id":403714,"name":"Khorramābād","country":"IR","coord":{"lon":50.537701,"lat":34.4161}},{"_id":123256,"name":"Ḩowẕ-e Sorkh","country":"IR","coord":{"lon":59.136929,"lat":35.195129}},{"_id":116401,"name":"Ostān-e Semnān","country":"IR","coord":{"lon":55.0,"lat":35.5}},{"_id":110791,"name":"Ostān-e Tehrān","country":"IR","coord":{"lon":51.416672,"lat":35.666672}},{"_id":120219,"name":"Qal‘eh-ye Moḩammad ‘Alī Khān","country":"IR","coord":{"lon":50.981098,"lat":35.2528}},{"_id":124763,"name":"Ostān-e Markazī","country":"IR","coord":{"lon":49.833328,"lat":34.333328}},{"_id":126584,"name":"Ostān-e Kordestān","country":"IR","coord":{"lon":47.0,"lat":35.666672}},{"_id":3530,"name":"Qabāghlū","country":"IR","coord":{"lon":46.168499,"lat":36.173302}},{"_id":6201376,"name":"Ostān-e Khorāsān-e Shomālī","country":"IR","coord":{"lon":57.0,"lat":37.5}},{"_id":129406,"name":"Kalāteh-ye Bālī","country":"IR","coord":{"lon":58.198681,"lat":37.573441}},{"_id":122721,"name":"Namīn","country":"IR","coord":{"lon":48.483898,"lat":38.426899}},{"_id":142550,"name":"Ostān-e Āz̄arbāyjān-e Gharbī","country":"IR","coord":{"lon":45.0,"lat":37.666672}},{"_id":14177,"name":"Āqdūz","country":"IR","coord":{"lon":44.26556,"lat":39.197498}},{"_id":112646,"name":"Torbat-e Heydariyeh","country":"IR","coord":{"lon":59.21949,"lat":35.27401}},{"_id":124665,"name":"Mashhad","country":"IR","coord":{"lon":59.606201,"lat":36.297001}},{"_id":112931,"name":"Tehran","country":"IR","coord":{"lon":51.421509,"lat":35.694389}},{"_id":134460,"name":"Fīsherābād","country":"IR","coord":{"lon":51.433331,"lat":35.666672}},{"_id":418863,"name":"Esfahan","country":"IR","coord":{"lon":51.677608,"lat":32.657219}},{"_id":134766,"name":"Ostān-e Fārs","country":"IR","coord":{"lon":53.0,"lat":29.0}},{"_id":128747,"name":"Karaj","country":"IR","coord":{"lon":51.0103,"lat":35.835499}},{"_id":142549,"name":"Ostān-e Āz̄arbāyjān-e Sharqī","country":"IR","coord":{"lon":46.75,"lat":38.0}},{"_id":130801,"name":"Ostān-e Īlām","country":"IR","coord":{"lon":47.0,"lat":33.166672}},{"_id":130802,"name":"Ilam","country":"IR","coord":{"lon":46.422699,"lat":33.637402}},{"_id":143127,"name":"Arak","country":"IR","coord":{"lon":49.689159,"lat":34.09174}},{"_id":128231,"name":"Ostān-e Kermān","country":"IR","coord":{"lon":57.25,"lat":29.75}},{"_id":128234,"name":"Kerman","country":"IR","coord":{"lon":57.078789,"lat":30.283211}},{"_id":116402,"name":"Semnan","country":"IR","coord":{"lon":53.397141,"lat":35.57291}},{"_id":111452,"name":"Ostān-e Zanjān","country":"IR","coord":{"lon":48.333328,"lat":36.5}},{"_id":1159456,"name":"Ostān-e Sīstān va Balūchestān","country":"IR","coord":{"lon":60.5,"lat":28.5}},{"_id":125605,"name":"Ostān-e Lorestān","country":"IR","coord":{"lon":48.5,"lat":33.5}},{"_id":143083,"name":"Ardabil","country":"IR","coord":{"lon":48.293301,"lat":38.249802}},{"_id":443793,"name":"Ostān-e Qazvīn","country":"IR","coord":{"lon":49.75,"lat":36.0}},{"_id":119505,"name":"Qazvin","country":"IR","coord":{"lon":50.004902,"lat":36.279701}},{"_id":139816,"name":"Ostān-e Būshehr","country":"IR","coord":{"lon":51.5,"lat":28.75}},{"_id":116996,"name":"Shari-i-Tajan","country":"IR","coord":{"lon":53.060089,"lat":36.56332}},{"_id":128226,"name":"Kermanshah","country":"IR","coord":{"lon":47.064999,"lat":34.314171}},{"_id":7789591,"name":"Pas Kalāyeh-ye Kūchak","country":"IR","coord":{"lon":50.878052,"lat":36.807171}},{"_id":140918,"name":"Behshahr","country":"IR","coord":{"lon":53.55262,"lat":36.692348}},{"_id":133349,"name":"Ostān-e Gīlān","country":"IR","coord":{"lon":49.5,"lat":37.166672}},{"_id":118743,"name":"Rasht","country":"IR","coord":{"lon":49.583191,"lat":37.280769}},{"_id":136256,"name":"Dezful","country":"IR","coord":{"lon":48.40581,"lat":32.38114}},{"_id":126878,"name":"Ostān-e Kohgīlūyeh va Bowyer Aḩmad","country":"IR","coord":{"lon":50.666672,"lat":30.83333}},{"_id":125315,"name":"Maḩmūdābād-e Soflá","country":"IR","coord":{"lon":51.612202,"lat":30.66028}},{"_id":118994,"name":"Rafsanjan","country":"IR","coord":{"lon":55.9939,"lat":30.4067}},{"_id":142363,"name":"Babol","country":"IR","coord":{"lon":52.678951,"lat":36.551319}},{"_id":132144,"name":"Hamadan","country":"IR","coord":{"lon":48.514561,"lat":34.799221}},{"_id":418606,"name":"Najafabad","country":"IR","coord":{"lon":51.366798,"lat":32.634399}},{"_id":69349,"name":"‘Abbāsābād-e Qūsheh","country":"IR","coord":{"lon":59.216671,"lat":32.866669}},{"_id":144449,"name":"Ahvāz","country":"IR","coord":{"lon":48.7505,"lat":31.355301}},{"_id":116667,"name":"Saveh","country":"IR","coord":{"lon":50.356602,"lat":35.021301}},{"_id":443792,"name":"Ostān-e Golestān","country":"IR","coord":{"lon":55.0,"lat":37.25}},{"_id":132892,"name":"Gorgan","country":"IR","coord":{"lon":54.43475,"lat":36.838661}},{"_id":111821,"name":"Ostān-e Yazd","country":"IR","coord":{"lon":55.583328,"lat":32.5}},{"_id":111822,"name":"Yazd","country":"IR","coord":{"lon":54.3675,"lat":31.897221}},{"_id":18093,"name":"Dīgāleh","country":"IR","coord":{"lon":45.106998,"lat":37.552502}},{"_id":119208,"name":"Qom","country":"IR","coord":{"lon":50.8764,"lat":34.640099}},{"_id":131222,"name":"Ostān-e Hormozgān","country":"IR","coord":{"lon":56.5,"lat":27.75}},{"_id":133964,"name":"Garmsār","country":"IR","coord":{"lon":52.340851,"lat":35.218239}},{"_id":124862,"name":"Marand","country":"IR","coord":{"lon":45.774899,"lat":38.432899}},{"_id":6686755,"name":"Mahābād","country":"IR","coord":{"lon":45.7229,"lat":36.749901}},{"_id":6672193,"name":"Mākū","country":"IR","coord":{"lon":44.4809,"lat":39.294399}},{"_id":114259,"name":"Sirjan","country":"IR","coord":{"lon":55.6814,"lat":29.452}},{"_id":7637212,"name":"Maḩalleh-ye Khāvar","country":"IR","coord":{"lon":52.36055,"lat":36.462719}},{"_id":6861952,"name":"Shahrak-e Moḩammad-e Montaz̧erī","country":"IR","coord":{"lon":51.898899,"lat":33.523998}},{"_id":124085,"name":"Miandowab","country":"IR","coord":{"lon":46.102699,"lat":36.969398}},{"_id":1160571,"name":"Khash","country":"IR","coord":{"lon":61.21582,"lat":28.221069}},{"_id":124291,"name":"Mehran","country":"IR","coord":{"lon":46.1646,"lat":33.1222}},{"_id":114584,"name":"Shushtar","country":"IR","coord":{"lon":48.856701,"lat":32.045502}},{"_id":126972,"name":"Khvoy","country":"IR","coord":{"lon":44.952099,"lat":38.550301}},{"_id":117574,"name":"Sanandaj","country":"IR","coord":{"lon":46.992298,"lat":35.3144}},{"_id":144616,"name":"Ahar","country":"IR","coord":{"lon":47.069901,"lat":38.477402}},{"_id":117656,"name":"Salmas","country":"IR","coord":{"lon":44.765301,"lat":38.1973}},{"_id":121380,"name":"Parsabad","country":"IR","coord":{"lon":47.9174,"lat":39.648201}},{"_id":144795,"name":"Ābyek","country":"IR","coord":{"lon":50.531021,"lat":36.039928}},{"_id":128831,"name":"Kangavar","country":"IR","coord":{"lon":47.965302,"lat":34.504299}},{"_id":122397,"name":"Neka","country":"IR","coord":{"lon":53.299049,"lat":36.650791}},{"_id":9874,"name":"Ţālesh Maḩalleh","country":"IR","coord":{"lon":50.679192,"lat":36.894329}},{"_id":7516325,"name":"Fatḩābād","country":"IR","coord":{"lon":55.395748,"lat":31.600281}},{"_id":122285,"name":"Neyshabur","country":"IR","coord":{"lon":58.795761,"lat":36.213291}},{"_id":145459,"name":"Abadan","country":"IR","coord":{"lon":48.304298,"lat":30.339199}},{"_id":36741,"name":"Andīmeshk","country":"IR","coord":{"lon":48.383331,"lat":32.533329}},{"_id":143921,"name":"Aligudarz","country":"IR","coord":{"lon":49.694901,"lat":33.400631}},{"_id":142676,"name":"Astara","country":"IR","coord":{"lon":48.872002,"lat":38.4291}},{"_id":127349,"name":"Khorramabad","country":"IR","coord":{"lon":48.355831,"lat":33.487782}},{"_id":127319,"name":"Khorramshahr","country":"IR","coord":{"lon":48.166401,"lat":30.439699}},{"_id":137268,"name":"Susangerd","country":"IR","coord":{"lon":48.183102,"lat":31.560801}},{"_id":6659521,"name":"Kūy-e Ekhteşāşī-ye Gomrok","country":"IR","coord":{"lon":51.329201,"lat":35.692501}},{"_id":6711051,"name":"Āz̄ar Bonāb","country":"IR","coord":{"lon":46.123699,"lat":37.372002}},{"_id":132548,"name":"Gūsheh Shāhzādeh Qāsem","country":"IR","coord":{"lon":51.549999,"lat":30.700001}},{"_id":128137,"name":"Khāfī","country":"IR","coord":{"lon":53.176998,"lat":27.361401}},{"_id":140851,"name":"Berāk","country":"IR","coord":{"lon":54.3955,"lat":27.668699}},{"_id":11754,"name":"Bālā Aḩmad Kolā","country":"IR","coord":{"lon":52.667271,"lat":36.649059}},{"_id":7052836,"name":"Ḩasanābād","country":"IR","coord":{"lon":61.054298,"lat":36.546501}},{"_id":7034325,"name":"Sa‘īdābād-e Pā‘īn","country":"IR","coord":{"lon":56.076302,"lat":30.257601}},{"_id":138568,"name":"Cheshmeh Kabūd","country":"IR","coord":{"lon":46.405102,"lat":33.5732}},{"_id":125794,"name":"Lāvān","country":"IR","coord":{"lon":53.369999,"lat":26.809719}},{"_id":400747,"name":"Abū Mūsā","country":"IR","coord":{"lon":55.023628,"lat":25.86698}},{"_id":130216,"name":"Khārk","country":"IR","coord":{"lon":50.330559,"lat":29.261391}},{"_id":6683626,"name":"Chāh Gachī","country":"IR","coord":{"lon":52.348999,"lat":27.8242}},{"_id":1114776,"name":"Tomp-e Rīgān","country":"IR","coord":{"lon":60.72287,"lat":27.253941}},{"_id":1160915,"name":"Jahlīār","country":"IR","coord":{"lon":60.361401,"lat":25.4758}},{"_id":6651320,"name":"Deh-e Dargī","country":"IR","coord":{"lon":61.546501,"lat":31.099701}},{"_id":8029482,"name":"Darvāzeh Qorān","country":"IR","coord":{"lon":54.296501,"lat":31.934919}},{"_id":117067,"name":"Sāremsāqlū","country":"IR","coord":{"lon":48.3703,"lat":36.759701}},{"_id":35056,"name":"Tabrīz Jānī","country":"IR","coord":{"lon":46.23333,"lat":38.133331}},{"_id":18557,"name":"Qarālar-e Mīrzā Ḩoseynqolī","country":"IR","coord":{"lon":45.067501,"lat":37.674702}},{"_id":6689293,"name":"Reẕāābād","country":"IR","coord":{"lon":48.396198,"lat":38.3237}},{"_id":3245,"name":"Taglag","country":"IR","coord":{"lon":44.98333,"lat":38.450001}},{"_id":390237,"name":"Ja‘farābād-e Now","country":"IR","coord":{"lon":52.590801,"lat":29.525999}},{"_id":131965,"name":"Hārom","country":"IR","coord":{"lon":53.714699,"lat":28.905399}},{"_id":11263,"name":"Shahrīār Kandeh","country":"IR","coord":{"lon":53.19902,"lat":36.631939}},{"_id":118848,"name":"Ramak","country":"IR","coord":{"lon":50.667931,"lat":36.898361}},{"_id":8084,"name":"Behjatābād","country":"IR","coord":{"lon":51.461639,"lat":36.667431}},{"_id":39161,"name":"Māmā’ī","country":"IR","coord":{"lon":54.397739,"lat":36.892578}},{"_id":130261,"name":"Javādīyeh","country":"IR","coord":{"lon":56.855751,"lat":33.665451}},{"_id":7264,"name":"Kalāteh-ye Dowlat","country":"IR","coord":{"lon":57.616982,"lat":36.163841}},{"_id":40847,"name":"Reẕāābād","country":"IR","coord":{"lon":57.31778,"lat":37.499722}},{"_id":123600,"name":"Moḩammadābād","country":"IR","coord":{"lon":59.64278,"lat":36.255001}},{"_id":6201374,"name":"Ostān-e Khorāsān-e Jonūbī","country":"IR","coord":{"lon":59.5,"lat":32.5}},{"_id":129364,"name":"Kalāteh-ye Karbalā’ī Ḩājjī","country":"IR","coord":{"lon":59.257221,"lat":32.901669}},{"_id":6649516,"name":"Dayrestān","country":"IR","coord":{"lon":55.934898,"lat":26.7463}},{"_id":7044034,"name":"Akbarābād","country":"IR","coord":{"lon":58.416851,"lat":29.084021}},{"_id":7011520,"name":"Shahrak-e Jahād","country":"IR","coord":{"lon":56.97311,"lat":30.26409}},{"_id":117460,"name":"Sang Kanī","country":"IR","coord":{"lon":56.362061,"lat":27.19796}},{"_id":6660023,"name":"Neshāţīeh","country":"IR","coord":{"lon":50.0457,"lat":36.254902}},{"_id":129945,"name":"Jūraqān","country":"IR","coord":{"lon":48.55444,"lat":34.884899}},{"_id":29033,"name":"Rokan Sarā","country":"IR","coord":{"lon":49.608101,"lat":37.32085}},{"_id":139677,"name":"Ostān-e Chahār Maḩāl va Bakhtīārī","country":"IR","coord":{"lon":50.75,"lat":32.166672}},{"_id":144569,"name":"Aḩmadābād","country":"IR","coord":{"lon":50.849998,"lat":32.26667}},{"_id":417560,"name":"Shāh Karam","country":"IR","coord":{"lon":51.857761,"lat":32.730171}},{"_id":133533,"name":"Gerīzeh","country":"IR","coord":{"lon":47.018501,"lat":35.257999}},{"_id":32516,"name":"Badrābād-e `Olyā","country":"IR","coord":{"lon":48.279442,"lat":33.42944}},{"_id":833,"name":"Ḩeşār-e Sefīd","country":"IR","coord":{"lon":47.159401,"lat":34.330502}},{"_id":141656,"name":"Shenās","country":"IR","coord":{"lon":54.798069,"lat":26.52433}},{"_id":137088,"name":"Deh","country":"IR","coord":{"lon":53.9925,"lat":26.5625}},{"_id":8057484,"name":"Bāgh-e Nār","country":"IR","coord":{"lon":50.836922,"lat":28.94874}},{"_id":6648634,"name":"Barvār","country":"IR","coord":{"lon":48.7603,"lat":31.3431}},{"_id":44992,"name":"Koshtārgāh","country":"IR","coord":{"lon":49.166672,"lat":30.549999}},{"_id":136014,"name":"Do Gonbadan","country":"IR","coord":{"lon":50.7981,"lat":30.358601}},{"_id":6663476,"name":"Kūy-e Emām Ḩasan","country":"IR","coord":{"lon":50.8167,"lat":30.355101}},{"_id":121859,"name":"Omīdīyeh-ye Pā’īn","country":"IR","coord":{"lon":49.703331,"lat":30.759171}},{"_id":6687934,"name":"Kūy-e Jomhūrī-ye Eslāmī","country":"IR","coord":{"lon":48.359299,"lat":32.433998}},{"_id":45013,"name":"Jozf-e Soflá","country":"IR","coord":{"lon":48.224098,"lat":30.365499}},{"_id":122002,"name":"Nowjeh Deh-e Sheykhlar","country":"IR","coord":{"lon":45.962299,"lat":38.489101}},{"_id":24851,"name":"Nurabad","country":"IR","coord":{"lon":47.9725,"lat":34.073399}},{"_id":32723,"name":"Istgah-e Garmsar","country":"IR","coord":{"lon":52.309422,"lat":35.23455}},{"_id":32767,"name":"Qarchak","country":"IR","coord":{"lon":51.56889,"lat":35.439442}},{"_id":41210,"name":"Khorram Darreh","country":"IR","coord":{"lon":49.195999,"lat":36.213001}},{"_id":110831,"name":"Shah Pasand","country":"IR","coord":{"lon":55.173969,"lat":37.087009}},{"_id":111421,"name":"Zarand","country":"IR","coord":{"lon":56.563992,"lat":30.81271}},{"_id":112214,"name":"Varamin","country":"IR","coord":{"lon":51.645699,"lat":35.3242}},{"_id":112656,"name":"Tonekabon","country":"IR","coord":{"lon":50.87376,"lat":36.816261}},{"_id":113343,"name":"Hashtpar","country":"IR","coord":{"lon":48.903702,"lat":37.8008}},{"_id":113491,"name":"Takestan","country":"IR","coord":{"lon":49.6959,"lat":36.069599}},{"_id":113508,"name":"Takab","country":"IR","coord":{"lon":47.1133,"lat":36.400902}},{"_id":113632,"name":"Taft","country":"IR","coord":{"lon":54.20882,"lat":31.747101}},{"_id":113659,"name":"Tabas","country":"IR","coord":{"lon":56.92437,"lat":33.59586}},{"_id":114049,"name":"Sonqor","country":"IR","coord":{"lon":47.600399,"lat":34.783699}},{"_id":114593,"name":"Shush","country":"IR","coord":{"lon":48.243599,"lat":32.194199}},{"_id":116102,"name":"Shadegan","country":"IR","coord":{"lon":48.664719,"lat":30.649719}},{"_id":117392,"name":"Saqqez","country":"IR","coord":{"lon":46.273499,"lat":36.24992}},{"_id":117793,"name":"Shahin Dezh","country":"IR","coord":{"lon":46.566898,"lat":36.679298}},{"_id":118063,"name":"Sabzevar","country":"IR","coord":{"lon":57.681911,"lat":36.212601}},{"_id":118191,"name":"Rudsar","country":"IR","coord":{"lon":50.287998,"lat":37.137611}},{"_id":118805,"name":"Ramshir","country":"IR","coord":{"lon":49.409199,"lat":30.8946}},{"_id":118826,"name":"Ramhormoz","country":"IR","coord":{"lon":49.603512,"lat":31.27997}},{"_id":119115,"name":"Quchan","country":"IR","coord":{"lon":58.509548,"lat":37.105999}},{"_id":119730,"name":"Qarah Zia od Din","country":"IR","coord":{"lon":45.025501,"lat":38.891499}},{"_id":120678,"name":"Farrokh Shahr","country":"IR","coord":{"lon":50.98008,"lat":32.27174}},{"_id":120694,"name":"Qayen","country":"IR","coord":{"lon":59.184391,"lat":33.72654}},{"_id":120931,"name":"Sarpol-e Zahab","country":"IR","coord":{"lon":45.86264,"lat":34.46109}},{"_id":120972,"name":"Pishva","country":"IR","coord":{"lon":51.7267,"lat":35.307999}},{"_id":121110,"name":"Piranshahr","country":"IR","coord":{"lon":45.1413,"lat":36.701}},{"_id":121240,"name":"Paveh","country":"IR","coord":{"lon":46.356499,"lat":35.0434}},{"_id":121795,"name":"Oshnaviyeh","country":"IR","coord":{"lon":45.098301,"lat":37.0397}},{"_id":121801,"name":"Orumiyeh","country":"IR","coord":{"lon":45.07605,"lat":37.552738}},{"_id":121925,"name":"Nurabad","country":"IR","coord":{"lon":51.52174,"lat":30.11405}},{"_id":122289,"name":"Neyriz","country":"IR","coord":{"lon":54.327801,"lat":29.198799}},{"_id":122438,"name":"Nazarabad","country":"IR","coord":{"lon":50.607498,"lat":35.952099}},{"_id":122698,"name":"Naqadeh","country":"IR","coord":{"lon":45.388,"lat":36.955299}},{"_id":122915,"name":"Nahavand","country":"IR","coord":{"lon":48.376999,"lat":34.188499}},{"_id":123941,"name":"Minab","country":"IR","coord":{"lon":57.080101,"lat":27.1467}},{"_id":124193,"name":"Meybod","country":"IR","coord":{"lon":54.016579,"lat":32.250141}},{"_id":124274,"name":"Mehriz","country":"IR","coord":{"lon":54.431782,"lat":31.591681}},{"_id":124620,"name":"Masjed Soleyman","country":"IR","coord":{"lon":49.303902,"lat":31.936399}},{"_id":124647,"name":"Bardsir","country":"IR","coord":{"lon":56.574341,"lat":29.922661}},{"_id":125185,"name":"Malayer","country":"IR","coord":{"lon":48.823502,"lat":34.296902}},{"_id":125188,"name":"Malard","country":"IR","coord":{"lon":50.9767,"lat":35.665901}},{"_id":125446,"name":"Mahabad","country":"IR","coord":{"lon":45.722198,"lat":36.7631}},{"_id":126914,"name":"Kish","country":"IR","coord":{"lon":54.01944,"lat":26.557779}},{"_id":127033,"name":"Khvansar","country":"IR","coord":{"lon":50.314968,"lat":33.22052}},{"_id":127403,"name":"Khomeyn","country":"IR","coord":{"lon":50.078899,"lat":33.642262}},{"_id":128008,"name":"Herowabad","country":"IR","coord":{"lon":48.525799,"lat":37.6189}},{"_id":128447,"name":"Kashmar","country":"IR","coord":{"lon":58.46558,"lat":35.238312}},{"_id":128477,"name":"Kashan","country":"IR","coord":{"lon":51.43644,"lat":33.983082}},{"_id":128905,"name":"Kamyaran","country":"IR","coord":{"lon":46.935501,"lat":34.795601}},{"_id":130245,"name":"Javanrud","country":"IR","coord":{"lon":46.51722,"lat":34.796108}},{"_id":131962,"name":"Harsin","country":"IR","coord":{"lon":47.586102,"lat":34.272099}},{"_id":132961,"name":"Gonabad","country":"IR","coord":{"lon":58.683651,"lat":34.352859}},{"_id":133037,"name":"Golpayegan","country":"IR","coord":{"lon":50.288361,"lat":33.453701}},{"_id":133595,"name":"Gerash","country":"IR","coord":{"lon":54.1371,"lat":27.665199}},{"_id":134217,"name":"Bandar-e Ganaveh","country":"IR","coord":{"lon":50.516998,"lat":29.5791}},{"_id":134518,"name":"Firuzabad","country":"IR","coord":{"lon":52.570702,"lat":28.8438}},{"_id":134602,"name":"Fereydun Kenar","country":"IR","coord":{"lon":52.522549,"lat":36.68642}},{"_id":134762,"name":"Farsan","country":"IR","coord":{"lon":50.560959,"lat":32.256939}},{"_id":135298,"name":"Esfarayen","country":"IR","coord":{"lon":57.51009,"lat":37.07645}},{"_id":135423,"name":"Shahrud","country":"IR","coord":{"lon":54.97628,"lat":36.41819}},{"_id":136399,"name":"Delijan","country":"IR","coord":{"lon":50.6838,"lat":33.990501}},{"_id":136702,"name":"Dehloran","country":"IR","coord":{"lon":47.267899,"lat":32.694099}},{"_id":136987,"name":"Dehdasht","country":"IR","coord":{"lon":50.564579,"lat":30.794901}},{"_id":137956,"name":"Darab","country":"IR","coord":{"lon":54.544441,"lat":28.75194}},{"_id":138025,"name":"Damghan","country":"IR","coord":{"lon":54.348,"lat":36.168301}},{"_id":138042,"name":"Damavand","country":"IR","coord":{"lon":52.064999,"lat":35.717781}},{"_id":138742,"name":"Chenaran","country":"IR","coord":{"lon":59.121231,"lat":36.645458}},{"_id":139223,"name":"Chalus","country":"IR","coord":{"lon":51.420399,"lat":36.654999}},{"_id":139889,"name":"Bukan","country":"IR","coord":{"lon":46.2089,"lat":36.521}},{"_id":140044,"name":"Borujerd","country":"IR","coord":{"lon":48.751598,"lat":33.897301}},{"_id":140046,"name":"Borujen","country":"IR","coord":{"lon":51.2873,"lat":31.965231}},{"_id":140097,"name":"Borazjan","country":"IR","coord":{"lon":51.2159,"lat":29.2666}},{"_id":140463,"name":"Birjand","country":"IR","coord":{"lon":59.221142,"lat":32.86628}},{"_id":140521,"name":"Bijar","country":"IR","coord":{"lon":47.605061,"lat":35.866798}},{"_id":140889,"name":"Bonab","country":"IR","coord":{"lon":46.056099,"lat":37.340401}},{"_id":140951,"name":"Behbahan","country":"IR","coord":{"lon":50.241699,"lat":30.5959}},{"_id":141584,"name":"Baneh","country":"IR","coord":{"lon":45.8853,"lat":35.997501}},{"_id":141665,"name":"Bandar-e Lengeh","country":"IR","coord":{"lon":54.880669,"lat":26.55792}},{"_id":141681,"name":"Bandar Abbas","country":"IR","coord":{"lon":56.2808,"lat":27.186501}},{"_id":141736,"name":"Bam","country":"IR","coord":{"lon":58.356998,"lat":29.106001}},{"_id":142496,"name":"Azna","country":"IR","coord":{"lon":48.930698,"lat":33.609501}},{"_id":142679,"name":"Astaneh-ye Ashrafiyeh","country":"IR","coord":{"lon":49.944439,"lat":37.259621}},{"_id":142872,"name":"Asadabad","country":"IR","coord":{"lon":48.11853,"lat":34.78241}},{"_id":143052,"name":"Ardestan","country":"IR","coord":{"lon":52.3694,"lat":33.376099}},{"_id":143073,"name":"Ardakan","country":"IR","coord":{"lon":54.017471,"lat":32.310009}},{"_id":143534,"name":"Amol","country":"IR","coord":{"lon":52.350719,"lat":36.469608}},{"_id":143748,"name":"Alvand","country":"IR","coord":{"lon":49.167801,"lat":36.318699}},{"_id":143860,"name":"Shahriar","country":"IR","coord":{"lon":51.059299,"lat":35.659599}},{"_id":144269,"name":"Aleshtar","country":"IR","coord":{"lon":48.261902,"lat":33.8633}},{"_id":144410,"name":"Akbarabad","country":"IR","coord":{"lon":52.779301,"lat":29.246401}},{"_id":144443,"name":"Ajab Shir","country":"IR","coord":{"lon":45.894299,"lat":37.4776}},{"_id":144448,"name":"Ahvaz","country":"IR","coord":{"lon":48.6693,"lat":31.320299}},{"_id":145034,"name":"Abhar","country":"IR","coord":{"lon":49.217999,"lat":36.146801}},{"_id":145233,"name":"Abdanan","country":"IR","coord":{"lon":47.4198,"lat":32.992599}},{"_id":145449,"name":"Abadeh","country":"IR","coord":{"lon":52.6506,"lat":31.160801}},{"_id":406993,"name":"Eqbaliyeh","country":"IR","coord":{"lon":51.535801,"lat":35.3022}},{"_id":418521,"name":"Rehnan","country":"IR","coord":{"lon":51.601292,"lat":32.68462}},{"_id":418571,"name":"Qahderijan","country":"IR","coord":{"lon":51.455002,"lat":32.576698}},{"_id":418710,"name":"Khomeyni Shahr","country":"IR","coord":{"lon":51.52113,"lat":32.70018}},{"_id":418723,"name":"Kelishad","country":"IR","coord":{"lon":51.526299,"lat":32.55603}},{"_id":418851,"name":"Mollavarjan","country":"IR","coord":{"lon":51.509739,"lat":32.555302}},{"_id":418868,"name":"Dowlatabad","country":"IR","coord":{"lon":51.69553,"lat":32.799782}},{"_id":418896,"name":"Dorcheh Piaz","country":"IR","coord":{"lon":51.555561,"lat":32.61528}},{"_id":1159362,"name":"Torbat-e Jam","country":"IR","coord":{"lon":60.622501,"lat":35.243999}},{"_id":1159716,"name":"Sarakhs","country":"IR","coord":{"lon":61.1577,"lat":36.544899}},{"_id":1160939,"name":"Iranshahr","country":"IR","coord":{"lon":60.684761,"lat":27.20245}},{"_id":66093,"name":"Yasuj","country":"IR","coord":{"lon":51.587959,"lat":30.66824}},{"_id":113636,"name":"Tafresh","country":"IR","coord":{"lon":50.013,"lat":34.692001}},{"_id":127878,"name":"Khani Yek","country":"IR","coord":{"lon":51.686668,"lat":29.89167}},{"_id":134601,"name":"Fereydunshahr","country":"IR","coord":{"lon":50.120998,"lat":32.940979}},{"_id":134905,"name":"pamas","country":"IR","coord":{"lon":48.462002,"lat":34.037922}},{"_id":390054,"name":"Kuh Sefid","country":"IR","coord":{"lon":56.801399,"lat":29.276199}},{"_id":403220,"name":"Khavas Kuh","country":"IR","coord":{"lon":53.674438,"lat":32.30611}},{"_id":6949363,"name":"Famast","country":"IR","coord":{"lon":48.462601,"lat":34.038971}},{"_id":7625467,"name":"Tūsāsān","country":"IR","coord":{"lon":50.661572,"lat":36.919189}}]}
