{"countryCityList":[{"_id":3416900,"coord":{"lat":64.138962,"lon":-21.956779},"country":"IS","name":"Grímsstaðaholt"},{"_id":3415846,"coord":{"lat":64.063164,"lon":-21.98592},"country":"IS","name":"Hvaleyri"},{"_id":2629691,"coord":{"lat":65,"lon":-18},"country":"IS","name":"Republic of Iceland"},{"_id":3426183,"coord":{"lat":63.916672,"lon":-22.25},"country":"IS","name":"Suðurnes"},{"_id":3415496,"coord":{"lat":64.004921,"lon":-22.56242},"country":"IS","name":"Keflavik"},{"_id":3426182,"coord":{"lat":64.166672,"lon":-21.66667},"country":"IS","name":"Höfuðborgarsvæði"},{"_id":6692263,"coord":{"lat":64.118401,"lon":-21.85799},"country":"IS","name":"Reykjavik"},{"_id":3337404,"coord":{"lat":65.5,"lon":-17},"country":"IS","name":"Norðurland Eystra"},{"_id":3415212,"coord":{"lat":64.112343,"lon":-21.912979},"country":"IS","name":"Kopavogur"},{"_id":3426184,"coord":{"lat":64.75,"lon":-21.83333},"country":"IS","name":"Vesturland"},{"_id":3418365,"coord":{"lat":64.619438,"lon":-21.538601},"country":"IS","name":"Kelda"},{"_id":3413650,"coord":{"lat":64.406097,"lon":-21.626881},"country":"IS","name":"Saurbær"},{"_id":3413829,"coord":{"lat":64.135483,"lon":-21.895411},"country":"IS","name":"Reykjavik"},{"_id":2633274,"coord":{"lat":65.683533,"lon":-18.087799},"country":"IS","name":"Akureyri"},{"_id":3337406,"coord":{"lat":64,"lon":-19},"country":"IS","name":"Suðurland"},{"_id":3413604,"coord":{"lat":63.933109,"lon":-20.99712},"country":"IS","name":"Selfoss"},{"_id":2629833,"coord":{"lat":66.044891,"lon":-17.33885},"country":"IS","name":"Husavik"},{"_id":2627130,"coord":{"lat":66.151337,"lon":-18.905121},"country":"IS","name":"Siglufjordur"},{"_id":3337403,"coord":{"lat":65.333328,"lon":-20},"country":"IS","name":"Norðurland Vestra"},{"_id":2627309,"coord":{"lat":65.746109,"lon":-19.639441},"country":"IS","name":"Saudarkrokur"},{"_id":3414079,"coord":{"lat":64.894524,"lon":-23.714239},"country":"IS","name":"Ólafsvík"},{"_id":3337405,"coord":{"lat":65,"lon":-15},"country":"IS","name":"Austurland"},{"_id":2632428,"coord":{"lat":65.031639,"lon":-14.21832},"country":"IS","name":"Reyðarfjörður"},{"_id":2632287,"coord":{"lat":65.970177,"lon":-18.52861},"country":"IS","name":"Dalvik"},{"_id":2625252,"coord":{"lat":63.419701,"lon":-19.00831},"country":"IS","name":"Vík"},{"_id":3415720,"coord":{"lat":63.753311,"lon":-20.22434},"country":"IS","name":"Hvolsvöllur"},{"_id":3412589,"coord":{"lat":63.860931,"lon":-21.378441},"country":"IS","name":"Torlakshofn"},{"_id":2628020,"coord":{"lat":65.148819,"lon":-13.67951},"country":"IS","name":"Neskaupstadur"},{"_id":3411954,"coord":{"lat":63.989658,"lon":-22.547319},"country":"IS","name":"Ytri-Njarðvík"},{"_id":2629399,"coord":{"lat":65.641693,"lon":-18.014799},"country":"IS","name":"Kaupangur"},{"_id":2625189,"coord":{"lat":65.755501,"lon":-14.8252},"country":"IS","name":"Vopnafjörður"},{"_id":3414109,"coord":{"lat":63.41972,"lon":-20.294399},"country":"IS","name":"Ofanleiti"},{"_id":2627642,"coord":{"lat":66.44265,"lon":-15.9486},"country":"IS","name":"Raufarhöfn"},{"_id":2632811,"coord":{"lat":64.315399,"lon":-15.24182},"country":"IS","name":"Bjarnanes"},{"_id":2628310,"coord":{"lat":66.537712,"lon":-17.95118},"country":"IS","name":"Miðgarðar"},{"_id":6354943,"coord":{"lat":65.265327,"lon":-14.39484},"country":"IS","name":"Egilsstadir"},{"_id":3416706,"coord":{"lat":64.067101,"lon":-21.93774},"country":"IS","name":"Hafnarfjordur"},{"_id":2630299,"coord":{"lat":64.253868,"lon":-15.2082},"country":"IS","name":"Hofn"},{"_id":3412093,"coord":{"lat":63.44273,"lon":-20.27339},"country":"IS","name":"Vestmannaeyjar"},{"_id":3412888,"coord":{"lat":65.075729,"lon":-22.72967},"country":"IS","name":"Stykkisholmur"},{"_id":3413727,"coord":{"lat":64.036613,"lon":-22.7066},"country":"IS","name":"Sandgerdi"},{"_id":3414222,"coord":{"lat":63.9809,"lon":-22.5145},"country":"IS","name":"Njardvik"},{"_id":3414979,"coord":{"lat":64.150002,"lon":-22},"country":"IS","name":"Seltjarnarnes"},{"_id":3415021,"coord":{"lat":64.166672,"lon":-21.700001},"country":"IS","name":"Mosfellsbaer"},{"_id":3415667,"coord":{"lat":66.07