{"countryCode":"IT","countryName":"Italy","countryFilePath":"IT.json","countryCityList":[{"_id":3175936,"name":"Grandate","country":"IT","coord":{"lon":9.05784,"lat":45.775181}},{"_id":6539582,"name":"Biella","country":"IT","coord":{"lon":8.05002,"lat":45.55986}},{"_id":6542288,"name":"Soverato","country":"IT","coord":{"lon":16.54991,"lat":38.684978}},{"_id":6540662,"name":"Pinerolo","country":"IT","coord":{"lon":7.33312,"lat":44.883942}},{"_id":6538016,"name":"Montescudo","country":"IT","coord":{"lon":12.54295,"lat":43.91946}},{"_id":6540553,"name":"Ventimiglia","country":"IT","coord":{"lon":7.60264,"lat":43.793522}},{"_id":6542009,"name":"Savona","country":"IT","coord":{"lon":8.47375,"lat":44.30814}},{"_id":6537557,"name":"Ruvo di Puglia","country":"IT","coord":{"lon":16.48778,"lat":41.113628}},{"_id":6539485,"name":"Pioltello","country":"IT","coord":{"lon":9.32435,"lat":45.497971}},{"_id":6536957,"name":"Palestrina","country":"IT","coord":{"lon":12.88899,"lat":41.835522}},{"_id":6537567,"name":"Palagiano","country":"IT","coord":{"lon":17.037399,"lat":40.57822}},{"_id":6538821,"name":"Pagani","country":"IT","coord":{"lon":14.61334,"lat":40.751511}},{"_id":6541936,"name":"Orta Nova","country":"IT","coord":{"lon":15.71066,"lat":41.329929}},{"_id":6540026,"name":"Oria","country":"IT","coord":{"lon":17.64131,"lat":40.49733}},{"_id":6537554,"name":"Noicattaro","country":"IT","coord":{"lon":16.98959,"lat":41.033829}},{"_id":6542044,"name":"Nettuno","country":"IT","coord":{"lon":12.67899,"lat":41.482609}},{"_id":6541509,"name":"Negrar","country":"IT","coord":{"lon":10.93798,"lat":45.52879}},{"_id":6540220,"name":"Mira","country":"IT","coord":{"lon":12.13481,"lat":45.435799}},{"_id":6540584,"name":"Lissone","country":"IT","coord":{"lon":9.24655,"lat":45.615582}},{"_id":6538560,"name":"Lastra a Signa","country":"IT","coord":{"lon":11.10282,"lat":43.771351}},{"_id":6541484,"name":"Imperia","country":"IT","coord":{"lon":8.02225,"lat":43.88332}},{"_id":6541474,"name":"Jesi","country":"IT","coord":{"lon":13.24017,"lat":43.528759}},{"_id":6541164,"name":"Giugliano in Campania","country":"IT","coord":{"lon":14.19103,"lat":40.92741}},{"_id":6537588,"name":"Galatone","country":"IT","coord":{"lon":18.070419,"lat":40.142921}},{"_id":6542094,"name":"Gaeta","country":"IT","coord":{"lon":13.56281,"lat":41.218311}},{"_id":6541853,"name":"Frosinone","country":"IT","coord":{"lon":13.3401,"lat":41.640018}},{"_id":6538453,"name":"Formigine","country":"IT","coord":{"lon":10.847,"lat":44.57296}},{"_id":6541136,"name":"Fondi","country":"IT","coord":{"lon":13.43131,"lat":41.354111}},{"_id":6540408,"name":"Fidenza","country":"IT","coord":{"lon":10.06668,"lat":44.86396}},{"_id":6536870,"name":"Corciano","country":"IT","coord":{"lon":12.28736,"lat":43.12904}},{"_id":6540023,"name":"Conversano","country":"IT","coord":{"lon":17.11479,"lat":40.966228}},{"_id":6539925,"name":"Cittadella","country":"IT","coord":{"lon":11.7842,"lat":45.650002}},{"_id":6538144,"name":"Bra","country":"IT","coord":{"lon":7.85563,"lat":44.703041}},{"_id":6542123,"name":"Benevento","country":"IT","coord":{"lon":14.78614,"lat":41.12952}},{"_id":6542012,"name":"Bareggio","country":"IT","coord":{"lon":8.99994,"lat":45.487671}},{"_id":6541492,"name":"Arese","country":"IT","coord":{"lon":9.07654,"lat":45.552269}},{"_id":6541135,"name":"Aprilia","country":"IT","coord":{"lon":12.65009,"lat":41.589512}},{"_id":6540534,"name":"Anagni","country":"IT","coord":{"lon":13.15269,"lat":41.74472}},{"_id":6536221,"name":"Spinea","country":"IT","coord":{"lon":12.16251,"lat":45.488701}},{"_id":6542340,"name":"Volla","country":"IT","coord":{"lon":14.34293,"lat":40.87841}},{"_id":6542104,"name":"Misterbianco","country":"IT","coord":{"lon":14.95377,"lat":37.53405}},{"_id":6542331,"name":"Tremestieri Etneo","country":"IT","coord":{"lon":15.07089,"lat":37.581249}},{"_id":3166440,"name":"Solbiate Arno","country":"IT","coord":{"lon":8.81433,"lat":45.72197}},{"_id":3167329,"name":"San Teodoro","country":"IT","coord":{"lon":9.67344,"lat":40.77037}},{"_id":3170220,"name":"Ponte San Nicolo","country":"IT","coord":{"lon":11.92111,"lat":45.370491}},{"_id":3171502,"name":"Pantigliate","country":"IT","coord":{"lon":9.3522,"lat":45.435261}},{"_id":3173985,"name":"Marcon","country":"IT","coord":{"lon":12.29889,"lat":45.564442}},{"_id":3174662,"name":"Livo","country":"IT","coord":{"lon":9.30414,"lat":46.168491}},{"_id":3177672,"name":"Curno","country":"IT","coord":{"lon":9.60705,"lat":45.68898}},{"_id":3180246,"name":"Casalbore","country":"IT","coord":{"lon":15.00674,"lat":41.233921}},{"_id":3180389,"name":"Carugate","country":"IT","coord":{"lon":9.34375,"lat":45.54977}},{"_id":3182410,"name":"Baranzate","country":"IT","coord":{"lon":9.11724,"lat":45.527168}},{"_id":3182732,"name":"Asolo","country":"IT","coord":{"lon":11.9117,"lat":45.792301}},{"_id":6534466,"name":"Assago","country":"IT","coord":{"lon":9.12565,"lat":45.408871}},{"_id":6534799,"name":"Cavaso del Tomba","country":"IT","coord":{"lon":11.8984,"lat":45.860699}},{"_id":6535147,"name":"Busnago","country":"IT","coord":{"lon":9.46375,"lat":45.616482}},{"_id":6535768,"name":"Caponago","country":"IT","coord":{"lon":9.37585,"lat":45.566479}},{"_id":3164603,"name":"Venezia","country":"IT","coord":{"lon":12.32667,"lat":45.43861}},{"_id":3176059,"name":"Giugliano in Campania","country":"IT","coord":{"lon":14.19103,"lat":40.92741}},{"_id":6541770,"name":"Pedara","country":"IT","coord":{"lon":15.05669,"lat":37.616852}},{"_id":6537734,"name":"Altofonte","country":"IT","coord":{"lon":13.29624,"lat":38.042049}},{"_id":6542127,"name":"Palermo","country":"IT","coord":{"lon":13.36143,"lat":38.115719}},{"_id":2524002,"name":"Noce","country":"IT","coord":{"lon":13.33333,"lat":38.116669}},{"_id":2525587,"name":"Basilicò","country":"IT","coord":{"lon":15.83333,"lat":38.166672}},{"_id":2525635,"name":"Badiazza","country":"IT","coord":{"lon":15.53333,"lat":38.216671}},{"_id":2525104,"name":"Castanea delle Furie","country":"IT","coord":{"lon":15.51667,"lat":38.25}},{"_id":6538065,"name":"Monserrato","country":"IT","coord":{"lon":9.14704,"lat":39.259941}},{"_id":3173418,"name":"Mileo","country":"IT","coord":{"lon":16.01667,"lat":40.049999}},{"_id":3172153,"name":"Provincia di Nuoro","country":"IT","coord":{"lon":9.33333,"lat":40.166672}},{"_id":2523962,"name":"Provincia di Oristano","country":"IT","coord":{"lon":8.6,"lat":39.900002}},{"_id":6539357,"name":"Cuglieri","country":"IT","coord":{"lon":8.56642,"lat":40.18795}},{"_id":3170027,"name":"Potenza","country":"IT","coord":{"lon":15.80857,"lat":40.644321}},{"_id":3179865,"name":"Provincia di Caserta","country":"IT","coord":{"lon":14.16667,"lat":41.23333}},{"_id":3182649,"name":"Provincia di Avellino","country":"IT","coord":{"lon":15.15,"lat":40.98333}},{"_id":6457401,"name":"Provincia di Olbia-Tempio","country":"IT","coord":{"lon":9.49459,"lat":40.922981}},{"_id":6539586,"name":"Tempio Pausania","country":"IT","coord":{"lon":9.10352,"lat":40.897369}},{"_id":3181038,"name":"Campavaglio","country":"IT","coord":{"lon":9.23333,"lat":41.133331}},{"_id":3176885,"name":"Foggia","country":"IT","coord":{"lon":15.54925,"lat":41.46093}},{"_id":3175264,"name":"La Giustiniana","country":"IT","coord":{"lon":12.4,"lat":41.98333}},{"_id":3169411,"name":"Provincia di Rieti","country":"IT","coord":{"lon":12.86667,"lat":42.299999}},{"_id":6536922,"name":"Frasso Sabino","country":"IT","coord":{"lon":12.80558,"lat":42.229832}},{"_id":3176572,"name":"Frasso Sabino","country":"IT","coord":{"lon":12.80558,"lat":42.229832}},{"_id":3180145,"name":"Casamaina","country":"IT","coord":{"lon":13.38333,"lat":42.25}},{"_id":6538616,"name":"Foligno","country":"IT","coord":{"lon":12.70107,"lat":42.944038}},{"_id":6542090,"name":"Cascina","country":"IT","coord":{"lon":10.49941,"lat":43.679138}},{"_id":6620318,"name":"Capraia Fiorentina","country":"IT","coord":{"lon":11.01268,"lat":43.737492}},{"_id":3174529,"name":"Provincia di Lucca","country":"IT","coord":{"lon":10.45,"lat":44.033329}},{"_id":3171172,"name":"Provincia di Pesaro e Urbino","country":"IT","coord":{"lon":12.63333,"lat":43.666672}},{"_id":6541554,"name":"Montemurlo","country":"IT","coord":{"lon":11.03112,"lat":43.92165}},{"_id":6541657,"name":"Borghetto Santo Spirito","country":"IT","coord":{"lon":8.23905,"lat":44.115429}},{"_id":3176745,"name":"Provincia di Forlì","country":"IT","coord":{"lon":12.03333,"lat":44.083328}},{"_id":6541838,"name":"Cesena","country":"IT","coord":{"lon":12.26404,"lat":44.15617}},{"_id":3173884,"name":"Marola","country":"IT","coord":{"lon":10.48333,"lat":44.48333}},{"_id":6543042,"name":"Rivalta Bormida","country":"IT","coord":{"lon":8.55175,"lat":44.709751}},{"_id":6535056,"name":"Rivalta Bormida","country":"IT","coord":{"lon":8.55175,"lat":44.709751}},{"_id":6542120,"name":"Ferrara","country":"IT","coord":{"lon":11.62071,"lat":44.826778}},{"_id":3171057,"name":"Provincia di Piacenza","country":"IT","coord":{"lon":9.58333,"lat":44.883331}},{"_id":6538411,"name":"Carpaneto Piacentino","country":"IT","coord":{"lon":9.78927,"lat":44.91526}},{"_id":3172488,"name":"Mucinasso","country":"IT","coord":{"lon":9.71667,"lat":45.01667}},{"_id":3171364,"name":"Provincia di Pavia","country":"IT","coord":{"lon":9.13333,"lat":45.116669}},{"_id":3177969,"name":"Corte Rusta","country":"IT","coord":{"lon":11.0,"lat":45.133331}},{"_id":3164600,"name":"Provincia di Venezia","country":"IT","coord":{"lon":12.32632,"lat":45.440449}},{"_id":6538317,"name":"Mirano","country":"IT","coord":{"lon":12.11091,"lat":45.491699}},{"_id":3177845,"name":"Creazzo","country":"IT","coord":{"lon":11.4785,"lat":45.53199}},{"_id":6542284,"name":"Venezia","country":"IT","coord":{"lon":12.33092,"lat":45.4389}},{"_id":3177820,"name":"Cret","country":"IT","coord":{"lon":7.43333,"lat":45.599998}},{"_id":3165186,"name":"Trieste","country":"IT","coord":{"lon":13.76667,"lat":45.666672}},{"_id":6540342,"name":"Albino","country":"IT","coord":{"lon":9.79636,"lat":45.763779}},{"_id":6539881,"name":"Sacile","country":"IT","coord":{"lon":12.50285,"lat":45.95406}},{"_id":3164854,"name":"Valle di Dentro","country":"IT","coord":{"lon":10.28333,"lat":46.48333}},{"_id":6540246,"name":"Villanova sull'Arda","country":"IT","coord":{"lon":9.99847,"lat":45.02647}},{"_id":6536452,"name":"Tortona","country":"IT","coord":{"lon":8.86455,"lat":44.893349}},{"_id":2523281,"name":"Sant’Avendrace","country":"IT","coord":{"lon":9.09694,"lat":39.23056}},{"_id":3182225,"name":"Bellaria","country":"IT","coord":{"lon":12.46519,"lat":44.146}},{"_id":6538252,"name":"Bassano del Grappa","country":"IT","coord":{"lon":11.7357,"lat":45.767601}},{"_id":6543730,"name":"Turate","country":"IT","coord":{"lon":9.00424,"lat":45.657269}},{"_id":6536269,"name":"Casier","country":"IT","coord":{"lon":12.29331,"lat":45.642101}},{"_id":6535687,"name":"Viverone","country":"IT","coord":{"lon":8.04942,"lat":45.427261}},{"_id":3167895,"name":"San Paolo","country":"IT","coord":{"lon":7.63333,"lat":45.049999}},{"_id":3219616,"name":"San Vigilio","country":"IT","coord":{"lon":12.35806,"lat":46.130829}},{"_id":3219982,"name":"Basaldella","country":"IT","coord":{"lon":13.21444,"lat":46.025558}},{"_id":3171043,"name":"Piaia","country":"IT","coord":{"lon":11.98333,"lat":46.383331}},{"_id":3174958,"name":"Le Caselle","country":"IT","coord":{"lon":11.91667,"lat":45.533329}},{"_id":3166850,"name":"Seano","country":"IT","coord":{"lon":11.01667,"lat":43.833328}},{"_id":3167417,"name":"Sant’Antonino","country":"IT","coord":{"lon":10.75,"lat":44.549999}},{"_id":2524777,"name":"Felline","country":"IT","coord":{"lon":18.116671,"lat":39.933331}},{"_id":6542249,"name":"Cencenighe Agordino","country":"IT","coord":{"lon":11.97339,"lat":46.343121}},{"_id":3179178,"name":"Cencenighe","country":"IT","coord":{"lon":11.97339,"lat":46.343121}},{"_id":3164197,"name":"Villanova","country":"IT","coord":{"lon":14.21667,"lat":40.833328}},{"_id":3163948,"name":"Vomero","country":"IT","coord":{"lon":14.23333,"lat":40.833328}},{"_id":6535097,"name":"Casale Litta","country":"IT","coord":{"lon":8.74133,"lat":45.767872}},{"_id":6542661,"name":"Velo d'Astico","country":"IT","coord":{"lon":11.36769,"lat":45.788399}},{"_id":3173670,"name":"Meda","country":"IT","coord":{"lon":11.4005,"lat":45.777821}},{"_id":6536003,"name":"Saint-Nicolas","country":"IT","coord":{"lon":7.1667,"lat":45.71656}},{"_id":3167922,"name":"San Nicolas","country":"IT","coord":{"lon":7.16667,"lat":45.716671}},{"_id":3174254,"name":"Maglie","country":"IT","coord":{"lon":18.298929,"lat":40.11842}},{"_id":3180193,"name":"Casale Vignarola","country":"IT","coord":{"lon":12.59136,"lat":41.488781}},{"_id":3183583,"name":"Abbadia di Stura","country":"IT","coord":{"lon":7.71667,"lat":45.099998}},{"_id":7521552,"name":"Ardeatino","country":"IT","coord":{"lon":12.503,"lat":41.857861}},{"_id":3167974,"name":"San Michele","country":"IT","coord":{"lon":12.96667,"lat":41.433331}},{"_id":6543838,"name":"Cavagnolo","country":"IT","coord":{"lon":8.04903,"lat":45.151749}},{"_id":3163969,"name":"Volta Barozzo","country":"IT","coord":{"lon":11.9,"lat":45.366669}},{"_id":3171456,"name":"Provincia di Parma","country":"IT","coord":{"lon":10.08333,"lat":44.700001}},{"_id":6541855,"name":"Mantova","country":"IT","coord":{"lon":10.77379,"lat":45.152081}},{"_id":3172394,"name":"Napoli","country":"IT","coord":{"lon":14.25,"lat":40.833328}},{"_id":6536522,"name":"Sesto San Giovanni","country":"IT","coord":{"lon":9.24175,"lat":45.539371}},{"_id":3167961,"name":"San Michele di Pagana","country":"IT","coord":{"lon":9.23564,"lat":44.352982}},{"_id":3182748,"name":"Province of Ascoli Piceno","country":"IT","coord":{"lon":13.55306,"lat":42.88443}},{"_id":6542154,"name":"Taranto","country":"IT","coord":{"lon":17.240101,"lat":40.417019}},{"_id":3172656,"name":"Montoggio","country":"IT","coord":{"lon":9.04816,"lat":44.517448}},{"_id":3167431,"name":"Sant’Anna","country":"IT","coord":{"lon":10.48333,"lat":43.833328}},{"_id":3168673,"name":"Salerno","country":"IT","coord":{"lon":14.76599,"lat":40.677971}},{"_id":6536153,"name":"Seriate","country":"IT","coord":{"lon":9.72286,"lat":45.68338}},{"_id":6540063,"name":"Vittoria","country":"IT","coord":{"lon":14.53318,"lat":36.953739}},{"_id":6539606,"name":"Asti","country":"IT","coord":{"lon":8.20684,"lat":44.897949}},{"_id":6541469,"name":"Trento","country":"IT","coord":{"lon":11.12074,"lat":46.070431}},{"_id":6540107,"name":"Viterbo","country":"IT","coord":{"lon":12.10856,"lat":42.417831}},{"_id":3173845,"name":"Martignacco","country":"IT","coord":{"lon":13.13778,"lat":46.09639}},{"_id":6540390,"name":"Castelfranco Veneto","country":"IT","coord":{"lon":11.926,"lat":45.676102}},{"_id":3170622,"name":"Pisticci","country":"IT","coord":{"lon":16.556789,"lat":40.390621}},{"_id":6538566,"name":"Sesto Fiorentino","country":"IT","coord":{"lon":11.19522,"lat":43.834549}},{"_id":3174658,"name":"Provincia di Livorno","country":"IT","coord":{"lon":10.58333,"lat":43.23333}},{"_id":6541852,"name":"Rovigo","country":"IT","coord":{"lon":11.79301,"lat":45.079979}},{"_id":3165197,"name":"Trezzo sullAdda","country":"IT","coord":{"lon":9.51995,"lat":45.602982}},{"_id":3172980,"name":"Montecchio Emilia","country":"IT","coord":{"lon":10.44709,"lat":44.701359}},{"_id":2525755,"name":"Alcamo","country":"IT","coord":{"lon":12.95654,"lat":37.998348}},{"_id":6536781,"name":"Senigallia","country":"IT","coord":{"lon":13.21667,"lat":43.709259}},{"_id":6538612,"name":"Assisi","country":"IT","coord":{"lon":12.61646,"lat":43.069141}},{"_id":2524393,"name":"Licata","country":"IT","coord":{"lon":13.94607,"lat":37.10714}},{"_id":6541465,"name":"Vicenza","country":"IT","coord":{"lon":11.5409,"lat":45.557289}},{"_id":6542122,"name":"Pisa","country":"IT","coord":{"lon":10.4137,"lat":43.710838}},{"_id":3174096,"name":"Manduria","country":"IT","coord":{"lon":17.633511,"lat":40.401821}},{"_id":2523045,"name":"Soverato Marina","country":"IT","coord":{"lon":16.54991,"lat":38.684978}},{"_id":6458615,"name":"Provincia di Crotone","country":"IT","coord":{"lon":17.081341,"lat":39.120071}},{"_id":6541463,"name":"Crotone","country":"IT","coord":{"lon":17.117809,"lat":39.085098}},{"_id":2524881,"name":"Crotone","country":"IT","coord":{"lon":17.117809,"lat":39.085098}},{"_id":6539766,"name":"Ferentino","country":"IT","coord":{"lon":13.2564,"lat":41.69532}},{"_id":3177102,"name":"Ferentino","country":"IT","coord":{"lon":13.2564,"lat":41.69532}},{"_id":6542118,"name":"Chieti","country":"IT","coord":{"lon":14.16773,"lat":42.3503}},{"_id":3178796,"name":"Chieti","country":"IT","coord":{"lon":14.13801,"lat":42.360939}},{"_id":6541116,"name":"Spoleto","country":"IT","coord":{"lon":12.73737,"lat":42.744839}},{"_id":3166236,"name":"Spoleto","country":"IT","coord":{"lon":12.73737,"lat":42.744839}},{"_id":3175444,"name":"Provincia di Isernia","country":"IT","coord":{"lon":14.25,"lat":41.666672}},{"_id":6536505,"name":"Cologno Monzese","country":"IT","coord":{"lon":9.27635,"lat":45.535671}},{"_id":6539672,"name":"Sarzana","country":"IT","coord":{"lon":9.95859,"lat":44.11145}},{"_id":3167104,"name":"Sarzana","country":"IT","coord":{"lon":9.95859,"lat":44.11145}},{"_id":3181995,"name":"Bitonto","country":"IT","coord":{"lon":16.689381,"lat":41.110828}},{"_id":6538456,"name":"Mirandola","country":"IT","coord":{"lon":11.0662,"lat":44.886768}},{"_id":3180749,"name":"Caorle","country":"IT","coord":{"lon":12.8758,"lat":45.596561}},{"_id":6539859,"name":"Gioia Tauro","country":"IT","coord":{"lon":15.899,"lat":38.423969}},{"_id":6538674,"name":"Genzano di Roma","country":"IT","coord":{"lon":12.69178,"lat":41.701321}},{"_id":6540287,"name":"Fiumicino","country":"IT","coord":{"lon":12.24747,"lat":41.76281}},{"_id":2524237,"name":"Mascali","country":"IT","coord":{"lon":15.19589,"lat":37.75576}},{"_id":6539444,"name":"Domodossola","country":"IT","coord":{"lon":8.28962,"lat":46.11348}},{"_id":6540110,"name":"Matera","country":"IT","coord":{"lon":16.60158,"lat":40.668522}},{"_id":6538946,"name":"Putignano","country":"IT","coord":{"lon":17.12129,"lat":40.85183}},{"_id":6538943,"name":"Gravina in Puglia","country":"IT","coord":{"lon":16.422779,"lat":40.819721}},{"_id":6540781,"name":"Acri","country":"IT","coord":{"lon":16.383789,"lat":39.492901}},{"_id":3182966,"name":"San Michele","country":"IT","coord":{"lon":11.26178,"lat":46.45472}},{"_id":6540671,"name":"Alba","country":"IT","coord":{"lon":8.02564,"lat":44.69154}},{"_id":3179542,"name":"Castelnuovo","country":"IT","coord":{"lon":13.53333,"lat":43.400002}},{"_id":2524085,"name":"Monreale","country":"IT","coord":{"lon":13.28854,"lat":38.080051}},{"_id":6541098,"name":"Montevarchi","country":"IT","coord":{"lon":11.56893,"lat":43.527649}},{"_id":6541032,"name":"Imola","country":"IT","coord":{"lon":11.71582,"lat":44.352268}},{"_id":6536054,"name":"Casale Monferrato","country":"IT","coord":{"lon":8.45714,"lat":45.133362}},{"_id":6539037,"name":"Corigliano Calabro","country":"IT","coord":{"lon":16.5177,"lat":39.595001}},{"_id":2524929,"name":"Corigliano Calabro","country":"IT","coord":{"lon":16.5177,"lat":39.595001}},{"_id":3175385,"name":"Ivrea","country":"IT","coord":{"lon":7.87617,"lat":45.466869}},{"_id":6539211,"name":"Lentini","country":"IT","coord":{"lon":14.99959,"lat":37.28545}},{"_id":6536709,"name":"Sala Baganza","country":"IT","coord":{"lon":10.23178,"lat":44.720261}},{"_id":6541462,"name":"Rieti","country":"IT","coord":{"lon":12.85918,"lat":42.40723}},{"_id":3169412,"name":"Rieti","country":"IT","coord":{"lon":12.85918,"lat":42.40723}},{"_id":3182628,"name":"Avilla","country":"IT","coord":{"lon":13.7,"lat":42.650002}},{"_id":6537243,"name":"Avio","country":"IT","coord":{"lon":10.93718,"lat":45.733791}},{"_id":3182625,"name":"Avio","country":"IT","coord":{"lon":10.93718,"lat":45.733791}},{"_id":2523890,"name":"Pantelleria","country":"IT","coord":{"lon":11.95,"lat":36.833328}},{"_id":6538451,"name":"Castelvetro di Modena","country":"IT","coord":{"lon":10.9464,"lat":44.50576}},{"_id":2523557,"name":"Salemi","country":"IT","coord":{"lon":12.80564,"lat":37.823139}},{"_id":6535904,"name":"Lana - Lana","country":"IT","coord":{"lon":11.15587,"lat":46.612419}},{"_id":3175177,"name":"Lana","country":"IT","coord":{"lon":11.15587,"lat":46.612419}},{"_id":6540386,"name":"Thiene","country":"IT","coord":{"lon":11.47959,"lat":45.708801}},{"_id":2522718,"name":"Vita","country":"IT","coord":{"lon":12.82504,"lat":37.870541}},{"_id":6538323,"name":"Scorzè","country":"IT","coord":{"lon":12.10991,"lat":45.569}},{"_id":3182918,"name":"Arceto","country":"IT","coord":{"lon":10.71667,"lat":44.616669}},{"_id":6541168,"name":"Torre Annunziata","country":"IT","coord":{"lon":14.46464,"lat":40.74971}},{"_id":3172086,"name":"Olbia Marittima","country":"IT","coord":{"lon":9.50528,"lat":40.922401}},{"_id":6536871,"name":"Deruta","country":"IT","coord":{"lon":12.41506,"lat":42.980438}},{"_id":3165612,"name":"Todi","country":"IT","coord":{"lon":12.40456,"lat":42.779942}},{"_id":3178131,"name":"Corato","country":"IT","coord":{"lon":16.41387,"lat":41.145531}},{"_id":6536698,"name":"Cormons","country":"IT","coord":{"lon":13.46534,"lat":45.956921}},{"_id":6540134,"name":"Savigliano","country":"IT","coord":{"lon":7.65593,"lat":44.644039}},{"_id":3180563,"name":"Carbonera","country":"IT","coord":{"lon":12.28833,"lat":45.680561}},{"_id":6541812,"name":"Marano di Valpolicella","country":"IT","coord":{"lon":10.91518,"lat":45.55579}},{"_id":6536506,"name":"Cormano","country":"IT","coord":{"lon":9.17094,"lat":45.53957}},{"_id":3165119,"name":"Tufo","country":"IT","coord":{"lon":13.76667,"lat":41.26667}},{"_id":3180916,"name":"Camposanto","country":"IT","coord":{"lon":11.1429,"lat":44.786968}},{"_id":3172379,"name":"Nardo","country":"IT","coord":{"lon":18.02972,"lat":40.175121}},{"_id":6541923,"name":"Atri","country":"IT","coord":{"lon":13.9848,"lat":42.577839}},{"_id":6536651,"name":"Susegana","country":"IT","coord":{"lon":12.25351,"lat":45.856209}},{"_id":3182633,"name":"Avigliano","country":"IT","coord":{"lon":15.72004,"lat":40.73291}},{"_id":6536661,"name":"Santa Maria di Sala","country":"IT","coord":{"lon":12.03531,"lat":45.507999}},{"_id":6536948,"name":"Formello","country":"IT","coord":{"lon":12.40027,"lat":42.08252}},{"_id":3176739,"name":"Formello","country":"IT","coord":{"lon":12.39979,"lat":42.080132}},{"_id":3172240,"name":"Noci","country":"IT","coord":{"lon":17.131701,"lat":40.79073}},{"_id":3166426,"name":"Soliera","country":"IT","coord":{"lon":10.9263,"lat":44.737968}},{"_id":3163836,"name":"Zula","country":"IT","coord":{"lon":11.33333,"lat":44.349998}},{"_id":6538018,"name":"Poggio a Caiano","country":"IT","coord":{"lon":11.05072,"lat":43.813648}},{"_id":3170487,"name":"Poggio a Caiano","country":"IT","coord":{"lon":11.05072,"lat":43.813648}},{"_id":3178263,"name":"Colorno","country":"IT","coord":{"lon":10.37678,"lat":44.92627}},{"_id":6536328,"name":"Ronchi dei Legionari","country":"IT","coord":{"lon":13.50424,"lat":45.82832}},{"_id":6537163,"name":"Breno","country":"IT","coord":{"lon":10.30476,"lat":45.95779}},{"_id":6537088,"name":"Somma Lombardo","country":"IT","coord":{"lon":8.70873,"lat":45.682968}},{"_id":3167062,"name":"Sasso Marconi","country":"IT","coord":{"lon":11.24951,"lat":44.39946}},{"_id":6537231,"name":"Castel Goffredo","country":"IT","coord":{"lon":10.47538,"lat":45.29858}},{"_id":3179675,"name":"Castel Goffredo","country":"IT","coord":{"lon":10.47538,"lat":45.29858}},{"_id":3181094,"name":"Camerino","country":"IT","coord":{"lon":13.06917,"lat":43.139851}},{"_id":6539656,"name":"Castellabate","country":"IT","coord":{"lon":14.95645,"lat":40.2817}},{"_id":3167551,"name":"Santa Maria di Castellabate","country":"IT","coord":{"lon":14.95,"lat":40.283329}},{"_id":6541644,"name":"Seravezza","country":"IT","coord":{"lon":10.2287,"lat":43.995041}},{"_id":3166168,"name":"Stellata","country":"IT","coord":{"lon":11.41667,"lat":44.883331}},{"_id":6539726,"name":"Loreto","country":"IT","coord":{"lon":13.60978,"lat":43.43536}},{"_id":3174567,"name":"Loreto","country":"IT","coord":{"lon":13.60978,"lat":43.43536}},{"_id":2523113,"name":"Siderno","country":"IT","coord":{"lon":16.302,"lat":38.277882}},{"_id":6537787,"name":"Butera","country":"IT","coord":{"lon":14.18367,"lat":37.19104}},{"_id":6539861,"name":"Monasterace","country":"IT","coord":{"lon":16.55201,"lat":38.453678}},{"_id":2523998,"name":"Noto","country":"IT","coord":{"lon":15.06929,"lat":36.890141}},{"_id":6537585,"name":"Carpignano Salentino","country":"IT","coord":{"lon":18.338329,"lat":40.196918}},{"_id":3166662,"name":"Serrano","country":"IT","coord":{"lon":18.35,"lat":40.183331}},{"_id":6539927,"name":"Montagnana","country":"IT","coord":{"lon":11.4635,"lat":45.22868}},{"_id":3176328,"name":"Ganna","country":"IT","coord":{"lon":8.81667,"lat":45.900002}},{"_id":6539612,"name":"Carro","country":"IT","coord":{"lon":9.60888,"lat":44.272148}},{"_id":3182057,"name":"Bibione","country":"IT","coord":{"lon":13.05389,"lat":45.63583}},{"_id":6538424,"name":"Langhirano","country":"IT","coord":{"lon":10.26559,"lat":44.612659}},{"_id":6543726,"name":"Ronago","country":"IT","coord":{"lon":8.98364,"lat":45.832279}},{"_id":6537804,"name":"Adrano","country":"IT","coord":{"lon":14.83478,"lat":37.661751}},{"_id":2525616,"name":"Bagnara Calabra","country":"IT","coord":{"lon":15.8078,"lat":38.288471}},{"_id":6536808,"name":"Fivizzano","country":"IT","coord":{"lon":10.12599,"lat":44.23835}},{"_id":3182479,"name":"Baio Dora","country":"IT","coord":{"lon":7.83333,"lat":45.5}},{"_id":3170589,"name":"Pizzolo","country":"IT","coord":{"lon":9.61667,"lat":44.349998}},{"_id":6536523,"name":"Trezzano sul Naviglio","country":"IT","coord":{"lon":9.06644,"lat":45.423069}},{"_id":6541877,"name":"San Benedetto del Tronto","country":"IT","coord":{"lon":13.88569,"lat":42.934849}},{"_id":3168550,"name":"San Benedetto del Tronto","country":"IT","coord":{"lon":13.88157,"lat":42.945621}},{"_id":3178709,"name":"Cigliano","country":"IT","coord":{"lon":8.02102,"lat":45.308361}},{"_id":6536662,"name":"Santo Stino di Livenza","country":"IT","coord":{"lon":12.68232,"lat":45.729912}},{"_id":6536846,"name":"San Giovanni Valdarno","country":"IT","coord":{"lon":11.53183,"lat":43.56345}},{"_id":6539110,"name":"Castellammare del Golfo","country":"IT","coord":{"lon":12.88584,"lat":38.018848}},{"_id":6539156,"name":"Novara di Sicilia","country":"IT","coord":{"lon":15.13188,"lat":38.015961}},{"_id":3168521,"name":"San Biagio di Callalta","country":"IT","coord":{"lon":12.37722,"lat":45.683609}},{"_id":6536329,"name":"Savogna d'Isonzo","country":"IT","coord":{"lon":13.57474,"lat":45.906422}},{"_id":3169980,"name":"Pra","country":"IT","coord":{"lon":8.79001,"lat":44.427528}},{"_id":3170752,"name":"Pieve di Cento","country":"IT","coord":{"lon":11.30761,"lat":44.712269}},{"_id":6541870,"name":"Avellino","country":"IT","coord":{"lon":14.78874,"lat":40.914421}},{"_id":3164658,"name":"Vecciano","country":"IT","coord":{"lon":12.55,"lat":43.950001}},{"_id":6540163,"name":"Leivi","country":"IT","coord":{"lon":9.30167,"lat":44.352539}},{"_id":3172730,"name":"Montesilvano","country":"IT","coord":{"lon":14.138,"lat":42.503941}},{"_id":3170712,"name":"Pila","country":"IT","coord":{"lon":10.23479,"lat":42.763401}},{"_id":3214817,"name":"Carpena","country":"IT","coord":{"lon":12.07861,"lat":44.183891}},{"_id":3167990,"name":"San Maurizio Canavese","country":"IT","coord":{"lon":7.63052,"lat":45.217049}},{"_id":6539214,"name":"Rosolini","country":"IT","coord":{"lon":14.94779,"lat":36.824242}},{"_id":2523581,"name":"Rosolini","country":"IT","coord":{"lon":14.94779,"lat":36.824242}},{"_id":6539052,"name":"Rende","country":"IT","coord":{"lon":16.184389,"lat":39.331989}},{"_id":2523623,"name":"Rende","country":"IT","coord":{"lon":16.184389,"lat":39.331989}},{"_id":6541341,"name":"Porto Empedocle","country":"IT","coord":{"lon":13.52636,"lat":37.293442}},{"_id":2523871,"name":"Partinico","country":"IT","coord":{"lon":13.12004,"lat":38.043949}},{"_id":6541756,"name":"Palmi","country":"IT","coord":{"lon":15.8615,"lat":38.365269}},{"_id":6539213,"name":"Pachino","country":"IT","coord":{"lon":15.0907,"lat":36.718639}},{"_id":6540123,"name":"Oristano","country":"IT","coord":{"lon":8.59482,"lat":39.902451}},{"_id":2524013,"name":"Nicastro","country":"IT","coord":{"lon":16.316669,"lat":38.98333}},{"_id":6542070,"name":"Mascalucia","country":"IT","coord":{"lon":15.02989,"lat":37.592152}},{"_id":6541736,"name":"Casarano","country":"IT","coord":{"lon":18.163031,"lat":40.015018}},{"_id":2525643,"name":"Avola","country":"IT","coord":{"lon":15.1395,"lat":36.911339}},{"_id":3164672,"name":"Vasto","country":"IT","coord":{"lon":14.70592,"lat":42.12434}},{"_id":6536160,"name":"Treviglio","country":"IT","coord":{"lon":9.58946,"lat":45.523781}},{"_id":3165322,"name":"Trani","country":"IT","coord":{"lon":16.415371,"lat":41.272732}},{"_id":6541907,"name":"Torre del Greco","country":"IT","coord":{"lon":14.37235,"lat":40.785221}},{"_id":3165788,"name":"Terlizzi","country":"IT","coord":{"lon":16.54528,"lat":41.13113}},{"_id":3166006,"name":"Suzzara","country":"IT","coord":{"lon":10.74309,"lat":44.991871}},{"_id":3166034,"name":"Sulmona","country":"IT","coord":{"lon":13.92911,"lat":42.047932}},{"_id":6537598,"name":"Squinzano","country":"IT","coord":{"lon":18.041821,"lat":40.436531}},{"_id":3166224,"name":"Squinzano","country":"IT","coord":{"lon":18.041821,"lat":40.436531}},{"_id":6538868,"name":"Spoltore","country":"IT","coord":{"lon":14.14101,"lat":42.453442}},{"_id":3166235,"name":"Spoltore","country":"IT","coord":{"lon":14.14101,"lat":42.453442}},{"_id":6539617,"name":"Sondrio","country":"IT","coord":{"lon":9.86915,"lat":46.168999}},{"_id":3168775,"name":"Rutigliano","country":"IT","coord":{"lon":17.005489,"lat":41.011131}},{"_id":3170937,"name":"Pianoro","country":"IT","coord":{"lon":11.34231,"lat":44.39296}},{"_id":3171786,"name":"Ostuni","country":"IT","coord":{"lon":17.57641,"lat":40.727631}},{"_id":3172243,"name":"Nocera Superiore","country":"IT","coord":{"lon":14.67294,"lat":40.742111}},{"_id":3172377,"name":"Narni","country":"IT","coord":{"lon":12.52307,"lat":42.517132}},{"_id":3173302,"name":"Mola di Bari","country":"IT","coord":{"lon":17.08729,"lat":41.06094}},{"_id":3173391,"name":"Minturno","country":"IT","coord":{"lon":13.72371,"lat":41.25761}},{"_id":3173537,"name":"Mesagne","country":"IT","coord":{"lon":17.80831,"lat":40.55883}},{"_id":6537396,"name":"Mercato San Severino","country":"IT","coord":{"lon":14.75694,"lat":40.781212}},{"_id":3173560,"name":"Mercato San Severino","country":"IT","coord":{"lon":14.75694,"lat":40.781212}},{"_id":3175722,"name":"Gualdo Tadino","country":"IT","coord":{"lon":12.78096,"lat":43.231651}},{"_id":3176438,"name":"Gaeta","country":"IT","coord":{"lon":13.57082,"lat":41.214081}},{"_id":3176843,"name":"Fondi","country":"IT","coord":{"lon":13.43131,"lat":41.354111}},{"_id":3176849,"name":"Follonica","country":"IT","coord":{"lon":10.76162,"lat":42.926331}},{"_id":6536267,"name":"Fiorano Modenese","country":"IT","coord":{"lon":10.8218,"lat":44.535961}},{"_id":3178147,"name":"Conversano","country":"IT","coord":{"lon":17.11479,"lat":40.966228}},{"_id":3178631,"name":"Cisterna di Latina","country":"IT","coord":{"lon":12.82808,"lat":41.590801}},{"_id":3179443,"name":"Castel Volturno","country":"IT","coord":{"lon":13.94217,"lat":41.033531}},{"_id":3180792,"name":"Canosa di Puglia","country":"IT","coord":{"lon":16.067471,"lat":41.219631}},{"_id":3182765,"name":"Arzano","country":"IT","coord":{"lon":14.26713,"lat":40.91441}},{"_id":3183178,"name":"Altamura","country":"IT","coord":{"lon":16.55368,"lat":40.829231}},{"_id":3174478,"name":"Lumezzane","country":"IT","coord":{"lon":10.25,"lat":45.650002}},{"_id":6534216,"name":"Lumezzane","country":"IT","coord":{"lon":10.26487,"lat":45.647881}},{"_id":6534228,"name":"Guidonia Montecelio","country":"IT","coord":{"lon":12.72238,"lat":41.993622}},{"_id":6534252,"name":"San Felice a Cancello","country":"IT","coord":{"lon":14.45583,"lat":41.00581}},{"_id":6534257,"name":"Tremestieri Etneo","country":"IT","coord":{"lon":15.07089,"lat":37.581249}},{"_id":6534268,"name":"Volla","country":"IT","coord":{"lon":14.34293,"lat":40.87841}},{"_id":6542351,"name":"Cesano Boscone","country":"IT","coord":{"lon":9.09445,"lat":45.44207}},{"_id":2523918,"name":"Provincia di Palermo","country":"IT","coord":{"lon":13.58333,"lat":37.816669}},{"_id":2524169,"name":"Provincia di Messina","country":"IT","coord":{"lon":14.86667,"lat":38.049999}},{"_id":6543306,"name":"Gualtieri Sicaminò","country":"IT","coord":{"lon":15.31699,"lat":38.16267}},{"_id":2525152,"name":"Case Levito","country":"IT","coord":{"lon":15.35,"lat":38.133331}},{"_id":6457405,"name":"Provincia di Vibo-Valentia","country":"IT","coord":{"lon":16.127411,"lat":38.699581}},{"_id":6540085,"name":"Arena","country":"IT","coord":{"lon":16.2099,"lat":38.562778}},{"_id":2525135,"name":"Caserma di Latro","country":"IT","coord":{"lon":16.26667,"lat":38.533329}},{"_id":6537671,"name":"Luzzi","country":"IT","coord":{"lon":16.28829,"lat":39.446098}},{"_id":3170025,"name":"Provincia di Potenza","country":"IT","coord":{"lon":15.73333,"lat":40.583328}},{"_id":6539000,"name":"Latronico","country":"IT","coord":{"lon":16.01178,"lat":40.089809}},{"_id":3173718,"name":"Provincia di Matera","country":"IT","coord":{"lon":16.41667,"lat":40.5}},{"_id":6539028,"name":"Tursi","country":"IT","coord":{"lon":16.46969,"lat":40.245209}},{"_id":3165084,"name":"Tursi","country":"IT","coord":{"lon":16.46969,"lat":40.245209}},{"_id":6541470,"name":"Potenza","country":"IT","coord":{"lon":15.80857,"lat":40.644321}},{"_id":6541857,"name":"Foggia","country":"IT","coord":{"lon":15.54925,"lat":41.46093}},{"_id":3169071,"name":"Comune di Roma","country":"IT","coord":{"lon":12.41667,"lat":41.900002}},{"_id":6542723,"name":"Capraia e Limite","country":"IT","coord":{"lon":10.98342,"lat":43.74535}},{"_id":3172968,"name":"Monte Copiolo","country":"IT","coord":{"lon":12.36667,"lat":43.849998}},{"_id":6458618,"name":"Provincia di Prato","country":"IT","coord":{"lon":11.12503,"lat":43.87698}},{"_id":6541787,"name":"Vaiano","country":"IT","coord":{"lon":11.12322,"lat":43.948952}},{"_id":3215202,"name":"Ciocefisso","country":"IT","coord":{"lon":12.54778,"lat":44.05167}},{"_id":6536083,"name":"Loano","country":"IT","coord":{"lon":8.25125,"lat":44.13303}},{"_id":3181601,"name":"Brasi","country":"IT","coord":{"lon":8.5314,"lat":44.369759}},{"_id":6537265,"name":"Carmagnola","country":"IT","coord":{"lon":7.71803,"lat":44.847038}},{"_id":3175140,"name":"La Pavonara","country":"IT","coord":{"lon":11.66667,"lat":44.883331}},{"_id":6542025,"name":"Piacenza","country":"IT","coord":{"lon":9.69937,"lat":45.046761}},{"_id":3179063,"name":"Ceronda","country":"IT","coord":{"lon":7.65,"lat":45.099998}},{"_id":3174618,"name":"Regione Lombardia","country":"IT","coord":{"lon":9.5,"lat":45.666672}},{"_id":6541534,"name":"Villimpenta","country":"IT","coord":{"lon":11.03169,"lat":45.147179}},{"_id":3180051,"name":"Casa Rossa","country":"IT","coord":{"lon":12.20556,"lat":45.238892}},{"_id":3170412,"name":"Poiano","country":"IT","coord":{"lon":11.0,"lat":45.466671}},{"_id":3164418,"name":"Provincia di Vicenza","country":"IT","coord":{"lon":11.45,"lat":45.666672}},{"_id":6542289,"name":"Creazzo","country":"IT","coord":{"lon":11.4785,"lat":45.53199}},{"_id":3165184,"name":"Provincia di Trieste","country":"IT","coord":{"lon":13.80655,"lat":45.664261}},{"_id":3179263,"name":"Cavolano","country":"IT","coord":{"lon":12.5,"lat":45.933331}},{"_id":3177813,"name":"Crèves","country":"IT","coord":{"lon":8.53333,"lat":46.099998}},{"_id":3219868,"name":"Cornappo","country":"IT","coord":{"lon":13.35111,"lat":46.273609}},{"_id":3166396,"name":"Provincia di Sondrio","country":"IT","coord":{"lon":10.05,"lat":46.166672}},{"_id":6534732,"name":"Valdidentro","country":"IT","coord":{"lon":10.29405,"lat":46.48901}},{"_id":6541623,"name":"Villanova d'Albenga","country":"IT","coord":{"lon":8.14675,"lat":44.051128}},{"_id":6542002,"name":"Reggio nell'Emilia","country":"IT","coord":{"lon":10.61949,"lat":44.70866}},{"_id":6539034,"name":"Carolei","country":"IT","coord":{"lon":16.220091,"lat":39.25629}},{"_id":6543663,"name":"Viverone","country":"IT","coord":{"lon":8.04942,"lat":45.427261}},{"_id":7670575,"name":"Via di Villa Chigi","country":"IT","coord":{"lon":12.51424,"lat":41.934029}},{"_id":6542189,"name":"San Tomaso Agordino","country":"IT","coord":{"lon":11.97439,"lat":46.380718}},{"_id":6543575,"name":"San Giorgio delle Pertiche","country":"IT","coord":{"lon":11.89401,"lat":45.541}},{"_id":6542693,"name":"Terzolas","country":"IT","coord":{"lon":10.92587,"lat":46.361111}},{"_id":6534646,"name":"Terzolas","country":"IT","coord":{"lon":10.92587,"lat":46.361111}},{"_id":2525041,"name":"Cefalu","country":"IT","coord":{"lon":14.02285,"lat":38.038559}},{"_id":6539814,"name":"Sorrento","country":"IT","coord":{"lon":14.37484,"lat":40.624908}},{"_id":3175085,"name":"La Serra","country":"IT","coord":{"lon":11.03333,"lat":43.799999}},{"_id":6537581,"name":"Alliste","country":"IT","coord":{"lon":18.088831,"lat":39.94862}},{"_id":6540278,"name":"Monte Compatri","country":"IT","coord":{"lon":12.73778,"lat":41.808922}},{"_id":3171802,"name":"Osteria dell’ Osa","country":"IT","coord":{"lon":12.7,"lat":41.883331}},{"_id":6543083,"name":"Casale Litta","country":"IT","coord":{"lon":8.74133,"lat":45.767872}},{"_id":6540519,"name":"Cerveteri","country":"IT","coord":{"lon":12.09237,"lat":41.992619}},{"_id":6693938,"name":"Marina di Cerveteri","country":"IT","coord":{"lon":12.05295,"lat":41.979969}},{"_id":6538972,"name":"Maglie","country":"IT","coord":{"lon":18.298929,"lat":40.11842}},{"_id":6542290,"name":"Ponte San Nicolò","country":"IT","coord":{"lon":11.92111,"lat":45.370491}},{"_id":7603207,"name":"San Fruttuoso","country":"IT","coord":{"lon":8.96145,"lat":44.407928}},{"_id":6545151,"name":"Pigna","country":"IT","coord":{"lon":12.48463,"lat":41.896351}},{"_id":6541413,"name":"Grandate","country":"IT","coord":{"lon":9.05784,"lat":45.775181}},{"_id":6537063,"name":"Rapallo","country":"IT","coord":{"lon":9.22967,"lat":44.351139}},{"_id":6541864,"name":"Cuneo","country":"IT","coord":{"lon":7.54453,"lat":44.397331}},{"_id":6536997,"name":"Sora","country":"IT","coord":{"lon":13.6141,"lat":41.715721}},{"_id":6541003,"name":"Este","country":"IT","coord":{"lon":11.65871,"lat":45.222889}},{"_id":3173411,"name":"Millefonti","country":"IT","coord":{"lon":7.66667,"lat":45.033329}},{"_id":6536098,"name":"Montoggio","country":"IT","coord":{"lon":9.04816,"lat":44.517448}},{"_id":2523649,"name":"Provincia di Ragusa","country":"IT","coord":{"lon":14.6,"lat":36.916672}},{"_id":3182712,"name":"Provincia di Asti","country":"IT","coord":{"lon":8.16667,"lat":44.916672}},{"_id":3164038,"name":"Provincia di Viterbo","country":"IT","coord":{"lon":12.08333,"lat":42.416672}},{"_id":6538374,"name":"Martignacco","country":"IT","coord":{"lon":13.13682,"lat":46.097919}},{"_id":6620307,"name":"Cenerente","country":"IT","coord":{"lon":12.35413,"lat":43.1464}},{"_id":6537651,"name":"Pisticci","country":"IT","coord":{"lon":16.556789,"lat":40.390621}},{"_id":6540122,"name":"Livorno","country":"IT","coord":{"lon":10.316,"lat":43.542641}},{"_id":6537135,"name":"Trezzo sull'Adda","country":"IT","coord":{"lon":9.51995,"lat":45.602982}},{"_id":6542003,"name":"Pesaro","country":"IT","coord":{"lon":12.89026,"lat":43.903568}},{"_id":6540434,"name":"Faenza","country":"IT","coord":{"lon":11.87523,"lat":44.29147}},{"_id":6538442,"name":"Montecchio Emilia","country":"IT","coord":{"lon":10.44709,"lat":44.701359}},{"_id":6540112,"name":"Pordenone","country":"IT","coord":{"lon":12.65532,"lat":45.961712}},{"_id":6540435,"name":"Lugo","country":"IT","coord":{"lon":11.90763,"lat":44.427071}},{"_id":6540995,"name":"Mogliano Veneto","country":"IT","coord":{"lon":12.24781,"lat":45.557201}},{"_id":6538312,"name":"Vittorio Veneto","country":"IT","coord":{"lon":12.30001,"lat":45.972809}},{"_id":6542124,"name":"Lecce","country":"IT","coord":{"lon":18.17202,"lat":40.357029}},{"_id":3168154,"name":"San Ligorio","country":"IT","coord":{"lon":18.200001,"lat":40.366669}},{"_id":6541810,"name":"Riva del Garda","country":"IT","coord":{"lon":10.84118,"lat":45.885761}},{"_id":3169272,"name":"Riva del Garda","country":"IT","coord":{"lon":10.84117,"lat":45.885769}},{"_id":3182397,"name":"Barbaricina","country":"IT","coord":{"lon":10.37676,"lat":43.713799}},{"_id":6536853,"name":"Poggibonsi","country":"IT","coord":{"lon":11.14562,"lat":43.472439}},{"_id":6538297,"name":"Conegliano","country":"IT","coord":{"lon":12.30391,"lat":45.887112}},{"_id":6538953,"name":"Manduria","country":"IT","coord":{"lon":17.633511,"lat":40.401821}},{"_id":2525058,"name":"Provincia di Catanzaro","country":"IT","coord":{"lon":16.433331,"lat":38.916672}},{"_id":6540124,"name":"Prato","country":"IT","coord":{"lon":11.09092,"lat":43.884251}},{"_id":3182636,"name":"Avezzano","country":"IT","coord":{"lon":13.4388,"lat":42.04023}},{"_id":3175001,"name":"La Vergine","country":"IT","coord":{"lon":10.9,"lat":43.933331}},{"_id":6541255,"name":"Bitonto","country":"IT","coord":{"lon":16.689381,"lat":41.110828}},{"_id":6540392,"name":"Caorle","country":"IT","coord":{"lon":12.86973,"lat":45.59391}},{"_id":2524819,"name":"Enna","country":"IT","coord":{"lon":14.28917,"lat":37.558849}},{"_id":6539198,"name":"Mascali","country":"IT","coord":{"lon":15.19589,"lat":37.75576}},{"_id":6540680,"name":"Casalnuovo di Napoli","country":"IT","coord":{"lon":14.34573,"lat":40.90921}},{"_id":6535987,"name":"Appiano sulla strada del vino - Eppan an der Weinstrasse","country":"IT","coord":{"lon":11.26178,"lat":46.45472}},{"_id":6540050,"name":"Monreale","country":"IT","coord":{"lon":13.28854,"lat":38.080051}},{"_id":6541050,"name":"Fano","country":"IT","coord":{"lon":13.01206,"lat":43.820358}},{"_id":3178617,"name":"Cittaducale","country":"IT","coord":{"lon":12.95698,"lat":42.387131}},{"_id":2525524,"name":"Borgo","country":"IT","coord":{"lon":15.93333,"lat":39.51667}},{"_id":6540635,"name":"Voghera","country":"IT","coord":{"lon":9.00155,"lat":44.989262}},{"_id":6538768,"name":"Portici","country":"IT","coord":{"lon":14.34043,"lat":40.818909}},{"_id":6540214,"name":"Montecchio Maggiore","country":"IT","coord":{"lon":11.412,"lat":45.503689}},{"_id":6537131,"name":"San Donato Milanese","country":"IT","coord":{"lon":9.27165,"lat":45.418072}},{"_id":6541856,"name":"Teramo","country":"IT","coord":{"lon":13.71789,"lat":42.66494}},{"_id":6539114,"name":"Pantelleria","country":"IT","coord":{"lon":11.94243,"lat":36.827919}},{"_id":6537731,"name":"Salemi","country":"IT","coord":{"lon":12.80564,"lat":37.823139}},{"_id":6540449,"name":"Fabriano","country":"IT","coord":{"lon":12.90726,"lat":43.340649}},{"_id":6536440,"name":"Novi Ligure","country":"IT","coord":{"lon":8.78955,"lat":44.760849}},{"_id":6539706,"name":"Correggio","country":"IT","coord":{"lon":10.7823,"lat":44.769772}},{"_id":6539115,"name":"Vita","country":"IT","coord":{"lon":12.82504,"lat":37.870541}},{"_id":3164051,"name":"Viserba","country":"IT","coord":{"lon":12.5366,"lat":44.088879}},{"_id":6536883,"name":"Todi","country":"IT","coord":{"lon":12.40456,"lat":42.779942}},{"_id":6539938,"name":"Monfalcone","country":"IT","coord":{"lon":13.52514,"lat":45.807919}},{"_id":6537548,"name":"Corato","country":"IT","coord":{"lon":16.41387,"lat":41.145531}},{"_id":6538293,"name":"Carbonera","country":"IT","coord":{"lon":12.28441,"lat":45.683601}},{"_id":7290085,"name":"Valgatara","country":"IT","coord":{"lon":10.91191,"lat":45.534672}},{"_id":6541892,"name":"Minturno","country":"IT","coord":{"lon":13.72371,"lat":41.25761}},{"_id":6537085,"name":"Samarate","country":"IT","coord":{"lon":8.78344,"lat":45.62537}},{"_id":6539839,"name":"Nardò","country":"IT","coord":{"lon":18.02972,"lat":40.175121}},{"_id":6539841,"name":"Avigliano","country":"IT","coord":{"lon":15.72026,"lat":40.729721}},{"_id":6541177,"name":"Angri","country":"IT","coord":{"lon":14.57144,"lat":40.74271}},{"_id":6541938,"name":"Noci","country":"IT","coord":{"lon":17.131701,"lat":40.79073}},{"_id":6536735,"name":"Soliera","country":"IT","coord":{"lon":10.9263,"lat":44.737968}},{"_id":6537566,"name":"Mottola","country":"IT","coord":{"lon":17.037201,"lat":40.633221}},{"_id":6538421,"name":"Colorno","country":"IT","coord":{"lon":10.37678,"lat":44.92627}},{"_id":6539194,"name":"Bronte","country":"IT","coord":{"lon":14.83418,"lat":37.789459}},{"_id":6540055,"name":"Milazzo","country":"IT","coord":{"lon":15.23828,"lat":38.221169}},{"_id":6538477,"name":"Sasso Marconi","country":"IT","coord":{"lon":11.24951,"lat":44.39946}},{"_id":6536785,"name":"Camerino","country":"IT","coord":{"lon":13.06917,"lat":43.139851}},{"_id":6540979,"name":"San Bonifacio","country":"IT","coord":{"lon":11.2844,"lat":45.396889}},{"_id":3182133,"name":"Bertinoro","country":"IT","coord":{"lon":12.13889,"lat":44.146938}},{"_id":6537155,"name":"Romano di Lombardia","country":"IT","coord":{"lon":9.74836,"lat":45.524578}},{"_id":6539945,"name":"Bondeno","country":"IT","coord":{"lon":11.41081,"lat":44.886181}},{"_id":6540769,"name":"Tricase","country":"IT","coord":{"lon":18.35533,"lat":39.93042}},{"_id":3182657,"name":"Avaglio","country":"IT","coord":{"lon":10.78333,"lat":43.950001}},{"_id":6540064,"name":"Noto","country":"IT","coord":{"lon":15.06929,"lat":36.890141}},{"_id":6537535,"name":"Carpino","country":"IT","coord":{"lon":15.85615,"lat":41.844238}},{"_id":3180428,"name":"Carpino","country":"IT","coord":{"lon":15.85615,"lat":41.844238}},{"_id":6536130,"name":"Valganna","country":"IT","coord":{"lon":8.82333,"lat":45.902279}},{"_id":6536401,"name":"Castellana Grotte","country":"IT","coord":{"lon":17.165501,"lat":40.886429}},{"_id":6539094,"name":"Bagnara Calabra","country":"IT","coord":{"lon":15.8078,"lat":38.288471}},{"_id":6541791,"name":"Borgofranco d'Ivrea","country":"IT","coord":{"lon":7.85802,"lat":45.512859}},{"_id":6541556,"name":"Varese Ligure","country":"IT","coord":{"lon":9.59418,"lat":44.37635}},{"_id":6536607,"name":"Villafranca di Verona","country":"IT","coord":{"lon":10.84019,"lat":45.352379}},{"_id":6538767,"name":"Pomigliano d'Arco","country":"IT","coord":{"lon":14.38623,"lat":40.907909}},{"_id":6540102,"name":"Cigliano","country":"IT","coord":{"lon":8.02102,"lat":45.308361}},{"_id":3173758,"name":"Massa Marittima","country":"IT","coord":{"lon":10.89283,"lat":43.04903}},{"_id":6540472,"name":"San Casciano in Val di Pesa","country":"IT","coord":{"lon":11.18952,"lat":43.65905}},{"_id":6536647,"name":"San Biagio di Callalta","country":"IT","coord":{"lon":12.38052,"lat":45.685799}},{"_id":6538473,"name":"Pieve di Cento","country":"IT","coord":{"lon":11.30761,"lat":44.712269}},{"_id":3174704,"name":"Linate","country":"IT","coord":{"lon":9.27229,"lat":45.44701}},{"_id":6540115,"name":"Vibo Valentia","country":"IT","coord":{"lon":16.0951,"lat":38.674278}},{"_id":6537727,"name":"Taurianova","country":"IT","coord":{"lon":16.0109,"lat":38.35627}},{"_id":6542286,"name":"Siracusa","country":"IT","coord":{"lon":15.273,"lat":37.085152}},{"_id":2523112,"name":"Siderno Superiore","country":"IT","coord":{"lon":16.26667,"lat":38.283329}},{"_id":6539304,"name":"Sestu","country":"IT","coord":{"lon":9.09304,"lat":39.294338}},{"_id":6537912,"name":"Selargius","country":"IT","coord":{"lon":9.16755,"lat":39.256641}},{"_id":6537811,"name":"Scordia","country":"IT","coord":{"lon":14.84078,"lat":37.29805}},{"_id":6542103,"name":"Sciacca","country":"IT","coord":{"lon":13.08805,"lat":37.50824}},{"_id":6541970,"name":"San Giovanni la Punta","country":"IT","coord":{"lon":15.09809,"lat":37.57605}},{"_id":6540794,"name":"San Giovanni in Fiore","country":"IT","coord":{"lon":16.6996,"lat":39.263302}},{"_id":6539851,"name":"Rossano","country":"IT","coord":{"lon":16.634899,"lat":39.5751}},{"_id":6541973,"name":"Pozzallo","country":"IT","coord":{"lon":14.84989,"lat":36.730541}},{"_id":6537749,"name":"Partinico","country":"IT","coord":{"lon":13.12004,"lat":38.043949}},{"_id":6541296,"name":"Paola","country":"IT","coord":{"lon":16.039591,"lat":39.35989}},{"_id":6540843,"name":"Palma di Montechiaro","country":"IT","coord":{"lon":13.76496,"lat":37.192638}},{"_id":6541351,"name":"Palagonia","country":"IT","coord":{"lon":14.74478,"lat":37.328251}},{"_id":6539180,"name":"Niscemi","country":"IT","coord":{"lon":14.39128,"lat":37.14864}},{"_id":6539133,"name":"Misilmeri","country":"IT","coord":{"lon":13.45175,"lat":38.033852}},{"_id":6539584,"name":"Iglesias","country":"IT","coord":{"lon":8.53993,"lat":39.305328}},{"_id":6541964,"name":"Gela","country":"IT","coord":{"lon":14.23068,"lat":37.080341}},{"_id":6539209,"name":"Floridia","country":"IT","coord":{"lon":15.15189,"lat":37.086948}},{"_id":6541339,"name":"Favara","country":"IT","coord":{"lon":13.66226,"lat":37.317539}},{"_id":6541858,"name":"Catanzaro","country":"IT","coord":{"lon":16.5987,"lat":38.890789}},{"_id":6540785,"name":"Castrovillari","country":"IT","coord":{"lon":16.21229,"lat":39.820301}},{"_id":6542233,"name":"Cassano allo Ionio","country":"IT","coord":{"lon":16.31819,"lat":39.783001}},{"_id":2525110,"name":"Cassano al Ionio","country":"IT","coord":{"lon":16.31819,"lat":39.783001}},{"_id":6539208,"name":"Carlentini","country":"IT","coord":{"lon":15.01259,"lat":37.26955}},{"_id":6537892,"name":"Capoterra","country":"IT","coord":{"lon":8.97184,"lat":39.176338}},{"_id":6539170,"name":"Canicattì","country":"IT","coord":{"lon":13.85036,"lat":37.35894}},{"_id":6541347,"name":"Biancavilla","country":"IT","coord":{"lon":14.86708,"lat":37.645149}},{"_id":6541966,"name":"Belpasso","country":"IT","coord":{"lon":14.98338,"lat":37.59465}},{"_id":6537735,"name":"Bagheria","country":"IT","coord":{"lon":13.50935,"lat":38.07935}},{"_id":6540854,"name":"Avola","country":"IT","coord":{"lon":15.1395,"lat":36.911339}},{"_id":6541772,"name":"Augusta","country":"IT","coord":{"lon":15.21969,"lat":37.236549}},{"_id":6537888,"name":"Assemini","country":"IT","coord":{"lon":9.00154,"lat":39.291538}},{"_id":6541317,"name":"San Giorgio Morgeto","country":"IT","coord":{"lon":16.085501,"lat":38.390179}},{"_id":2525725,"name":"Amato","country":"IT","coord":{"lon":16.133329,"lat":38.383331}},{"_id":6541860,"name":"Agrigento","country":"IT","coord":{"lon":13.58876,"lat":37.320839}},{"_id":6537803,"name":"Aci Sant'Antonio","country":"IT","coord":{"lon":15.12019,"lat":37.606159}},{"_id":6540849,"name":"Acireale","country":"IT","coord":{"lon":15.16628,"lat":37.61253}},{"_id":2525790,"name":"Acireale","country":"IT","coord":{"lon":15.16279,"lat":37.606659}},{"_id":6537802,"name":"Aci Catena","country":"IT","coord":{"lon":15.14019,"lat":37.595959}},{"_id":6537801,"name":"Aci Castello","country":"IT","coord":{"lon":15.13459,"lat":37.55825}},{"_id":6541539,"name":"Zola Predosa","country":"IT","coord":{"lon":11.21831,"lat":44.489658}},{"_id":6537140,"name":"Vimercate","country":"IT","coord":{"lon":9.36705,"lat":45.611881}},{"_id":6541532,"name":"Villorba","country":"IT","coord":{"lon":12.25311,"lat":45.721298}},{"_id":6540687,"name":"Villaricca","country":"IT","coord":{"lon":14.18983,"lat":40.921612}},{"_id":6542081,"name":"Vigonza","country":"IT","coord":{"lon":11.95941,"lat":45.427601}},{"_id":6539710,"name":"Vignola","country":"IT","coord":{"lon":11.0048,"lat":44.48296}},{"_id":6541169,"name":"Vico Equense","country":"IT","coord":{"lon":14.43174,"lat":40.659809}},{"_id":6541645,"name":"Viareggio","country":"IT","coord":{"lon":10.2558,"lat":43.873539}},{"_id":6537000,"name":"Veroli","country":"IT","coord":{"lon":13.4177,"lat":41.69112}},{"_id":3164528,"name":"Veroli","country":"IT","coord":{"lon":13.41774,"lat":41.6824}},{"_id":6541441,"name":"Venaria Reale","country":"IT","coord":{"lon":7.63542,"lat":45.123852}},{"_id":6542112,"name":"Varese","country":"IT","coord":{"lon":8.82193,"lat":45.829079}},{"_id":6541260,"name":"Valenzano","country":"IT","coord":{"lon":16.88509,"lat":41.04533}},{"_id":3164919,"name":"Valenzano","country":"IT","coord":{"lon":16.88509,"lat":41.04533}},{"_id":6539686,"name":"Valdagno","country":"IT","coord":{"lon":11.30639,"lat":45.6483}},{"_id":6541472,"name":"Urbino","country":"IT","coord":{"lon":12.63555,"lat":43.729759}},{"_id":6538949,"name":"Triggiano","country":"IT","coord":{"lon":16.925989,"lat":41.06673}},{"_id":3165178,"name":"Triggiano","country":"IT","coord":{"lon":16.925989,"lat":41.06673}},{"_id":6537305,"name":"Trecate","country":"IT","coord":{"lon":8.73684,"lat":45.434769}},{"_id":6541259,"name":"Trani","country":"IT","coord":{"lon":16.415371,"lat":41.272732}},{"_id":6537089,"name":"Tradate","country":"IT","coord":{"lon":8.90764,"lat":45.710972}},{"_id":6542269,"name":"Torremaggiore","country":"IT","coord":{"lon":15.29634,"lat":41.690739}},{"_id":3165435,"name":"Torre Maggiore","country":"IT","coord":{"lon":15.29634,"lat":41.690739}},{"_id":6541069,"name":"Tolentino","country":"IT","coord":{"lon":13.29008,"lat":43.212551}},{"_id":6541893,"name":"Terracina","country":"IT","coord":{"lon":13.2217,"lat":41.286308}},{"_id":6542114,"name":"Terni","country":"IT","coord":{"lon":12.64987,"lat":42.567131}},{"_id":6541934,"name":"Termoli","country":"IT","coord":{"lon":14.98953,"lat":41.988838}},{"_id":6541258,"name":"Terlizzi","country":"IT","coord":{"lon":16.54528,"lat":41.13113}},{"_id":6536909,"name":"Tarquinia","country":"IT","coord":{"lon":11.75526,"lat":42.248219}},{"_id":6540649,"name":"Suzzara","country":"IT","coord":{"lon":10.74309,"lat":44.991871}},{"_id":6540713,"name":"Sulmona","country":"IT","coord":{"lon":13.92911,"lat":42.047932}},{"_id":6537351,"name":"Somma Vesuviana","country":"IT","coord":{"lon":14.43613,"lat":40.871609}},{"_id":6542006,"name":"Signa","country":"IT","coord":{"lon":11.09792,"lat":43.792351}},{"_id":6541587,"name":"Seveso","country":"IT","coord":{"lon":9.14594,"lat":45.64238}},{"_id":6540923,"name":"Settimo Torinese","country":"IT","coord":{"lon":7.76802,"lat":45.140251}},{"_id":6538731,"name":"Sessa Aurunca","country":"IT","coord":{"lon":13.93282,"lat":41.240822}},{"_id":6537134,"name":"Seregno","country":"IT","coord":{"lon":9.20034,"lat":45.652382}},{"_id":6537133,"name":"Senago","country":"IT","coord":{"lon":9.12454,"lat":45.576271}},{"_id":6541826,"name":"Selvazzano Dentro","country":"IT","coord":{"lon":11.80051,"lat":45.391392}},{"_id":6541663,"name":"Segrate","country":"IT","coord":{"lon":9.30005,"lat":45.494171}},{"_id":6542089,"name":"Scandicci","country":"IT","coord":{"lon":11.19043,"lat":43.757462}},{"_id":6541194,"name":"Scafati","country":"IT","coord":{"lon":14.53384,"lat":40.752811}},{"_id":6536733,"name":"Sassuolo","country":"IT","coord":{"lon":10.7847,"lat":44.550861}},{"_id":6537086,"name":"Saronno","country":"IT","coord":{"lon":9.03464,"lat":45.627869}},{"_id":6537559,"name":"Santeramo in Colle","country":"IT","coord":{"lon":16.755289,"lat":40.79303}},{"_id":6539732,"name":"Sant'Elpidio a Mare","country":"IT","coord":{"lon":13.68608,"lat":43.229858}},{"_id":6541166,"name":"Sant'Antonio Abate","country":"IT","coord":{"lon":14.54654,"lat":40.723709}},{"_id":6540686,"name":"Sant'Antimo","country":"IT","coord":{"lon":14.23143,"lat":40.945709}},{"_id":6539813,"name":"Sant'Anastasia","country":"IT","coord":{"lon":14.40483,"lat":40.866909}},{"_id":6541100,"name":"Sansepolcro","country":"IT","coord":{"lon":12.14304,"lat":43.57465}},{"_id":6542207,"name":"San Remo","country":"IT","coord":{"lon":7.76115,"lat":43.818218}},{"_id":6538962,"name":"San Pietro Vernotico","country":"IT","coord":{"lon":17.99892,"lat":40.491531}},{"_id":6542195,"name":"San Nicandro Garganico","country":"IT","coord":{"lon":15.56535,"lat":41.83844}},{"_id":3167940,"name":"Sannicandro Garganico","country":"IT","coord":{"lon":15.56535,"lat":41.83844}},{"_id":6541435,"name":"San Mauro Torinese","country":"IT","coord":{"lon":7.75452,"lat":45.10585}},{"_id":6538931,"name":"San Marco in Lamis","country":"IT","coord":{"lon":15.63985,"lat":41.713139}},{"_id":6536278,"name":"San Lazzaro di Savena","country":"IT","coord":{"lon":11.41401,"lat":44.46777}},{"_id":6540744,"name":"San Giovanni Rotondo","country":"IT","coord":{"lon":15.71905,"lat":41.704941}},{"_id":6540247,"name":"San Giovanni Lupatoto","country":"IT","coord":{"lon":11.03799,"lat":45.38789}},{"_id":6538958,"name":"San Giorgio Ionico","country":"IT","coord":{"lon":17.3787,"lat":40.456619}},{"_id":6537348,"name":"San Giorgio a Cremano","country":"IT","coord":{"lon":14.33763,"lat":40.830711}},{"_id":6539909,"name":"Saluzzo","country":"IT","coord":{"lon":7.48623,"lat":44.646439}},{"_id":3168609,"name":"Saluzzo","country":"IT","coord":{"lon":7.48623,"lat":44.646439}},{"_id":3168770,"name":"Ruvo di Puglia","country":"IT","coord":{"lon":16.48778,"lat":41.113628}},{"_id":6538947,"name":"Rutigliano","country":"IT","coord":{"lon":17.005489,"lat":41.011131}},{"_id":6541662,"name":"Rozzano","country":"IT","coord":{"lon":9.16055,"lat":45.38187}},{"_id":6541093,"name":"Rosignano Marittimo","country":"IT","coord":{"lon":10.47291,"lat":43.407928}},{"_id":6541925,"name":"Roseto degli Abruzzi","country":"IT","coord":{"lon":14.0227,"lat":42.666351}},{"_id":6539902,"name":"Rivoli","country":"IT","coord":{"lon":7.52622,"lat":45.071548}},{"_id":6538077,"name":"Rivalta di Torino","country":"IT","coord":{"lon":7.51842,"lat":45.034039}},{"_id":6537346,"name":"Qualiano","country":"IT","coord":{"lon":14.15013,"lat":40.922611}},{"_id":6541077,"name":"Porto Sant'Elpidio","country":"IT","coord":{"lon":13.75829,"lat":43.258259}},{"_id":6536802,"name":"Porto San Giorgio","country":"IT","coord":{"lon":13.79339,"lat":43.182659}},{"_id":3170073,"name":"Porto San Giorgio","country":"IT","coord":{"lon":13.79339,"lat":43.182659}},{"_id":6540261,"name":"Civitanova Marche","country":"IT","coord":{"lon":13.72058,"lat":43.306961}},{"_id":6536839,"name":"Pontedera","country":"IT","coord":{"lon":10.63171,"lat":43.66164}},{"_id":6538564,"name":"Pontassieve","country":"IT","coord":{"lon":11.42823,"lat":43.773651}},{"_id":6536960,"name":"Pomezia","country":"IT","coord":{"lon":12.50518,"lat":41.667011}},{"_id":6537556,"name":"Polignano a Mare","country":"IT","coord":{"lon":17.215891,"lat":40.99593}},{"_id":6541279,"name":"Policoro","country":"IT","coord":{"lon":16.67259,"lat":40.21151}},{"_id":3170384,"name":"Policoro","country":"IT","coord":{"lon":16.67259,"lat":40.21151}},{"_id":6538766,"name":"Poggiomarino","country":"IT","coord":{"lon":14.53904,"lat":40.803108}},{"_id":6539928,"name":"Piove di Sacco","country":"IT","coord":{"lon":12.03681,"lat":45.297691}},{"_id":6538073,"name":"Piossasco","country":"IT","coord":{"lon":7.46372,"lat":44.99054}},{"_id":6541646,"name":"Piombino","country":"IT","coord":{"lon":10.52212,"lat":42.934818}},{"_id":3170674,"name":"Piombino","country":"IT","coord":{"lon":10.52212,"lat":42.934818}},{"_id":6536242,"name":"Pergine Valsugana","country":"IT","coord":{"lon":11.23798,"lat":46.064999}},{"_id":6536728,"name":"Pavullo nel Frignano","country":"IT","coord":{"lon":10.835,"lat":44.331459}},{"_id":6536518,"name":"Parabiago","country":"IT","coord":{"lon":8.94564,"lat":45.55497}},{"_id":6537555,"name":"Palo del Colle","country":"IT","coord":{"lon":16.700781,"lat":41.057529}},{"_id":3171562,"name":"Palo del Colle","country":"IT","coord":{"lon":16.700781,"lat":41.057529}},{"_id":3171664,"name":"Palagiano","country":"IT","coord":{"lon":17.03861,"lat":40.578892}},{"_id":6542037,"name":"Paderno Dugnano","country":"IT","coord":{"lon":9.16344,"lat":45.573071}},{"_id":6541906,"name":"Ottaviano","country":"IT","coord":{"lon":14.49014,"lat":40.849812}},{"_id":3171778,"name":"Ottaviano","country":"IT","coord":{"lon":14.49014,"lat":40.849812}},{"_id":6538961,"name":"Ostuni","country":"IT","coord":{"lon":17.57641,"lat":40.727631}},{"_id":6536779,"name":"Osimo","country":"IT","coord":{"lon":13.48748,"lat":43.482761}},{"_id":6539748,"name":"Orvieto","country":"IT","coord":{"lon":12.11156,"lat":42.719528}},{"_id":3171900,"name":"Orta Nova","country":"IT","coord":{"lon":15.71066,"lat":41.329929}},{"_id":3171961,"name":"Oria","country":"IT","coord":{"lon":17.64131,"lat":40.49733}},{"_id":6540127,"name":"Olbia","country":"IT","coord":{"lon":9.48563,"lat":40.921371}},{"_id":3172087,"name":"Olbia","country":"IT","coord":{"lon":9.48563,"lat":40.921371}},{"_id":6540996,"name":"Oderzo","country":"IT","coord":{"lon":12.50192,"lat":45.788212}},{"_id":6536517,"name":"Novate Milanese","country":"IT","coord":{"lon":9.13474,"lat":45.530972}},{"_id":6537124,"name":"Nova Milanese","country":"IT","coord":{"lon":9.19954,"lat":45.59037}},{"_id":6541905,"name":"Nola","country":"IT","coord":{"lon":14.53294,"lat":40.922009}},{"_id":3172227,"name":"Nola","country":"IT","coord":{"lon":14.53294,"lat":40.922009}},{"_id":3172228,"name":"Noicattaro","country":"IT","coord":{"lon":16.98959,"lat":41.033829}},{"_id":6540699,"name":"Nocera Superiore","country":"IT","coord":{"lon":14.67294,"lat":40.742111}},{"_id":6541687,"name":"Nocera Inferiore","country":"IT","coord":{"lon":14.64014,"lat":40.752209}},{"_id":6540915,"name":"Nichelino","country":"IT","coord":{"lon":7.64182,"lat":44.994041}},{"_id":6539972,"name":"Narni","country":"IT","coord":{"lon":12.52307,"lat":42.517132}},{"_id":6538765,"name":"Mugnano di Napoli","country":"IT","coord":{"lon":14.20513,"lat":40.911308}},{"_id":6539675,"name":"Muggiò","country":"IT","coord":{"lon":9.22625,"lat":45.588371}},{"_id":6536280,"name":"Montebelluna","country":"IT","coord":{"lon":12.04871,"lat":45.778}},{"_id":6538552,"name":"Monsummano Terme","country":"IT","coord":{"lon":10.81231,"lat":43.87035}},{"_id":6541005,"name":"Monselice","country":"IT","coord":{"lon":11.74901,"lat":45.24239}},{"_id":6541257,"name":"Monopoli","country":"IT","coord":{"lon":17.2896,"lat":40.955929}},{"_id":6538064,"name":"Moncalieri","country":"IT","coord":{"lon":7.69032,"lat":44.99625}},{"_id":6537553,"name":"Molfetta","country":"IT","coord":{"lon":16.597481,"lat":41.20023}},{"_id":3173287,"name":"Molfetta","country":"IT","coord":{"lon":16.597481,"lat":41.20023}},{"_id":6538945,"name":"Mola di Bari","country":"IT","coord":{"lon":17.08729,"lat":41.06094}},{"_id":6541262,"name":"Mesagne","country":"IT","coord":{"lon":17.80831,"lat":40.55883}},{"_id":6538680,"name":"Mentana","country":"IT","coord":{"lon":12.64238,"lat":42.03492}},{"_id":6537121,"name":"Melzo","country":"IT","coord":{"lon":9.42525,"lat":45.50127}},{"_id":6538763,"name":"Melito di Napoli","country":"IT","coord":{"lon":14.23003,"lat":40.920509}},{"_id":6540587,"name":"Melegnano","country":"IT","coord":{"lon":9.32395,"lat":45.358768}},{"_id":6540586,"name":"Meda","country":"IT","coord":{"lon":9.15974,"lat":45.65818}},{"_id":6537564,"name":"Massafra","country":"IT","coord":{"lon":17.117001,"lat":40.588821}},{"_id":6542128,"name":"Massa","country":"IT","coord":{"lon":10.11409,"lat":44.022041}},{"_id":6538954,"name":"Martina Franca","country":"IT","coord":{"lon":17.3339,"lat":40.703129}},{"_id":6538315,"name":"Martellago","country":"IT","coord":{"lon":12.16071,"lat":45.544201}},{"_id":6539761,"name":"Marino","country":"IT","coord":{"lon":12.64438,"lat":41.762421}},{"_id":6542087,"name":"Carrara","country":"IT","coord":{"lon":10.06069,"lat":44.062939}},{"_id":3173935,"name":"Marina di Carrara","country":"IT","coord":{"lon":10.04142,"lat":44.038368}},{"_id":6541475,"name":"Marigliano","country":"IT","coord":{"lon":14.45813,"lat":40.926311}},{"_id":6536113,"name":"Mariano Comense","country":"IT","coord":{"lon":9.17974,"lat":45.692081}},{"_id":6541409,"name":"Marcianise","country":"IT","coord":{"lon":14.30093,"lat":41.032211}},{"_id":6537344,"name":"Marano di Napoli","country":"IT","coord":{"lon":14.19053,"lat":40.89761}},{"_id":6540571,"name":"Malnate","country":"IT","coord":{"lon":8.88193,"lat":45.790779}},{"_id":6536515,"name":"Magenta","country":"IT","coord":{"lon":8.88264,"lat":45.464569}},{"_id":6539987,"name":"Maddaloni","country":"IT","coord":{"lon":14.37683,"lat":41.040009}},{"_id":6537538,"name":"Lucera","country":"IT","coord":{"lon":15.33505,"lat":41.508228}},{"_id":3174526,"name":"Lucera","country":"IT","coord":{"lon":15.33505,"lat":41.508228}},{"_id":6540337,"name":"Limbiate","country":"IT","coord":{"lon":9.12904,"lat":45.596771}},{"_id":6537118,"name":"Legnano","country":"IT","coord":{"lon":8.90784,"lat":45.59597}},{"_id":6541997,"name":"Lecco","country":"IT","coord":{"lon":9.39048,"lat":45.85334}},{"_id":6537575,"name":"Latiano","country":"IT","coord":{"lon":17.72051,"lat":40.552929}},{"_id":3175061,"name":"Latiano","country":"IT","coord":{"lon":17.72051,"lat":40.552929}},{"_id":6541999,"name":"L'Aquila","country":"IT","coord":{"lon":13.39349,"lat":42.36504}},{"_id":6535956,"name":"Laives - Leifers","country":"IT","coord":{"lon":11.33478,"lat":46.42281}},{"_id":6541586,"name":"Lainate","country":"IT","coord":{"lon":9.01714,"lat":45.575871}},{"_id":6541616,"name":"Ladispoli","country":"IT","coord":{"lon":12.07347,"lat":41.95372}},{"_id":6539811,"name":"Ischia","country":"IT","coord":{"lon":13.94712,"lat":40.7342}},{"_id":3175453,"name":"Ischia Porto","country":"IT","coord":{"lon":13.95,"lat":40.73333}},{"_id":3175458,"name":"Ischia","country":"IT","coord":{"lon":13.94813,"lat":40.735229}},{"_id":6537342,"name":"Grumo Nevano","country":"IT","coord":{"lon":14.25983,"lat":40.935909}},{"_id":6537276,"name":"Grugliasco","country":"IT","coord":{"lon":7.57762,"lat":45.06805}},{"_id":3175786,"name":"Grosseto","country":"IT","coord":{"lon":11.10794,"lat":42.77142}},{"_id":6540684,"name":"Gragnano","country":"IT","coord":{"lon":14.51234,"lat":40.69561}},{"_id":6537117,"name":"Gorgonzola","country":"IT","coord":{"lon":9.40465,"lat":45.53157}},{"_id":6541630,"name":"Giussano","country":"IT","coord":{"lon":9.21124,"lat":45.69408}},{"_id":6540717,"name":"Giulianova","country":"IT","coord":{"lon":13.9537,"lat":42.76115}},{"_id":3176053,"name":"Giulianova","country":"IT","coord":{"lon":13.9537,"lat":42.76115}},{"_id":6537550,"name":"Giovinazzo","country":"IT","coord":{"lon":16.667379,"lat":41.186432}},{"_id":3176072,"name":"Giovinazzo","country":"IT","coord":{"lon":16.667379,"lat":41.186432}},{"_id":6541943,"name":"Gallipoli","country":"IT","coord":{"lon":17.99642,"lat":40.056721}},{"_id":3176366,"name":"Gallipoli","country":"IT","coord":{"lon":17.976391,"lat":40.055561}},{"_id":6537078,"name":"Gallarate","country":"IT","coord":{"lon":8.79034,"lat":45.663971}},{"_id":3176406,"name":"Galatone","country":"IT","coord":{"lon":18.070419,"lat":40.142921}},{"_id":3176407,"name":"Galatina","country":"IT","coord":{"lon":18.168221,"lat":40.174019}},{"_id":6540683,"name":"Frattamaggiore","country":"IT","coord":{"lon":14.27403,"lat":40.939308}},{"_id":6541615,"name":"Frascati","country":"IT","coord":{"lon":12.66868,"lat":41.816319}},{"_id":6539572,"name":"Fossano","country":"IT","coord":{"lon":7.72013,"lat":44.548939}},{"_id":3176639,"name":"Fossano","country":"IT","coord":{"lon":7.72013,"lat":44.548939}},{"_id":6540530,"name":"Formia","country":"IT","coord":{"lon":13.60584,"lat":41.25626}},{"_id":3176738,"name":"Formia","country":"IT","coord":{"lon":13.60588,"lat":41.25626}},{"_id":6541106,"name":"Follonica","country":"IT","coord":{"lon":10.76162,"lat":42.926331}},{"_id":6541874,"name":"Fermo","country":"IT","coord":{"lon":13.72329,"lat":43.164661}},{"_id":6541559,"name":"Erba","country":"IT","coord":{"lon":9.23124,"lat":45.809582}},{"_id":6540335,"name":"Desio","country":"IT","coord":{"lon":9.20424,"lat":45.620178}},{"_id":6537115,"name":"Cusano Milanino","country":"IT","coord":{"lon":9.18344,"lat":45.55307}},{"_id":6540883,"name":"Cossato","country":"IT","coord":{"lon":8.18172,"lat":45.57386}},{"_id":6536842,"name":"Cortona","country":"IT","coord":{"lon":11.98705,"lat":43.27454}},{"_id":6536509,"name":"Corsico","country":"IT","coord":{"lon":9.11539,"lat":45.4305}},{"_id":6536507,"name":"Cornaredo","country":"IT","coord":{"lon":9.02614,"lat":45.496971}},{"_id":6537929,"name":"Cordenons","country":"IT","coord":{"lon":12.69492,"lat":45.98362}},{"_id":3178112,"name":"Cordenons","country":"IT","coord":{"lon":12.70194,"lat":45.989719}},{"_id":6540430,"name":"Copparo","country":"IT","coord":{"lon":11.82492,"lat":44.892979}},{"_id":3178137,"name":"Copparo","country":"IT","coord":{"lon":11.82492,"lat":44.892979}},{"_id":6542055,"name":"Como","country":"IT","coord":{"lon":9.08744,"lat":45.809978}},{"_id":6542256,"name":"Collesalvetti","country":"IT","coord":{"lon":10.47481,"lat":43.58884}},{"_id":3178349,"name":"Colle Salvetti","country":"IT","coord":{"lon":10.47481,"lat":43.58884}},{"_id":6538053,"name":"Collegno","country":"IT","coord":{"lon":7.57242,"lat":45.077549}},{"_id":6541652,"name":"Colleferro","country":"IT","coord":{"lon":13.00359,"lat":41.726219}},{"_id":6541617,"name":"Cisterna di Latina","country":"IT","coord":{"lon":12.83049,"lat":41.59761}},{"_id":6542143,"name":"Ciriè","country":"IT","coord":{"lon":7.59882,"lat":45.23505}},{"_id":6538052,"name":"Chivasso","country":"IT","coord":{"lon":7.88722,"lat":45.18935}},{"_id":6539800,"name":"Chieri","country":"IT","coord":{"lon":7.82233,"lat":45.01395}},{"_id":6536172,"name":"Chiari","country":"IT","coord":{"lon":9.93036,"lat":45.535881}},{"_id":6541989,"name":"Cesano Maderno","country":"IT","coord":{"lon":9.15224,"lat":45.630379}},{"_id":6540432,"name":"Cervia","country":"IT","coord":{"lon":12.34274,"lat":44.265671}},{"_id":6539481,"name":"Cernusco sul Naviglio","country":"IT","coord":{"lon":9.32275,"lat":45.522869}},{"_id":6538923,"name":"Cerignola","country":"IT","coord":{"lon":15.90046,"lat":41.26403}},{"_id":3179075,"name":"Cerignola","country":"IT","coord":{"lon":15.90046,"lat":41.26403}},{"_id":6540973,"name":"Cerea","country":"IT","coord":{"lon":11.2103,"lat":45.192081}},{"_id":6538759,"name":"Cercola","country":"IT","coord":{"lon":14.35773,"lat":40.856609}},{"_id":6538704,"name":"Ceccano","country":"IT","coord":{"lon":13.3333,"lat":41.567719}},{"_id":6539690,"name":"Cavarzere","country":"IT","coord":{"lon":12.08162,"lat":45.136688}},{"_id":6537232,"name":"Castiglione delle Stiviere","country":"IT","coord":{"lon":10.48528,"lat":45.390579}},{"_id":6541898,"name":"Castel Volturno","country":"IT","coord":{"lon":13.94622,"lat":41.014912}},{"_id":6540251,"name":"Castel Maggiore","country":"IT","coord":{"lon":11.36071,"lat":44.577068}},{"_id":6541633,"name":"Castelfranco Emilia","country":"IT","coord":{"lon":11.052,"lat":44.595772}},{"_id":6540469,"name":"Castelfiorentino","country":"IT","coord":{"lon":10.96922,"lat":43.610039}},{"_id":6541654,"name":"Cassino","country":"IT","coord":{"lon":13.83151,"lat":41.487621}},{"_id":6540333,"name":"Cassano d'Adda","country":"IT","coord":{"lon":9.51395,"lat":45.523579}},{"_id":6541680,"name":"Casoria","country":"IT","coord":{"lon":14.29343,"lat":40.911812}},{"_id":6541869,"name":"Caserta","country":"IT","coord":{"lon":14.33493,"lat":41.083221}},{"_id":6540660,"name":"Caselle Torinese","country":"IT","coord":{"lon":7.64262,"lat":45.177849}},{"_id":6541030,"name":"Casalecchio di Reno","country":"IT","coord":{"lon":11.27591,"lat":44.475571}},{"_id":6541407,"name":"Casal di Principe","country":"IT","coord":{"lon":14.12482,"lat":41.01141}},{"_id":6539992,"name":"Cardito","country":"IT","coord":{"lon":14.29943,"lat":40.942009}},{"_id":6540332,"name":"Carate Brianza","country":"IT","coord":{"lon":9.23594,"lat":45.673679}},{"_id":6538810,"name":"Capaccio","country":"IT","coord":{"lon":15.08085,"lat":40.424412}},{"_id":3180746,"name":"Capaccio","country":"IT","coord":{"lon":15.08085,"lat":40.424412}},{"_id":6539464,"name":"Cantù","country":"IT","coord":{"lon":9.14054,"lat":45.729382}},{"_id":6538940,"name":"Canosa di Puglia","country":"IT","coord":{"lon":16.067471,"lat":41.219631}},{"_id":6541087,"name":"Calenzano","country":"IT","coord":{"lon":11.16272,"lat":43.855949}},{"_id":6541163,"name":"Caivano","country":"IT","coord":{"lon":14.31023,"lat":40.957111}},{"_id":6537075,"name":"Busto Arsizio","country":"IT","coord":{"lon":8.84274,"lat":45.612171}},{"_id":6536261,"name":"Bussolengo","country":"IT","coord":{"lon":10.85058,"lat":45.469189}},{"_id":6539713,"name":"Budrio","country":"IT","coord":{"lon":11.53362,"lat":44.537071}},{"_id":6539990,"name":"Brusciano","country":"IT","coord":{"lon":14.42393,"lat":40.92321}},{"_id":6537112,"name":"Brugherio","country":"IT","coord":{"lon":9.29405,"lat":45.55727}},{"_id":6540583,"name":"Bresso","country":"IT","coord":{"lon":9.19755,"lat":45.537868}},{"_id":6542060,"name":"Boscoreale","country":"IT","coord":{"lon":14.49944,"lat":40.775612}},{"_id":6538124,"name":"Borgomanero","country":"IT","coord":{"lon":8.45813,"lat":45.70237}},{"_id":6537111,"name":"Bollate","country":"IT","coord":{"lon":9.12054,"lat":45.546471}},{"_id":6540748,"name":"Bisceglie","country":"IT","coord":{"lon":16.504379,"lat":41.242031}},{"_id":3182007,"name":"Bisceglie","country":"IT","coord":{"lon":16.504379,"lat":41.242031}},{"_id":6538038,"name":"Beinasco","country":"IT","coord":{"lon":7.58392,"lat":45.02314}},{"_id":6541913,"name":"Battipaglia","country":"IT","coord":{"lon":14.98515,"lat":40.610909}},{"_id":3182272,"name":"Battipaglia","country":"IT","coord":{"lon":14.98515,"lat":40.610909}},{"_id":6542181,"name":"Bastia Umbra","country":"IT","coord":{"lon":12.54556,"lat":43.06794}},{"_id":3182289,"name":"Bastia Umbra","country":"IT","coord":{"lon":12.54556,"lat":43.06794}},{"_id":6541686,"name":"Baronissi","country":"IT","coord":{"lon":14.77084,"lat":40.747711}},{"_id":3182337,"name":"Baronissi","country":"IT","coord":{"lon":14.77084,"lat":40.747711}},{"_id":3182518,"name":"Bagnoli","country":"IT","coord":{"lon":14.16807,"lat":40.813221}},{"_id":6536819,"name":"Bagno a Ripoli","country":"IT","coord":{"lon":11.32252,"lat":43.751148}},{"_id":6541635,"name":"Bagnacavallo","country":"IT","coord":{"lon":11.97713,"lat":44.412472}},{"_id":6542059,"name":"Bacoli","country":"IT","coord":{"lon":14.07829,"lat":40.799519}},{"_id":3182599,"name":"Bacoli","country":"IT","coord":{"lon":14.07846,"lat":40.799259}},{"_id":6536612,"name":"Arzignano","country":"IT","coord":{"lon":11.33859,"lat":45.519291}},{"_id":6539810,"name":"Arzano","country":"IT","coord":{"lon":14.26713,"lat":40.91441}},{"_id":6538668,"name":"Ariccia","country":"IT","coord":{"lon":12.67588,"lat":41.720119}},{"_id":6538773,"name":"Ariano Irpino","country":"IT","coord":{"lon":15.08334,"lat":41.148918}},{"_id":3182854,"name":"Ariano Irpino","country":"IT","coord":{"lon":15.08334,"lat":41.148918}},{"_id":3182884,"name":"Arezzo","country":"IT","coord":{"lon":11.87691,"lat":43.461391}},{"_id":6540169,"name":"Arcore","country":"IT","coord":{"lon":9.32555,"lat":45.626678}},{"_id":6541471,"name":"Aosta","country":"IT","coord":{"lon":7.3166,"lat":45.737358}},{"_id":6542092,"name":"Anzio","country":"IT","coord":{"lon":12.61789,"lat":41.48531}},{"_id":6541937,"name":"Andria","country":"IT","coord":{"lon":16.290871,"lat":41.230629}},{"_id":6541254,"name":"Altamura","country":"IT","coord":{"lon":16.55368,"lat":40.829231}},{"_id":6537016,"name":"Alpignano","country":"IT","coord":{"lon":7.52662,"lat":45.101952}},{"_id":6538325,"name":"Albignasego","country":"IT","coord":{"lon":11.86721,"lat":45.347488}},{"_id":6539671,"name":"Albenga","country":"IT","coord":{"lon":8.21605,"lat":44.052929}},{"_id":6541651,"name":"Albano Laziale","country":"IT","coord":{"lon":12.63128,"lat":41.726021}},{"_id":6541894,"name":"Alatri","country":"IT","coord":{"lon":13.3402,"lat":41.730621}},{"_id":6541176,"name":"Agropoli","country":"IT","coord":{"lon":14.99655,"lat":40.346901}},{"_id":3183412,"name":"Agropoli","country":"IT","coord":{"lon":14.99655,"lat":40.346901}},{"_id":6541162,"name":"Afragola","country":"IT","coord":{"lon":14.31083,"lat":40.92601}},{"_id":6538938,"name":"Adelfia","country":"IT","coord":{"lon":16.871691,"lat":41.00423}},{"_id":3183472,"name":"Adelfia","country":"IT","coord":{"lon":16.871691,"lat":41.00423}},{"_id":6538185,"name":"Acqui Terme","country":"IT","coord":{"lon":8.46755,"lat":44.67514}},{"_id":6538937,"name":"Acquaviva delle Fonti","country":"IT","coord":{"lon":16.842489,"lat":40.897831}},{"_id":6537337,"name":"Acerra","country":"IT","coord":{"lon":14.37623,"lat":40.95071}},{"_id":6540167,"name":"Abbiategrasso","country":"IT","coord":{"lon":8.91854,"lat":45.400768}},{"_id":3219114,"name":"Spinea","country":"IT","coord":{"lon":12.16056,"lat":45.493061}},{"_id":6542294,"name":"Pieve Emanuele","country":"IT","coord":{"lon":9.20002,"lat":45.3475}},{"_id":6542304,"name":"Buccinasco","country":"IT","coord":{"lon":9.10698,"lat":45.41713}},{"_id":6534232,"name":"Lamezia Terme","country":"IT","coord":{"lon":16.3092,"lat":38.965889}},{"_id":6542310,"name":"Cassano Magnago","country":"IT","coord":{"lon":8.82674,"lat":45.66917}},{"_id":6542315,"name":"Settimo Milanese","country":"IT","coord":{"lon":9.05205,"lat":45.482281}},{"_id":6542326,"name":"San Felice a Cancello","country":"IT","coord":{"lon":14.45583,"lat":41.00581}},{"_id":6542355,"name":"Fonte Nuova","country":"IT","coord":{"lon":12.62194,"lat":42.001671}},{"_id":3175395,"name":"Italian Republic","country":"IT","coord":{"lon":12.83333,"lat":42.833328}},{"_id":2523119,"name":"Regione Autonoma Siciliana","country":"IT","coord":{"lon":14.25,"lat":37.75}},{"_id":2525065,"name":"Provincia di Catania","country":"IT","coord":{"lon":14.66667,"lat":37.383331}},{"_id":6541967,"name":"Caltagirone","country":"IT","coord":{"lon":14.5126,"lat":37.23682}},{"_id":2523322,"name":"Santa Maria di Gesù","country":"IT","coord":{"lon":14.51667,"lat":37.23333}},{"_id":2524818,"name":"Provincia di Enna","country":"IT","coord":{"lon":14.43333,"lat":37.583328}},{"_id":6540848,"name":"Barrafranca","country":"IT","coord":{"lon":14.20107,"lat":37.379139}},{"_id":2525593,"name":"Barrafranca","country":"IT","coord":{"lon":14.20107,"lat":37.379139}},{"_id":2525763,"name":"Provincia di Agrigento","country":"IT","coord":{"lon":13.5,"lat":37.450001}},{"_id":6539174,"name":"Ribera","country":"IT","coord":{"lon":13.26415,"lat":37.49844}},{"_id":2523619,"name":"Ribera","country":"IT","coord":{"lon":13.26415,"lat":37.49844}},{"_id":6541468,"name":"Catania","country":"IT","coord":{"lon":15.07339,"lat":37.500252}},{"_id":2524993,"name":"Cibali","country":"IT","coord":{"lon":15.06667,"lat":37.51667}},{"_id":6537780,"name":"Menfi","country":"IT","coord":{"lon":12.96784,"lat":37.60664}},{"_id":2524179,"name":"Menfi","country":"IT","coord":{"lon":12.96784,"lat":37.60664}},{"_id":2523850,"name":"Pedara","country":"IT","coord":{"lon":15.05669,"lat":37.616852}},{"_id":2522875,"name":"Provincia di Trapani","country":"IT","coord":{"lon":12.66667,"lat":37.833328}},{"_id":6541759,"name":"Mazara del Vallo","country":"IT","coord":{"lon":12.58804,"lat":37.664139}},{"_id":2524205,"name":"Mazara del Vallo","country":"IT","coord":{"lon":12.58804,"lat":37.664139}},{"_id":2525468,"name":"Regione Calabria","country":"IT","coord":{"lon":16.5,"lat":39.0}},{"_id":2523629,"name":"Provincia di Reggio di Calabria","country":"IT","coord":{"lon":16.08333,"lat":38.316669}},{"_id":6542287,"name":"Reggio di Calabria","country":"IT","coord":{"lon":15.66129,"lat":38.11047}},{"_id":2523845,"name":"Pellaro","country":"IT","coord":{"lon":15.65,"lat":38.01667}},{"_id":2525729,"name":"Altofonte","country":"IT","coord":{"lon":13.29624,"lat":38.042049}},{"_id":6540824,"name":"Montelepre","country":"IT","coord":{"lon":13.17434,"lat":38.09045}},{"_id":2524070,"name":"Montelepre","country":"IT","coord":{"lon":13.17434,"lat":38.09045}},{"_id":2523630,"name":"Reggio Calabria","country":"IT","coord":{"lon":15.66129,"lat":38.11047}},{"_id":6537754,"name":"Barcellona Pozzo di Gotto","country":"IT","coord":{"lon":15.21048,"lat":38.14756}},{"_id":2525597,"name":"Barcellona-Pozzo di Gotto","country":"IT","coord":{"lon":15.21048,"lat":38.14756}},{"_id":6541758,"name":"Santo Stefano in Aspromonte","country":"IT","coord":{"lon":15.7892,"lat":38.16917}},{"_id":6541859,"name":"Messina","country":"IT","coord":{"lon":15.54969,"lat":38.193272}},{"_id":2524170,"name":"Messina","country":"IT","coord":{"lon":15.54969,"lat":38.193272}},{"_id":6541315,"name":"Polistena","country":"IT","coord":{"lon":16.08,"lat":38.405979}},{"_id":2523738,"name":"Polistena","country":"IT","coord":{"lon":16.08,"lat":38.405979}},{"_id":2524906,"name":"Provincia di Cosenza","country":"IT","coord":{"lon":16.41667,"lat":39.466671}},{"_id":6541297,"name":"Paterno Calabro","country":"IT","coord":{"lon":16.264891,"lat":39.228489}},{"_id":2525381,"name":"Capora-Merendi","country":"IT","coord":{"lon":16.25,"lat":39.216671}},{"_id":2523228,"name":"Regione Autonoma della Sardegna","country":"IT","coord":{"lon":9.0,"lat":40.0}},{"_id":2525471,"name":"Provincia di Cagliari","country":"IT","coord":{"lon":9.09119,"lat":39.245022}},{"_id":6540125,"name":"Cagliari","country":"IT","coord":{"lon":9.13033,"lat":39.213299}},{"_id":2525473,"name":"Cagliari","country":"IT","coord":{"lon":9.13462,"lat":39.207378}},{"_id":2524084,"name":"Monserrato","country":"IT","coord":{"lon":9.13972,"lat":39.256111}},{"_id":6539309,"name":"Sinnai","country":"IT","coord":{"lon":9.20355,"lat":39.304241}},{"_id":2592662,"name":"San Gregorio","country":"IT","coord":{"lon":9.36556,"lat":39.30056}},{"_id":2523024,"name":"Spezzano della Sila","country":"IT","coord":{"lon":16.35,"lat":39.299999}},{"_id":2525319,"name":"Casa Camigliati","country":"IT","coord":{"lon":16.466669,"lat":39.333328}},{"_id":6537895,"name":"Dolianova","country":"IT","coord":{"lon":9.17864,"lat":39.378239}},{"_id":2524844,"name":"Dolianova","country":"IT","coord":{"lon":9.17583,"lat":39.377781}},{"_id":2524352,"name":"Luzzi","country":"IT","coord":{"lon":16.28829,"lat":39.446098}},{"_id":6537887,"name":"Armungia","country":"IT","coord":{"lon":9.38185,"lat":39.52174}},{"_id":2525667,"name":"Armungia","country":"IT","coord":{"lon":9.38083,"lat":39.523331}},{"_id":3182306,"name":"Regione Basilicata","country":"IT","coord":{"lon":16.5,"lat":40.5}},{"_id":3169778,"name":"Regione Puglia","country":"IT","coord":{"lon":16.25,"lat":41.25}},{"_id":3174952,"name":"Provincia di Lecce","country":"IT","coord":{"lon":18.16667,"lat":40.216671}},{"_id":6541941,"name":"Botrugno","country":"IT","coord":{"lon":18.32443,"lat":40.06472}},{"_id":3181670,"name":"Botrugno","country":"IT","coord":{"lon":18.32443,"lat":40.06472}},{"_id":6541369,"name":"Tiana","country":"IT","coord":{"lon":9.14733,"lat":40.068451}},{"_id":3165692,"name":"Tiana","country":"IT","coord":{"lon":9.14733,"lat":40.068451}},{"_id":3167696,"name":"Santa Caterina","country":"IT","coord":{"lon":8.49243,"lat":40.10355}},{"_id":3181042,"name":"Regione Campania","country":"IT","coord":{"lon":14.5,"lat":41.0}},{"_id":3168670,"name":"Provincia di Salerno","country":"IT","coord":{"lon":15.26667,"lat":40.450001}},{"_id":6537421,"name":"Teggiano","country":"IT","coord":{"lon":15.54046,"lat":40.379211}},{"_id":3165851,"name":"Teggiano","country":"IT","coord":{"lon":15.54046,"lat":40.379211}},{"_id":6539026,"name":"Pomarico","country":"IT","coord":{"lon":16.547279,"lat":40.517818}},{"_id":3170350,"name":"Pomarico","country":"IT","coord":{"lon":16.547279,"lat":40.517818}},{"_id":6541900,"name":"Villa Literno","country":"IT","coord":{"lon":14.08052,"lat":41.009911}},{"_id":3164219,"name":"Villa Literno","country":"IT","coord":{"lon":14.08052,"lat":41.009911}},{"_id":6538798,"name":"Sturno","country":"IT","coord":{"lon":15.11025,"lat":41.020119}},{"_id":3166056,"name":"Sturno","country":"IT","coord":{"lon":15.11025,"lat":41.020119}},{"_id":3176884,"name":"Provincia di Foggia","country":"IT","coord":{"lon":15.53333,"lat":41.450001}},{"_id":6537541,"name":"Orsara di Puglia","country":"IT","coord":{"lon":15.26445,"lat":41.281631}},{"_id":3176140,"name":"Giardinetto","country":"IT","coord":{"lon":15.4,"lat":41.316669}},{"_id":6537309,"name":"San Potito Sannitico","country":"IT","coord":{"lon":14.39213,"lat":41.33852}},{"_id":3167796,"name":"San Potito Sannitico","country":"IT","coord":{"lon":14.39213,"lat":41.33852}},{"_id":6542350,"name":"Piedimonte Matese","country":"IT","coord":{"lon":14.36803,"lat":41.350819}},{"_id":6534279,"name":"Piedimonte Matese","country":"IT","coord":{"lon":14.36803,"lat":41.350819}},{"_id":3174976,"name":"Regione Lazio","country":"IT","coord":{"lon":12.5,"lat":42.0}},{"_id":3175057,"name":"Provincia di Latina","country":"IT","coord":{"lon":13.1,"lat":41.450001}},{"_id":6541618,"name":"Pontinia","country":"IT","coord":{"lon":13.0441,"lat":41.410912}},{"_id":3173539,"name":"Mesa","country":"IT","coord":{"lon":13.11667,"lat":41.383331}},{"_id":3169069,"name":"Provincia di Roma","country":"IT","coord":{"lon":12.66667,"lat":41.966671}},{"_id":6536956,"name":"Olevano Romano","country":"IT","coord":{"lon":13.03309,"lat":41.860619}},{"_id":3172074,"name":"Olevano Romano","country":"IT","coord":{"lon":13.03309,"lat":41.860619}},{"_id":6539757,"name":"Bracciano","country":"IT","coord":{"lon":12.16617,"lat":42.100422}},{"_id":3179676,"name":"Castel Giuliano","country":"IT","coord":{"lon":12.11667,"lat":42.049999}},{"_id":6538684,"name":"Nerola","country":"IT","coord":{"lon":12.78488,"lat":42.160931}},{"_id":3172303,"name":"Nerola","country":"IT","coord":{"lon":12.78488,"lat":42.160931}},{"_id":3183560,"name":"Regione Abruzzo","country":"IT","coord":{"lon":13.75,"lat":42.25}},{"_id":3175120,"name":"Provincia di L’Aquila","country":"IT","coord":{"lon":13.66667,"lat":42.083328}},{"_id":6542801,"name":"Lucoli","country":"IT","coord":{"lon":13.33799,"lat":42.290932}},{"_id":6536921,"name":"Forano","country":"IT","coord":{"lon":12.58977,"lat":42.301231}},{"_id":3176772,"name":"Forano","country":"IT","coord":{"lon":12.58977,"lat":42.301231}},{"_id":6537438,"name":"Pizzoli","country":"IT","coord":{"lon":13.31169,"lat":42.43214}},{"_id":3170590,"name":"Pizzoli","country":"IT","coord":{"lon":13.31169,"lat":42.43214}},{"_id":3165361,"name":"Regione Toscana","country":"IT","coord":{"lon":11.0,"lat":43.416672}},{"_id":3175784,"name":"Provincia di Grosseto","country":"IT","coord":{"lon":11.25,"lat":42.833328}},{"_id":6536859,"name":"Manciano","country":"IT","coord":{"lon":11.51625,"lat":42.587921}},{"_id":3175350,"name":"La Capriola","country":"IT","coord":{"lon":11.46667,"lat":42.51667}},{"_id":3165802,"name":"Provincia di Teramo","country":"IT","coord":{"lon":13.68333,"lat":42.650002}},{"_id":6536352,"name":"Crognaleto","country":"IT","coord":{"lon":13.48959,"lat":42.58794}},{"_id":3168316,"name":"San Giorgio","country":"IT","coord":{"lon":13.51667,"lat":42.583328}},{"_id":6541868,"name":"Grosseto","country":"IT","coord":{"lon":11.10794,"lat":42.77142}},{"_id":3182493,"name":"Bagno Roselle","country":"IT","coord":{"lon":11.13859,"lat":42.811138}},{"_id":3165048,"name":"Regione Umbria","country":"IT","coord":{"lon":12.5,"lat":43.0}},{"_id":3171179,"name":"Provincia di Perugia","country":"IT","coord":{"lon":12.55,"lat":43.049999}},{"_id":3171434,"name":"Pasciana","country":"IT","coord":{"lon":12.68333,"lat":42.966671}},{"_id":6542125,"name":"Perugia","country":"IT","coord":{"lon":12.38286,"lat":43.096741}},{"_id":7290471,"name":"Ellera","country":"IT","coord":{"lon":12.3216,"lat":43.08873}},{"_id":3166546,"name":"Provincia di Siena","country":"IT","coord":{"lon":11.4,"lat":43.216671}},{"_id":6538605,"name":"Trequanda","country":"IT","coord":{"lon":11.66754,"lat":43.18774}},{"_id":3172660,"name":"Montisi","country":"IT","coord":{"lon":11.66667,"lat":43.150002}},{"_id":6540486,"name":"Torrita di Siena","country":"IT","coord":{"lon":11.77944,"lat":43.170238}},{"_id":3165381,"name":"Torrita di Siena","country":"IT","coord":{"lon":11.77944,"lat":43.170238}},{"_id":3174004,"name":"Regione Marche","country":"IT","coord":{"lon":13.25,"lat":43.5}},{"_id":3174379,"name":"Provincia di Macerata","country":"IT","coord":{"lon":13.16667,"lat":43.200001}},{"_id":6541845,"name":"Morrovalle","country":"IT","coord":{"lon":13.58848,"lat":43.31646}},{"_id":7535964,"name":"Trodica","country":"IT","coord":{"lon":13.59369,"lat":43.274578}},{"_id":6541647,"name":"Asciano","country":"IT","coord":{"lon":11.57634,"lat":43.235142}},{"_id":3164494,"name":"Vescona","country":"IT","coord":{"lon":11.5,"lat":43.26667}},{"_id":6541111,"name":"Gubbio","country":"IT","coord":{"lon":12.57246,"lat":43.35445}},{"_id":3180930,"name":"Campo Reggiano","country":"IT","coord":{"lon":12.41667,"lat":43.333328}},{"_id":3183087,"name":"Provincia di Ancona","country":"IT","coord":{"lon":13.16667,"lat":43.549999}},{"_id":6542126,"name":"Ancona","country":"IT","coord":{"lon":13.51008,"lat":43.59816}},{"_id":3170798,"name":"Pietra la Croce","country":"IT","coord":{"lon":13.53887,"lat":43.602242}},{"_id":3170646,"name":"Provincia di Pisa","country":"IT","coord":{"lon":10.71667,"lat":43.416672}},{"_id":6538580,"name":"Ponsacco","country":"IT","coord":{"lon":10.62911,"lat":43.62384}},{"_id":3170321,"name":"Ponsacco","country":"IT","coord":{"lon":10.62911,"lat":43.62384}},{"_id":3180343,"name":"Casa Boulogne","country":"IT","coord":{"lon":10.46667,"lat":43.683331}},{"_id":6542091,"name":"San Miniato","country":"IT","coord":{"lon":10.81741,"lat":43.689941}},{"_id":3176271,"name":"Gavena","country":"IT","coord":{"lon":10.85,"lat":43.716671}},{"_id":3176958,"name":"Provincia di Firenze","country":"IT","coord":{"lon":11.33333,"lat":43.833328}},{"_id":6542285,"name":"Firenze","country":"IT","coord":{"lon":11.24892,"lat":43.786449}},{"_id":3176959,"name":"Firenze","country":"IT","coord":{"lon":11.25,"lat":43.76667}},{"_id":6538549,"name":"Altopascio","country":"IT","coord":{"lon":10.67391,"lat":43.815739}},{"_id":3183147,"name":"Altopascio","country":"IT","coord":{"lon":10.67391,"lat":43.815739}},{"_id":3164231,"name":"Villagrande","country":"IT","coord":{"lon":12.35,"lat":43.833328}},{"_id":6541643,"name":"Montecarlo","country":"IT","coord":{"lon":10.66831,"lat":43.85125}},{"_id":3173008,"name":"Montecarlo","country":"IT","coord":{"lon":10.66831,"lat":43.85125}},{"_id":3172828,"name":"Montemurlo","country":"IT","coord":{"lon":11.03112,"lat":43.92165}},{"_id":3166920,"name":"Schignano","country":"IT","coord":{"lon":11.1,"lat":43.966671}},{"_id":6536810,"name":"Borgo a Mozzano","country":"IT","coord":{"lon":10.5457,"lat":43.978951}},{"_id":6589202,"name":"Gioviano","country":"IT","coord":{"lon":10.52701,"lat":44.0116}},{"_id":3174725,"name":"Regione Liguria","country":"IT","coord":{"lon":8.83333,"lat":44.5}},{"_id":3167021,"name":"Provincia di Savona","country":"IT","coord":{"lon":8.26667,"lat":44.299999}},{"_id":3177401,"name":"Regione Emilia-Romagna","country":"IT","coord":{"lon":11.0,"lat":44.75}},{"_id":6457404,"name":"Provincia di Rimini","country":"IT","coord":{"lon":12.51858,"lat":44.024052}},{"_id":6541863,"name":"Rimini","country":"IT","coord":{"lon":12.55565,"lat":44.068371}},{"_id":3215203,"name":"Vergiano","country":"IT","coord":{"lon":12.51278,"lat":44.04306}},{"_id":6540301,"name":"Santarcangelo di Romagna","country":"IT","coord":{"lon":12.44874,"lat":44.063568}},{"_id":3167373,"name":"SantArcangelo di Romagna","country":"IT","coord":{"lon":12.44657,"lat":44.063259}},{"_id":6541879,"name":"Castelnuovo di Garfagnana","country":"IT","coord":{"lon":10.4046,"lat":44.12125}},{"_id":3179523,"name":"Castelnuovo di Garfagnana","country":"IT","coord":{"lon":10.4046,"lat":44.12125}},{"_id":3181832,"name":"Borghetto Santo Spirito","country":"IT","coord":{"lon":8.24129,"lat":44.11187}},{"_id":3174649,"name":"Loano","country":"IT","coord":{"lon":8.25743,"lat":44.127769}},{"_id":3214783,"name":"Lizzano","country":"IT","coord":{"lon":12.17694,"lat":44.12722}},{"_id":6535947,"name":"Bellaria-Igea Marina","country":"IT","coord":{"lon":12.46934,"lat":44.138569}},{"_id":3180251,"name":"Casa la Torretta","country":"IT","coord":{"lon":12.44682,"lat":44.15099}},{"_id":3170831,"name":"Regione Piemonte","country":"IT","coord":{"lon":8.0,"lat":45.0}},{"_id":3177699,"name":"Provincia di Cuneo","country":"IT","coord":{"lon":7.56667,"lat":44.51667}},{"_id":6538164,"name":"Vernante","country":"IT","coord":{"lon":7.53383,"lat":44.245029}},{"_id":3171659,"name":"Palanfrè","country":"IT","coord":{"lon":7.48333,"lat":44.200001}},{"_id":3169560,"name":"Provincia di Ravenna","country":"IT","coord":{"lon":11.98333,"lat":44.416672}},{"_id":6541043,"name":"Casola Valsenio","country":"IT","coord":{"lon":11.62512,"lat":44.22506}},{"_id":3179830,"name":"Casola Valsenio","country":"IT","coord":{"lon":11.62512,"lat":44.22506}},{"_id":6537055,"name":"Spotorno","country":"IT","coord":{"lon":8.41405,"lat":44.228531}},{"_id":3166228,"name":"Spotorno","country":"IT","coord":{"lon":8.41647,"lat":44.226379}},{"_id":3175080,"name":"Provincia di La Spezia","country":"IT","coord":{"lon":9.7,"lat":44.25}},{"_id":6541516,"name":"Deiva Marina","country":"IT","coord":{"lon":9.51898,"lat":44.218941}},{"_id":3170904,"name":"Piazza","country":"IT","coord":{"lon":9.55862,"lat":44.233849}},{"_id":6540121,"name":"Ravenna","country":"IT","coord":{"lon":12.19873,"lat":44.416969}},{"_id":3215249,"name":"San Zaccaria","country":"IT","coord":{"lon":12.21405,"lat":44.270531}},{"_id":6541659,"name":"Vado Ligure","country":"IT","coord":{"lon":8.43375,"lat":44.269138}},{"_id":3164988,"name":"Vado Ligure","country":"IT","coord":{"lon":8.43375,"lat":44.269138}},{"_id":6540558,"name":"Quiliano","country":"IT","coord":{"lon":8.41265,"lat":44.292542}},{"_id":3169670,"name":"Quiliano","country":"IT","coord":{"lon":8.41265,"lat":44.292542}},{"_id":3176217,"name":"Province of Genoa","country":"IT","coord":{"lon":9.06667,"lat":44.5}},{"_id":6536092,"name":"Chiavari","country":"IT","coord":{"lon":9.32197,"lat":44.320141}},{"_id":3224723,"name":"Caperana","country":"IT","coord":{"lon":9.34583,"lat":44.330559}},{"_id":6541514,"name":"Celle Ligure","country":"IT","coord":{"lon":8.54395,"lat":44.34864}},{"_id":6538141,"name":"Beinette","country":"IT","coord":{"lon":7.64673,"lat":44.36483}},{"_id":3182244,"name":"Beinette","country":"IT","coord":{"lon":7.64673,"lat":44.36483}},{"_id":6536752,"name":"Fusignano","country":"IT","coord":{"lon":11.95713,"lat":44.465069}},{"_id":3176467,"name":"Fusignano","country":"IT","coord":{"lon":11.95713,"lat":44.465069}},{"_id":6542361,"name":"Mombarcaro","country":"IT","coord":{"lon":8.08824,"lat":44.46764}},{"_id":3174468,"name":"Lunetta","country":"IT","coord":{"lon":8.06667,"lat":44.48333}},{"_id":3173501,"name":"Mezzano","country":"IT","coord":{"lon":12.08694,"lat":44.467499}},{"_id":3169524,"name":"Provincia di Reggio Emilia","country":"IT","coord":{"lon":10.61667,"lat":44.616669}},{"_id":6538437,"name":"Carpineti","country":"IT","coord":{"lon":10.51969,"lat":44.455959}},{"_id":3181927,"name":"Provincia di Bologna","country":"IT","coord":{"lon":11.43333,"lat":44.466671}},{"_id":6541998,"name":"Bologna","country":"IT","coord":{"lon":11.35041,"lat":44.506569}},{"_id":3167356,"name":"Santa Viola","country":"IT","coord":{"lon":11.31667,"lat":44.5}},{"_id":3176631,"name":"Fossolo","country":"IT","coord":{"lon":11.38333,"lat":44.48333}},{"_id":3167624,"name":"Sant’Alberto","country":"IT","coord":{"lon":12.13417,"lat":44.541672}},{"_id":3183298,"name":"Provincia di Alessandria","country":"IT","coord":{"lon":8.7,"lat":44.816669}},{"_id":6543533,"name":"Mornese","country":"IT","coord":{"lon":8.75615,"lat":44.639252}},{"_id":6535552,"name":"Mornese","country":"IT","coord":{"lon":8.75615,"lat":44.639252}},{"_id":6538475,"name":"San Giovanni in Persiceto","country":"IT","coord":{"lon":11.18411,"lat":44.639969}},{"_id":3168239,"name":"San Giovanni in Persiceto","country":"IT","coord":{"lon":11.18411,"lat":44.639969}},{"_id":3169522,"name":"Reggio nellEmilia","country":"IT","coord":{"lon":10.63125,"lat":44.69825}},{"_id":3177088,"name":"Provincia di Ferrara","country":"IT","coord":{"lon":11.83333,"lat":44.799999}},{"_id":3177090,"name":"Ferrara","country":"IT","coord":{"lon":11.62071,"lat":44.826778}},{"_id":3165523,"name":"Provincia di Torino","country":"IT","coord":{"lon":7.36667,"lat":45.133331}},{"_id":3180496,"name":"Carmagnola","country":"IT","coord":{"lon":7.71803,"lat":44.847038}},{"_id":3179199,"name":"Celleri","country":"IT","coord":{"lon":9.75,"lat":44.883331}},{"_id":6537287,"name":"Sangano","country":"IT","coord":{"lon":7.44812,"lat":45.026138}},{"_id":3168350,"name":"Sangano","country":"IT","coord":{"lon":7.44812,"lat":45.026138}},{"_id":3165525,"name":"Torino","country":"IT","coord":{"lon":7.66667,"lat":45.049999}},{"_id":3181770,"name":"Borgo Po","country":"IT","coord":{"lon":7.7,"lat":45.049999}},{"_id":6541794,"name":"Giaveno","country":"IT","coord":{"lon":7.34922,"lat":45.047039}},{"_id":3176130,"name":"Giaveno","country":"IT","coord":{"lon":7.34922,"lat":45.047039}},{"_id":3171058,"name":"Piacenza","country":"IT","coord":{"lon":9.69937,"lat":45.046761}},{"_id":6536051,"name":"Villar Focchiardo","country":"IT","coord":{"lon":7.23841,"lat":45.112438}},{"_id":3164154,"name":"Villar Focchiardo","country":"IT","coord":{"lon":7.23841,"lat":45.112438}},{"_id":6540631,"name":"Sartirana Lomellina","country":"IT","coord":{"lon":8.66444,"lat":45.114658}},{"_id":3167108,"name":"Sartirana Lomellina","country":"IT","coord":{"lon":8.66444,"lat":45.114658}},{"_id":3174050,"name":"Provincia di Mantova","country":"IT","coord":{"lon":10.78333,"lat":45.166672}},{"_id":3177837,"name":"Provincia di Cremona","country":"IT","coord":{"lon":9.93333,"lat":45.23333}},{"_id":6541851,"name":"Cremona","country":"IT","coord":{"lon":10.02797,"lat":45.136169}},{"_id":3168397,"name":"San Felice","country":"IT","coord":{"lon":10.06667,"lat":45.133331}},{"_id":6540101,"name":"Susa","country":"IT","coord":{"lon":7.05461,"lat":45.137539}},{"_id":3168226,"name":"San Giuliano","country":"IT","coord":{"lon":7.08333,"lat":45.133331}},{"_id":3164604,"name":"Regione Veneto","country":"IT","coord":{"lon":11.75,"lat":45.5}},{"_id":3164526,"name":"Provincia di Verona","country":"IT","coord":{"lon":11.03333,"lat":45.416672}},{"_id":6539638,"name":"Legnago","country":"IT","coord":{"lon":11.3091,"lat":45.183182}},{"_id":3174922,"name":"Legnago","country":"IT","coord":{"lon":11.3091,"lat":45.183182}},{"_id":3171727,"name":"Provincia di Padova","country":"IT","coord":{"lon":11.81667,"lat":45.349998}},{"_id":6542671,"name":"Megliadino San Fidenzio","country":"IT","coord":{"lon":11.516,"lat":45.217388}},{"_id":3169217,"name":"Roaro","country":"IT","coord":{"lon":11.51667,"lat":45.23333}},{"_id":3181553,"name":"Provincia di Brescia","country":"IT","coord":{"lon":10.3,"lat":45.633331}},{"_id":6540619,"name":"Seniga","country":"IT","coord":{"lon":10.17797,"lat":45.242668}},{"_id":3166741,"name":"Seniga","country":"IT","coord":{"lon":10.17797,"lat":45.242668}},{"_id":6541821,"name":"Chioggia","country":"IT","coord":{"lon":12.29302,"lat":45.20779}},{"_id":6542654,"name":"Zeccone","country":"IT","coord":{"lon":9.20115,"lat":45.25787}},{"_id":6534606,"name":"Zeccone","country":"IT","coord":{"lon":9.20115,"lat":45.25787}},{"_id":6458617,"name":"Provincia di Lodi","country":"IT","coord":{"lon":9.52858,"lat":45.296379}},{"_id":6543354,"name":"San Martino in Strada","country":"IT","coord":{"lon":9.52636,"lat":45.274971}},{"_id":6535371,"name":"San Martino in Strada","country":"IT","coord":{"lon":9.52636,"lat":45.274971}},{"_id":6540373,"name":"Ceresara","country":"IT","coord":{"lon":10.56958,"lat":45.26228}},{"_id":3182015,"name":"Birbesi","country":"IT","coord":{"lon":10.56667,"lat":45.283329}},{"_id":3173434,"name":"Province of Milan","country":"IT","coord":{"lon":9.5,"lat":45.5}},{"_id":6536513,"name":"Lacchiarella","country":"IT","coord":{"lon":9.13905,"lat":45.324268}},{"_id":3164214,"name":"Villamaggiore","country":"IT","coord":{"lon":9.16667,"lat":45.316669}},{"_id":6540114,"name":"Lodi","country":"IT","coord":{"lon":9.50286,"lat":45.313568}},{"_id":3174638,"name":"Lodi","country":"IT","coord":{"lon":9.50286,"lat":45.313568}},{"_id":3164564,"name":"Provincia di Vercelli","country":"IT","coord":{"lon":8.41415,"lat":45.331879}},{"_id":6540116,"name":"Vercelli","country":"IT","coord":{"lon":8.41533,"lat":45.323059}},{"_id":3175104,"name":"Larizzate","country":"IT","coord":{"lon":8.38333,"lat":45.299999}},{"_id":6540640,"name":"Crema","country":"IT","coord":{"lon":9.66826,"lat":45.358768}},{"_id":3177841,"name":"Crema","country":"IT","coord":{"lon":9.66826,"lat":45.358768}},