{"countryCityList":[{"_id":3175936,"coord":{"lat":45.775181,"lon":9.05784},"country":"IT","name":"Grandate"},{"_id":6539582,"coord":{"lat":45.55986,"lon":8.05002},"country":"IT","name":"Biella"},{"_id":6542288,"coord":{"lat":38.684978,"lon":16.54991},"country":"IT","name":"Soverato"},{"_id":6540662,"coord":{"lat":44.883942,"lon":7.33312},"country":"IT","name":"Pinerolo"},{"_id":6538016,"coord":{"lat":43.91946,"lon":12.54295},"country":"IT","name":"Montescudo"},{"_id":6540553,"coord":{"lat":43.793522,"lon":7.60264},"country":"IT","name":"Ventimiglia"},{"_id":6542009,"coord":{"lat":44.30814,"lon":8.47375},"country":"IT","name":"Savona"},{"_id":6537557,"coord":{"lat":41.113628,"lon":16.48778},"country":"IT","name":"Ruvo di Puglia"},{"_id":6539485,"coord":{"lat":45.497971,"lon":9.32435},"country":"IT","name":"Pioltello"},{"_id":6536957,"coord":{"lat":41.835522,"lon":12.88899},"country":"IT","name":"Palestrina"},{"_id":6537567,"coord":{"lat":40.57822,"lon":17.037399},"country":"IT","name":"Palagiano"},{"_id":6538821,"coord":{"lat":40.751511,"lon":14.61334},"country":"IT","name":"Pagani"},{"_id":6541936,"coord":{"lat":41.329929,"lon":15.71066},"country":"IT","name":"Orta Nova"},{"_id":6540026,"coord":{"lat":40.49733,"lon":17.64131},"country":"IT","name":"Oria"},{"_id":6537554,"coord":{"lat":41.033829,"lon":16.98959},"country":"IT","name":"Noicattaro"},{"_id":6542044,"coord":{"lat":41.482609,"lon":12.67899},"country":"IT","name":"Nettuno"},{"_id":6541509,"coord":{"lat":45.52879,"lon":10.93798},"country":"IT","name":"Negrar"},{"_id":6540220,"coord":{"lat":45.435799,"lon":12.13481},"country":"IT","name":"Mira"},{"_id":6540584,"coord":{"lat":45.615582,"lon":9.24655},"country":"IT","name":"Lissone"},{"_id":6538560,"coord":{"lat":43.771351,"lon":11.10282},"country":"IT","name":"Lastra a Signa"},{"_id":6541484,"coord":{"lat":43.88332,"lon":8.02225},"country":"IT","name":"Imperia"},{"_id":6541474,"coord":{"lat":43.528759,"lon":13.24017},"country":"IT","name":"Jesi"},{"_id":6541164,"coord":{"lat":40.92741,"lon":14.19103},"country":"IT","name":"Giugliano in Campania"},{"_id":6537588,"coord":{"lat":40.142921,"lon":18.070419},"country":"IT","name":"Galatone"},{"_id":6542094,"coord":{"lat":41.218311,"lon":13.56281},"country":"IT","name":"Gaeta"},{"_id":6541853,"coord":{"lat":41.640018,"lon":13.3401},"country":"IT","name":"Frosinone"},{"_id":6538453,"coord":{"lat":44.57296,"lon":10.847},"country":"IT","name":"Formigine"},{"_id":6541136,"coord":{"lat":41.354111,"lon":13.43131},"country":"IT","name":"Fondi"},{"_id":6540408,"coord":{"lat":44.86396,"lon":10.06668},"country":"IT","name":"Fidenza"},{"_id":6536870,"coord":{"lat":43.12904,"lon":12.28736},"country":"IT","name":"Corciano"},{"_id":6540023,"coord":{"lat":40.966228,"lon":17.11479},"country":"IT","name":"Conversano"},{"_id":6539925,"coord":{"lat":45.650002,"lon":11.7842},"country":"IT","name":"Cittadella"},{"_id":6538144,"coord":{"lat":44.703041,"lon":7.85563},"country":"IT","name":"Bra"},{"_id":6542123,"coord":{"lat":41.12952,"lon":14.78614},"country":"IT","name":"Benevento"},{"_id":6542012,"coord":{"lat":45.487671,"lon":8.99994},"country":"IT","name":"Bareggio"},{"_id":6541492,"coord":{"lat":45.552269,"lon":9.07654},"country":"IT","name":"Arese"},{"_id":6541135,"coord":{"lat":41.589512,"lon":12.65009},"country":"IT","name":"Aprilia"},{"_id":6540534,"coord":{"lat":41.74472,"lon":13.15269},"country":"IT","name":"Anagni"},{"_id":6536221,"coord":{"lat":45.488701,"lon":12.16251},"country":"IT","name":"Spinea"},{"_id":6542340,"coord":{"lat":40.87841,"lon":14.34293},"country":"IT","name":"Volla"},{"_id":6542104,"coord":{"lat":37.53405,"lon":14.95377},"country":"IT","name":"Misterbianco"},{"_id":6542331,"coord":{"lat":37.581249,"lon":15.07089},"country":"IT","name":"Tremestieri Etneo"},{"_id":3166440,"coord":{"lat":45.72197,"lon":8.81433},"country":"IT","name":"Solbiate Arno"},{"_id":3167329,"coord":{"lat":40.77037,"lon":9.67344},"country":"IT","name":"San Teodoro"},{"_id":3170220,"coord":{"lat":45.370491,"lon":11.92111},"country":"IT","name":"Ponte San Nicolo"},{"_id":3171502,"coord":{"lat":45.435261,"lon":9.3522},"country":"IT","name":"Pantigliate"},{"_id":3173985,"coord":{"lat":45.564442,"lon":12.29889},"country":"IT","name":"Marcon"},{"_id":3174662,"coord":{"lat":46.168491,"lon":9.30414},"country":"IT","name":"Livo"},{"_id":3177672,"coord":{"lat":45.68898,"lon":9.60705},"country":"IT","name":"Curno"},{"_id":3180246,"coord":{"lat":41.233921,"lon":15.00674},"country":"IT","name":"Casalbore"},{"_id":3180389,"coord":{"lat":45.54977,"lon":9.34375},"country":"IT","name":"Carugate"},{"_id":3182410,"coord":{"lat":45.527168,"lon":9.11724},"country":"IT","name":"Baranzate"},{"_id":3182732,"coord":{"lat":45.792301,"lon":11.9117},"country":"IT","name":"Asolo"},{"_id":6534466,"coord":{"lat":45.408871,"lon":9.12565},"country":"IT","name":"Assago"},{"_id":6534799,"coord":{"lat":45.860699,"lon":11.8984},"country":"IT","name":"Cavaso del Tomba"},{"_id":6535147,"coord":{"lat":45.616482,"lon":9.46375},"country":"IT","name":"Busnago"},{"_id":6535768,"coord":{"lat":45.566479,"lon":9.37585},"country":"IT","name":"Caponago"},{"_id":3164603,"coord":{"lat":45.43861,"lon":12.32667},"country":"IT","name":"Venezia"},{"_id":3176059,"coord":{"lat":40.92741,"lon":14.19103},"country":"IT","name":"Giugliano in Campania"},{"_id":6541770,"coord":{"lat":37.616852,"lon":15.05669},"country":"IT","name":"Pedara"},{"_id":6537734,"coord":{"lat":38.042049,"lon":13.29624},"country":"IT","name":"Altofonte"},{"_id":6542127,"coord":{"lat":38.115719,"lon":13.36143},"country":"IT","name":"Palermo"},{"_id":2524002,"coord":{"lat":38.116669,"lon":13.33333},"country":"IT","name":"Noce"},{"_id":2525587,"coord":{"lat":38.166672,"lon":15.83333},"country":"IT","name":"Basilicò"},{"_id":2525635,"coord":{"lat":38.216671,"lon":15.53333},"country":"IT","name":"Badiazza"},{"_id":2525104,"coord":{"lat":38.25,"lon":15.51667},"country":"IT","name":"Castanea delle Furie"},{"_id":6538065,"coord":{"lat":39.259941,"lon":9.14704},"country":"IT","name":"Monserrato"},{"_id":3173418,"coord":{"lat":40.049999,"lon":16.01667},"country":"IT","name":"Mileo"},{"_id":3172153,"coord":{"lat":40.166672,"lon":9.33333},"country":"IT","name":"Provincia di Nuoro"},{"_id":2523962,"coord":{"lat":39.900002,"lon":8.6},"country":"IT","name":"Provincia di Oristano"},{"_id":6539357,"coord":{"lat":40.18795,"lon":8.56642},"country":"IT","name":"Cuglieri"},{"_id":3170027,"coord":{"lat":40.644321,"lon":15.80857},"country":"IT","name":"Potenza"},{"_id":3179865,"coord":{"lat":41.23333,"lon":14.16667},"country":"IT","name":"Provincia di Caserta"},{"_id":3182649,"coord":{"lat":40.98333,"lon":15.15},"country":"IT","name":"Provincia di Avellino"},{"_id":6457401,"coord":{"lat":40.922981,"lon":9.49459},"country":"IT","name":"Provincia di Olbia-Tempio"},{"_id":6539586,"coord":{"lat":40.897369,"lon":9.10352},"country":"IT","name":"Tempio Pausania"},{"_id":3181038,"coord":{"lat":41.133331,"lon":9.23333},"country":"IT","name":"Campavaglio"},{"_id":3176885,"coord":{"lat":41.46093,"lon":15.54925},"country":"IT","name":"Foggia"},{"_id":3175264,"coord":{"lat":41.98333,"lon":12.4},"country":"IT","name":"La Giustiniana"},{"_id":3169411,"coord":{"lat":42.299999,"lon":12.86667},"country":"IT","name":"Provincia di Rieti"},{"_id":6536922,"coord":{"lat":42.229832,"lon":12.80558},"country":"IT","name":"Frasso Sabino"},{"_id":3176572,"coord":{"lat":42.229832,"lon":12.80558},"country":"IT","name":"Frasso Sabino"},{"_id":3180145,"coord":{"lat":42.25,"lon":13.38333},"country":"IT","name":"Casamaina"},{"_id":6538616,"coord":{"lat":42.944038,"lon":12.70107},"country":"IT","name":"Foligno"},{"_id":6542090,"coord":{"lat":43.679138,"lon":10.49941},"country":"IT","name":"Cascina"},{"_id":6620318,"coord":{"lat":43.737492,"lon":11.01268},"country":"IT","name":"Capraia Fiorentina"},{"_id":3174529,"coord":{"lat":44.033329,"lon":10.45},"country":"IT","name":"Provincia di Lucca"},{"_id":3171172,"coord":{"lat":43.666672,"lon":12.63333},"country":"IT","name":"Provincia di Pesaro e Urbino"},{"_id":6541554,"coord":{"lat":43.92165,"lon":11.03112},"country":"IT","name":"Montemurlo"},{"_id":6541657,"coord":{"lat":44.115429,"lon":8.23905},"country":"IT","name":"Borghetto Santo Spirito"},{"_id":3176745,"coord":{"lat":44.083328,"lon":12.03333},"country":"IT","name":"Provincia di Forlì"},{"_id":6541838,"coord":{"lat":44.15617,"lon":12.26404},"country":"IT","name":"Cesena"},{"_id":3173884,"coord":{"lat":44.48333,"lon":10.48333},"country":"IT","name":"Marola"},{"_id":6543042,"coord":{"lat":44.709751,"lon":8.55175},"country":"IT","name":"Rivalta Bormida"},{"_id":6535056,"coord":{"lat":44.709751,"lon":8.55175},"country":"IT","name":"Rivalta Bormida"},{"_id":6542120,"coord":{"lat":44.826778,"lon":11.62071},"country":"IT","name":"Ferrara"},{"_id":3171057,"coord":{"lat":44.883331,"lon":9.58333},"country":"IT","name":"Provincia di Piacenza"},{"_id":6538411,"coord":{"lat":44.91526,"lon":9.78927},"country":"IT","name":"Carpaneto Piacentino"},{"_id":3172488,"coord":{"lat":45.01667,"lon":9.71667},"country":"IT","name":"Mucinasso"},{"_id":3171364,"coord":{"lat":45.116669,"lon":9.13333},"country":"IT","name":"Provincia di Pavia"},{"_id":3177969,"coord":{"lat":45.133331,"lon":11},"country":"IT","name":"Corte Rusta"},{"_id":3164600,"coord":{"lat":45.440449,"lon":12.32632},"country":"IT","name":"Provincia di Venezia"},{"_id":6538317,"coord":{"lat":45.491699,"lon":12.11091},"country":"IT","name":"Mirano"},{"_id":3177845,"coord":{"lat":45.53199,"lon":11.4785},"country":"IT","name":"Creazzo"},{"_id":6542284,"coord":{"lat":45.4389,"lon":12.33092},"country":"IT","name":"Venezia"},{"_id":3177820,"coord":{"lat":45.599998,"lon":7.43333},"country":"IT","name":"Cret"},{"_id":3165186,"coord":{"lat":45.666672,"lon":13.76667},"country":"IT","name":"Trieste"},{"_id":6540342,"coord":{"lat":45.763779,"lon":9.79636},"country":"IT","name":"Albino"},{"_id":6539881,"coord":{"lat":45.95406,"lon":12.50285},"country":"IT","name":"Sacile"},{"_id":3164854,"coord":{"lat":46.48333,"lon":10.28333},"country":"IT","name":"Valle di Dentro"},{"_id":6540246,"coord":{"lat":45.02647,"lon":9.99847},"country":"IT","name":"Villanova sull'Arda"},{"_id":6536452,"coord":{"lat":44.893349,"lon":8.86455},"country":"IT","name":"Tortona"},{"_id":2523281,"coord":{"lat":39.23056,"lon":9.09694},"country":"IT","name":"Sant’Avendrace"},{"_id":3182225,"coord":{"lat":44.146,"lon":12.46519},"country":"IT","name":"Bellaria"},{"_id":6538252,"coord":{"lat":45.767601,"lon":11.7357},"country":"IT","name":"Bassano del Grappa"},{"_id":6543730,"coord":{"lat":45.657269,"lon":9.00424},"country":"IT","name":"Turate"},{"_id":6536269,"coord":{"lat":45.642101,"lon":12.29331},"country":"IT","name":"Casier"},{"_id":6535687,"coord":{"lat":45.427261,"lon":8.04942},"country":"IT","name":"Viverone"},{"_id":3167895,"coord":{"lat":45.049999,"lon":7.63333},"country":"IT","name":"San Paolo"},{"_id":3219616,"coord":{"lat":46.130829,"lon":12.35806},"country":"IT","name":"San Vigilio"},{"_id":3219982,"coord":{"lat":46.025558,"lon":13.21444},"country":"IT","name":"Basaldella"},{"_id":3171043,"coord":{"lat":46.383331,"lon":11.98333},"country":"IT","name":"Piaia"},{"_id":3174958,"coord":{"lat":45.533329,"lon":11.91667},"country":"IT","name":"Le Caselle"},{"_id":3166850,"coord":{"lat":43.833328,"lon":11.01667},"country":"IT","name":"Seano"},{"_id":3167417,"coord":{"lat":44.549999,"lon":10.75},"country":"IT","name":"Sant’Antonino"},{"_id":2524777,"coord":{"lat":39.933331,"lon":18.116671},"country":"IT","name":"Felline"},{"_id":6542249,"coord":{"lat":46.343121,"lon":11.97339},"country":"IT","name":"Cencenighe Agordino"},{"_id":3179178,"coord":{"lat":46.343121,"lon":11.97339},"country":"IT","name":"Cencenighe"},{"_id":3164197,"coord":{"lat":40.833328,"lon":14.21667},"country":"IT","name":"Villanova"},{"_id":3163948,"coord":{"lat":40.833328,"lon":14.23333},"country":"IT","name":"Vomero"},{"_id":6535097,"coord":{"lat":45.767872,"lon":8.74133},"country":"IT","name":"Casale Litta"},{"_id":6542661,"coord":{"lat":45.788399,"lon":11.36769},"country":"IT","name":"Velo d'Astico"},{"_id":3173670,"coord":{"lat":45.777821,"lon":11.4005},"country":"IT","name":"Meda"},{"_id":6536003,"coord":{"lat":45.71656,"lon":7.1667},"country":"IT","name":"Saint-Nicolas"},{"_id":3167922,"coord":{"lat":45.716671,"lon":7.16667},"country":"IT","name":"San Nicolas"},{"_id":3174254,"coord":{"lat":40.11842,"lon":18.298929},"country":"IT","name":"Maglie"},{"_id":3180193,"coord":{"lat":41.488781,"lon":12.59136},"country":"IT","name":"Casale Vignarola"},{"_id":3183583,"coord":{"lat":45.099998,"lon":7.71667},"country":"IT","name":"Abbadia di Stura"},{"_id":7521552,"coord":{"lat":41.857861,"lon":12.503},"country":"IT","name":"Ardeatino"},{"_id":3167974,"coord":{"lat":41.433331,"lon":12.96667},"country":"IT","name":"San Michele"},{"_id":6543838,"coord":{"lat":45.151749,"lon":8.04903},"country":"IT","name":"Cavagnolo"},{"_id":3163969,"coord":{"lat":45.366669,"lon":11.9},"country":"IT","name":"Volta Barozzo"},{"_id":3171456,"coord":{"lat":44.700001,"lon":10.08333},"country":"IT","name":"Provincia di Parma"},{"_id":6541855,"coord":{"lat":45.152081,"lon":10.77379},"country":"IT","name":"Mantova"},{"_id":3172394,"coord":{"lat":40.833328,"lon":14.25},"country":"IT","name":"Napoli"},{"_id":6536522,"coord":{"lat":45.539371,"lon":9.24175},"country":"IT","name":"Sesto San Giovanni"},{"_id":3167961,"coord":{"lat":44.352982,"lon":9.23564},"country":"IT","name":"San Michele di Pagana"},{"_id":3182748,"coord":{"lat":42.88443,"lon":13.55306},"country":"IT","name":"Province of Ascoli Piceno"},{"_id":6542154,"coord":{"lat":40.417019,"lon":17.240101},"country":"IT","name":"Taranto"},{"_id":3172656,"coord":{"lat":44.517448,"lon":9.04816},"country":"IT","name":"Montoggio"},{"_id":3167431,"coord":{"lat":43.833328,"lon":10.48333},"country":"IT","name":"Sant’Anna"},{"_id":3168673,"coord":{"lat":40.677971,"lon":14.76599},"country":"IT","name":"Salerno"},{"_id":6536153,"coord":{"lat":45.68338,"lon":9.72286},"country":"IT","name":"Seriate"},{"_id":6540063,"coord":{"lat":36.953739,"lon":14.53318},"country":"IT","name":"Vittoria"},{"_id":6539606,"coord":{"lat":44.897949,"lon":8.20684},"country":"IT","name":"Asti"},{"_id":6541469,"coord":{"lat":46.070431,"lon":11.12074},"country":"IT","name":"Trento"},{"_id":6540107,"coord":{"lat":42.417831,"lon":12.10856},"country":"IT","name":"Viterbo"},{"_id":3173845,"coord":{"lat":46.09639,"lon":13.13778},"country":"IT","name":"Martignacco"},{"_id":6540390,"coord":{"lat":45.676102,"lon":11.926},"country":"IT","name":"Castelfranco Veneto"},{"_id":3170622,"coord":{"lat":40.390621,"lon":16.556789},"country":"IT","name":"Pisticci"},{"_id":6538566,"coord":{"lat":43.834549,"lon":11.19522},"country":"IT","name":"Sesto Fiorentino"},{"_id":3174658,"coord":{"lat":43.23333,"lon":10.58333},"country":"IT","name":"Provincia di Livorno"},{"_id":6541852,"coord":{"lat":45.079979,"lon":11.79301},"country":"IT","name":"Rovigo"},{"_id":3165197,"coord":{"lat":45.602982,"lon":9.51995},"country":"IT","name":"Trezzo sullAdda"},{"_id":3172980,"coord":{"lat":44.701359,"lon":10.44709},"country":"IT","name":"Montecchio Emilia"},{"_id":2525755,"coord":{"lat":37.998348,"lon":12.95654},"country":"IT","name":"Alcamo"},{"_id":6536781,"coord":{"lat":43.709259,"lon":13.21667},"country":"IT","name":"Senigallia"},{"_id":6538612,"coord":{"lat":43.069141,"lon":12.61646},"country":"IT","name":"Assisi"},{"_id":2524393,"coord":{"lat":37.10714,"lon":13.94607},"country":"IT","name":"Licata"},{"_id":6541465,"coord":{"lat":45.557289,"lon":11.5409},"country":"IT","name":"Vicenza"},{"_id":6542122,"coord":{"lat":43.710838,"lon":10.4137},"country":"IT","name":"Pisa"},{"_id":3174096,"coord":{"lat":40.401821,"lon":17.633511},"country":"IT","name":"Manduria"},{"_id":2523045,"coord":{"lat":38.684978,"lon":16.54991},"country":"IT","name":"Soverato Marina"},{"_id":6458615,"coord":{"lat":39.120071,"lon":17.081341},"country":"IT","name":"Provincia di Crotone"},{"_id":6541463,"coord":{"lat":39.085098,"lon":17.117809},"country":"IT","name":"Crotone"},{"_id":2524881,"coord":{"lat":39.085098,"lon":17.117809},"country":"IT","name":"Crotone"},{"_id":6539766,"coord":{"lat":41.69532,"lon":13.2564},"country":"IT","name":"Ferentino"},{"_id":3177102,"coord":{"lat":41.69532,"lon":13.2564},"country":"IT","name":"Ferentino"},{"_id":6542118,"coord":{"lat":42.3503,"lon":14.16773},"country":"IT","name":"Chieti"},{"_id":3178796,"coord":{"lat":42.360939,"lon":14.13801},"country":"IT","name":"Chieti"},{"_id":6541116,"coord":{"lat":42.744839,"lon":12.73737},"country":"IT","name":"Spoleto"},{"_id":3166236,"coord":{"lat":42.744839,"lon":12.73737},"country":"IT","name":"Spoleto"},{"_id":3175444,"coord":{"lat":41.666672,"lon":14.25},"country":"IT","name":"Provincia di Isernia"},{"_id":6536505,"coord":{"lat":45.535671,"lon":9.27635},"country":"IT","name":"Cologno Monzese"},{"_id":6539672,"coord":{"lat":44.11145,"lon":9.95859},"country":"IT","name":"Sarzana"},{"_id":3167104,"coord":{"lat":44.11145,"lon":9.95859},"country":"IT","name":"Sarzana"},{"_id":3181995,"coord":{"lat":41.110828,"lon":16.689381},"country":"IT","name":"Bitonto"},{"_id":6538456,"coord":{"lat":44.886767999999996,"lon":11.0662},"country":"IT","name":"Mirandola"},{"_id":3180749,"coord":{"lat":45.596561,"lon":12.8758},"country":"IT","name":"Caorle"},{"_id":6539859,"coord":{"lat":38.423969,"lon":15.899},"country":"IT","name":"Gioia Tauro"},{"_id":6538674,"coord":{"lat":41.701321,"lon":12.69178},"country":"IT","name":"Genzano di Roma"},{"_id":6540287,"coord":{"lat":41.76281,"lon":12.24747},"country":"IT","name":"Fiumicino"},{"_id":2524237,"coord":{"lat":37.75576,"lon":15.19589},"country":"IT","name":"Mascali"},{"_id":6539444,"coord":{"lat":46.11348,"lon":8.28962},"country":"IT","name":"Domodossola"},{"_id":6540110,"coord":{"lat":40.668522,"lon":16.60158},"country":"IT","name":"Matera"},{"_id":6538946,"coord":{"lat":40.85183,"lon":17.12129},"country":"IT","name":"Putignano"},{"_id":6538943,"coord":{"lat":40.819721,"lon":16.422779},"country":"IT","name":"Gravina in Puglia"},{"_id":6540781,"coord":{"lat":39.492901,"lon":16.383789},"country":"IT","name":"Acri"},{"_id":3182966,"coord":{"lat":46.45472,"lon":11.26178},"country":"IT","name":"San Michele"},{"_id":6540671,"coord":{"lat":44.69154,"lon":8.02564},"country":"IT","name":"Alba"},{"_id":3179542,"coord":{"lat":43.400002,"lon":13.53333},"country":"IT","name":"Castelnuovo"},{"_id":2524085,"coord":{"lat":38.080051,"lon":13.28854},"country":"IT","name":"Monreale"},{"_id":6541098,"coord":{"lat":43.527649,"lon":11.56893},"country":"IT","name":"Montevarchi"},{"_id":6541032,"coord":{"lat":44.352268,"lon":11.71582},"country":"IT","name":"Imola"},{"_id":6536054,"coord":{"lat":45.133362,"lon":8.45714},"country":"IT","name":"Casale Monferrato"},{"_id":6539037,"coord":{"lat":39.595001,"lon":16.5177},"country":"IT","name":"Corigliano Calabro"},{"_id":2524929,"coord":{"lat":39.595001,"lon":16.5177},"country":"IT","name":"Corigliano Calabro"},{"_id":3175385,"coord":{"lat":45.466869,"lon":7.87617},"country":"IT","name":"Ivrea"},{"_id":6539211,"coord":{"lat":37.28545,"lon":14.99959},"country":"IT","name":"Lentini"},{"_id":6536709,"coord":{"lat":44.720261,"lon":10.23178},"country":"IT","name":"Sala Baganza"},{"_id":6541462,"coord":{"lat":42.40723,"lon":12.85918},"country":"IT","name":"Rieti"},{"_id":3169412,"coord":{"lat":42.40723,"lon":12.85918},"country":"IT","name":"Rieti"},{"_id":3182628,"coord":{"lat":42.650002,"lon":13.7},"country":"IT","name":"Avilla"},{"_id":6537243,"coord":{"lat":45.733791,"lon":10.93718},"country":"IT","name":"Avio"},{"_id":3182625,"coord":{"lat":45.733791,"lon":10.93718},"country":"IT","name":"Avio"},{"_id":2523890,"coord":{"lat":36.833328,"lon":11.95},"country":"IT","name":"Pantelleria"},{"_id":6538451,"coord":{"lat":44.50576,"lon":10.9464},"country":"IT","name":"Castelvetro di Modena"},{"_id":2523557,"coord":{"lat":37.823139,"lon":12.80564},"country":"IT","name":"Salemi"},{"_id":6535904,"coord":{"lat":46.612419,"lon":11.15587},"country":"IT","name":"Lana - Lana"},{"_id":3175177,"coord":{"lat":46.612419,"lon":11.15587},"country":"IT","name":"Lana"},{"_id":6540386,"coord":{"lat":45.708801,"lon":11.47959},"country":"IT","name":"Thiene"},{"_id":2522718,"coord":{"lat":37.870541,"lon":12.82504},"country":"IT","name":"Vita"},{"_id":6538323,"coord":{"lat":45.569,"lon":12.10991},"country":"IT","name":"Scorzè"},{"_id":3182918,"coord":{"lat":44.616669,"lon":10.71667},"country":"IT","name":"Arceto"},{"_id":6541168,"coord":{"lat":40.74971,"lon":14.46464},"country":"IT","name":"Torre Annunziata"},{"_id":3172086,"coord":{"lat":40.922401,"lon":9.50528},"country":"IT","name":"Olbia Marittima"},{"_id":6536871,"coord":{"lat":42.980438,"lon":12.41506},"country":"IT","name":"Deruta"},{"_id":3165612,"coord":{"lat":42.779942,"lon":12.40456},"country":"IT","name":"Todi"},{"_id":3178131,"coord":{"lat":41.145531,"lon":16.41387},"country":"IT","name":"Corato"},{"_id":6536698,"coord":{"lat":45.956921,"lon":13.46534},"country":"IT","name":"Cormons"},{"_id":6540134,"coord":{"lat":44.644039,"lon":7.65593},"country":"IT","name":"Savigliano"},{"_id":3180563,"coord":{"lat":45.680561,"lon":12.28833},"country":"IT","name":"Carbonera"},{"_id":6541812,"coord":{"lat":45.55579,"lon":10.91518},"country":"IT","name":"Marano di Valpolicella"},{"_id":6536506,"coord":{"lat":45.53957,"lon":9.17094},"country":"IT","name":"Cormano"},{"_id":3165119,"coord":{"lat":41.26667,"lon":13.76667},"country":"IT","name":"Tufo"},{"_id":3180916,"coord":{"lat":44.786968,"lon":11.1429},"country":"IT","name":"Camposanto"},{"_id":3172379,"coord":{"lat":40.175121,"lon":18.02972},"country":"IT","name":"Nardo"},{"_id":6541923,"coord":{"lat":42.577839,"lon":13.9848},"country":"IT","name":"Atri"},{"_id":6536651,"coord":{"lat":45.856209,"lon":12.25351},"country":"IT","name":"Susegana"},{"_id":3182633,"coord":{"lat":40.73291,"lon":15.72004},"country":"IT","name":"Avigliano"},{"_id":6536661,"coord":{"lat":45.507999,"lon":12.03531},"country":"IT","name":"Santa Maria di Sala"},{"_id":6536948,"coord":{"lat":42.08252,"lon":12.40027},"country":"IT","name":"Formello"},{"_id":3176739,"coord":{"lat":42.080132,"lon":12.39979},"country":"IT","name":"Formello"},{"_id":3172240,"coord":{"lat":40.79073,"lon":17.131701},"country":"IT","name":"Noci"},{"_id":3166426,"coord":{"lat":44.737968,"lon":10.9263},"country":"IT","name":"Soliera"},{"_id":3163836,"coord":{"lat":44.349998,"lon":11.33333},"country":"IT","name":"Zula"},{"_id":6538018,"coord":{"lat":43.813648,"lon":11.05072},"country":"IT","name":"Poggio a Caiano"},{"_id":3170487,"coord":{"lat":43.813648,"lon":11.05072},"country":"IT","name":"Poggio a Caiano"},{"_id":3178263,"coord":{"lat":44.92627,"lon":10.37678},"country":"IT","name":"Colorno"},{"_id":6536328,"coord":{"lat":45.82832,"lon":13.50424},"country":"IT","name":"Ronchi dei Legionari"},{"_id":6537163,"coord":{"lat":45.95779,"lon":10.30476},"country":"IT","name":"Breno"},{"_id":6537088,"coord":{"lat":45.682968,"lon":8.70873},"country":"IT","name":"Somma Lombardo"},{"_id":3167062,"coord":{"lat":44.39946,"lon":11.24951},"country":"IT","name":"Sasso Marconi"},{"_id":6537231,"coord":{"lat":45.29858,"lon":10.47538},"country":"IT","name":"Castel Goffredo"},{"_id":3179675,"coord":{"lat":45.29858,"lon":10.47538},"country":"IT","name":"Castel Goffredo"},{"_id":3181094,"coord":{"lat":43.139851,"lon":13.06917},"country":"IT","name":"Camerino"},{"_id":6539656,"coord":{"lat":40.2817,"lon":14.95645},"country":"IT","name":"Castellabate"},{"_id":3167551,"coord":{"lat":40.283329,"lon":14.95},"country":"IT","name":"Santa Maria di Castellabate"},{"_id":6541644,"coord":{"lat":43.995041,"lon":10.2287},"country":"IT","name":"Seravezza"},{"_id":3166168,"coord":{"lat":44.883331,"lon":11.41667},"country":"IT","name":"Stellata"},{"_id":6539726,"coord":{"lat":43.43536,"lon":13.60978},"country":"IT","name":"Loreto"},{"_id":3174567,"coord":{"lat":43.43536,"lon":13.60978},"country":"IT","name":"Loreto"},{"_id":2523113,"coord":{"lat":38.277882,"lon":16.302},"country":"IT","name":"Siderno"},{"_id":6537787,"coord":{"lat":37.19104,"lon":14.18367},"country":"IT","name":"Butera"},{"_id":6539861,"coord":{"lat":38.453678,"lon":16.55201},"country":"IT","name":"Monasterace"},{"_id":2523998,"coord":{"lat":36.890141,"lon":15.06929},"country":"IT","name":"Noto"},{"_id":6537585,"coord":{"lat":40.196918,"lon":18.338329},"country":"IT","name":"Carpignano Salentino"},{"_id":3166662,"coord":{"lat":40.183331,"lon":18.35},"country":"IT","name":"Serrano"},{"_id":6539927,"coord":{"lat":45.22868,"lon":11.4635},"country":"IT","name":"Montagnana"},{"_id":3176328,"coord":{"lat":45.900002,"lon":8.81667},"country":"IT","name":"Ganna"},{"_id":6539612,"coord":{"lat":44.272148,"lon":9.60888},"country":"IT","name":"Carro"},{"_id":3182057,"coord":{"lat":45.63583,"lon":13.05389},"country":"IT","name":"Bibione"},{"_id":6538424,"coord":{"lat":44.612659,"lon":10.26559},"country":"IT","name":"Langhirano"},{"_id":6543726,"coord":{"lat":45.832279,"lon":8.98364},"country":"IT","name":"Ronago"},{"_id":6537804,"coord":{"lat":37.661751,"lon":14.83478},"country":"IT","name":"Adrano"},{"_id":2525616,"coord":{"lat":38.288471,"lon":15.8078},"country":"IT","name":"Bagnara Calabra"},{"_id":6536808,"coord":{"lat":44.23835,"lon":10.12599},"country":"IT","name":"Fivizzano"},{"_id":3182479,"coord":{"lat":45.5,"lon":7.83333},"country":"IT","name":"Baio Dora"},{"_id":3170589,"coord":{"lat":44.349998,"lon":9.61667},"country":"IT","name":"Pizzolo"},{"_id":6536523,"coord":{"lat":45.423069,"lon":9.06644},"country":"IT","name":"Trezzano sul Naviglio"},{"_id":6541877,"coord":{"lat":42.934849,"lon":13.88569},"country":"IT","name":"San Benedetto del Tronto"},{"_id":3168550,"coord":{"lat":42.945621,"lon":13.88157},"country":"IT","name":"San Benedetto del Tronto"},{"_id":3178709,"coord":{"lat":45.308361,"lon":8.02102},"country":"IT","name":"Cigliano"},{"_id":6536662,"coord":{"lat":45.729912,"lon":12.68232},"country":"IT","name":"Santo Stino di Livenza"},{"_id":6536846,"coord":{"lat":43.56345,"lon":11.53183},"country":"IT","name":"San Giovanni Valdarno"},{"_id":6539110,"coord":{"lat":38.018848,"lon":12.88584},"country":"IT","name":"Castellammare del Golfo"},{"_id":6539156,"coord":{"lat":38.015961,"lon":15.13188},"country":"IT","name":"Novara di Sicilia"},{"_id":3168521,"coord":{"lat":45.683609,"lon":12.37722},"country":"IT","name":"San Biagio di Callalta"},{"_id":6536329,"coord":{"lat":45.906422,"lon":13.57474},"country":"IT","name":"Savogna d'Isonzo"},{"_id":3169980,"coord":{"lat":44.427528,"lon":8.79001},"country":"IT","name":"Pra"},{"_id":3170752,"coord":{"lat":44.712269,"lon":11.30761},"country":"IT","name":"Pieve di Cento"},{"_id":6541870,"coord":{"lat":40.914421,"lon":14.78874},"country":"IT","name":"Avellino"},{"_id":3164658,"coord":{"lat":43.950001,"lon":12.55},"country":"IT","name":"Vecciano"},{"_id":6540163,"coord":{"lat":44.352539,"lon":9.30167},"country":"IT","name":"Leivi"},{"_id":3172730,"coord":{"lat":42.503941,"lon":14.138},"country":"IT","name":"Montesilvano"},{"_id":3170712,"coord":{"lat":42.763401,"lon":10.23479},"country":"IT","name":"Pila"},{"_id":3214817,"coord":{"lat":44.183891,"lon":12.07861},"country":"IT","name":"Carpena"},{"_id":3167990,"coord":{"lat":45.217049,"lon":7.63052},"country":"IT","name":"San Maurizio Canavese"},{"_id":6539214,"coord":{"lat":36.824242,"lon":14.94779},"country":"IT","name":"Rosolini"},{"_id":2523581,"coord":{"lat":36.824242,"lon":14.94779},"country":"IT","name":"Rosolini"},{"_id":6539052,"coord":{"lat":39.331989,"lon":16.184389},"country":"IT","name":"Rende"},{"_id":2523623,"coord":{"lat":39.331989,"lon":16.184389},"country":"IT","name":"Rende"},{"_id":6541341,"coord":{"lat":37.293442,"lon":13.52636},"country":"IT","name":"Porto Empedocle"},{"_id":2523871,"coord":{"lat":38.043949,"lon":13.12004},"country":"IT","name":"Partinico"},{"_id":6541756,"coord":{"lat":38.365269,"lon":15.8615},"country":"IT","name":"Palmi"},{"_id":6539213,"coord":{"lat":36.718639,"lon":15.0907},"country":"IT","name":"Pachino"},{"_id":6540123,"coord":{"lat":39.902451,"lon":8.59482},"country":"IT","name":"Oristano"},{"_id":2524013,"coord":{"lat":38.98333,"lon":16.316669},"country":"IT","name":"Nicastro"},{"_id":6542070,"coord":{"lat":37.592152,"lon":15.02989},"country":"IT","name":"Mascalucia"},{"_id":6541736,"coord":{"lat":40.015018,"lon":18.163031},"country":"IT","name":"Casarano"},{"_id":2525643,"coord":{"lat":36.911339,"lon":15.1395},"country":"IT","name":"Avola"},{"_id":3164672,"coord":{"lat":42.12434,"lon":14.70592},"country":"IT","name":"Vasto"},{"_id":6536160,"coord":{"lat":45.523781,"lon":9.58946},"country":"IT","name":"Treviglio"},{"_id":3165322,"coord":{"lat":41.272732,"lon":16.415371},"country":"IT","name":"Trani"},{"_id":6541907,"coord":{"lat":40.785221,"lon":14.37235},"country":"IT","name":"Torre del Greco"},{"_id":3165788,"coord":{"lat":41.13113,"lon":16.54528},"country":"IT","name":"Terlizzi"},{"_id":3166006,"coord":{"lat":44.991871,"lon":10.74309},"country":"IT","name":"Suzzara"},{"_id":3166034,"coord":{"lat":42.047932,"lon":13.92911},"country":"IT","name":"Sulmona"},{"_id":6537598,"coord":{"lat":40.436531,"lon":18.041821},"country":"IT","name":"Squinzano"},{"_id":3166224,"coord":{"lat":40.436531,"lon":18.041821},"country":"IT","name":"Squinzano"},{"_id":6538868,"coord":{"lat":42.453442,"lon":14.14101},"country":"IT","name":"Spoltore"},{"_id":3166235,"coord":{"lat":42.453442,"lon":14.14101},"country":"IT","name":"Spoltore"},{"_id":6539617,"coord":{"lat":46.168999,"lon":9.86915},"country":"IT","name":"Sondrio"},{"_id":3168775,"coord":{"lat":41.011131,"lon":17.005489},"country":"IT","name":"Rutigliano"},{"_id":3170937,"coord":{"lat":44.39296,"lon":11.34231},"country":"IT","name":"Pianoro"},{"_id":3171786,"coord":{"lat":40.727631,"lon":17.57641},"country":"IT","name":"Ostuni"},{"_id":3172243,"coord":{"lat":40.742111,"lon":14.67294},"country":"IT","name":"Nocera Superiore"},{"_id":3172377,"coord":{"lat":42.517132,"lon":12.52307},"country":"IT","name":"Narni"},{"_id":3173302,"coord":{"lat":41.06094,"lon":17.08729},"country":"IT","name":"Mola di Bari"},{"_id":3173391,"coord":{"lat":41.25761,"lon":13.72371},"country":"IT","name":"Minturno"},{"_id":3173537,"coord":{"lat":40.55883,"lon":17.80831},"country":"IT","name":"Mesagne"},{"_id":6537396,"coord":{"lat":40.781212,"lon":14.75694},"country":"IT","name":"Mercato San Severino"},{"_id":3173560,"coord":{"lat":40.781212,"lon":14.75694},"country":"IT","name":"Mercato San Severino"},{"_id":3175722,"coord":{"lat":43.231651,"lon":12.78096},"country":"IT","name":"Gualdo Tadino"},{"_id":3176438,"coord":{"lat":41.214081,"lon":13.57082},"country":"IT","name":"Gaeta"},{"_id":3176843,"coord":{"lat":41.354111,"lon":13.43131},"country":"IT","name":"Fondi"},{"_id":3176849,"coord":{"lat":42.926331,"lon":10.76162},"country":"IT","name":"Follonica"},{"_id":6536267,"coord":{"lat":44.535961,"lon":10.8218},"country":"IT","name":"Fiorano Modenese"},{"_id":3178147,"coord":{"lat":40.966228,"lon":17.11479},"country":"IT","name":"Conversano"},{"_id":3178631,"coord":{"lat":41.590801,"lon":12.82808},"country":"IT","name":"Cisterna di Latina"},{"_id":3179443,"coord":{"lat":41.033531,"lon":13.94217},"country":"IT","name":"Castel Volturno"},{"_id":3180792,"coord":{"lat":41.219631,"lon":16.067471},"country":"IT","name":"Canosa di Puglia"},{"_id":3182765,"coord":{"lat":40.91441,"lon":14.26713},"country":"IT","name":"Arzano"},{"_id":3183178,"coord":{"lat":40.829231,"lon":16.55368},"country":"IT","name":"Altamura"},{"_id":3174478,"coord":{"lat":45.650002,"lon":10.25},"country":"IT","name":"Lumezzane"},{"_id":6534216,"coord":{"lat":45.647881,"lon":10.26487},"country":"IT","name":"Lumezzane"},{"_id":6534228,"coord":{"lat":41.993622,"lon":12.72238},"country":"IT","name":"Guidonia Montecelio"},{"_id":6534252,"coord":{"lat":41.00581,"lon":14.45583},"country":"IT","name":"San Felice a Cancello"},{"_id":6534257,"coord":{"lat":37.581249,"lon":15.07089},"country":"IT","name":"Tremestieri Etneo"},{"_id":6534268,"coord":{"lat":40.87841,"lon":14.34293},"country":"IT","name":"Volla"},{"_id":6542351,"coord":{"lat":45.44207,"lon":9.09445},"country":"IT","name":"Cesano Boscone"},{"_id":2523918,"coord":{"lat":37.816669,"lon":13.58333},"country":"IT","name":"Provincia di Palermo"},{"_id":2524169,"coord":{"lat":38.049999,"lon":14.86667},"country":"IT","name":"Provincia di Messina"},{"_id":6543306,"coord":{"lat":38.16267,"lon":15.31699},"country":"IT","name":"Gualtieri Sicaminò"},{"_id":2525152,"coord":{"lat":38.133331,"lon":15.35},"country":"IT","name":"Case Levito"},{"_id":6457405,"coord":{"lat":38.699581,"lon":16.127411},"country":"IT","name":"Provincia di Vibo-Valentia"},{"_id":6540085,"coord":{"lat":38.562778,"lon":16.2099},"country":"IT","name":"Arena"},{"_id":2525135,"coord":{"lat":38.533329,"lon":16.26667},"country":"IT","name":"Caserma di Latro"},{"_id":6537671,"coord":{"lat":39.446098,"lon":16.28829},"country":"IT","name":"Luzzi"},{"_id":3170025,"coord":{"lat":40.583328,"lon":15.73333},"country":"IT","name":"Provincia di Potenza"},{"_id":6539000,"coord":{"lat":40.089809,"lon":16.01178},"country":"IT","name":"Latronico"},{"_id":3173718,"coord":{"lat":40.5,"lon":16.41667},"country":"IT","name":"Provincia di Matera"},{"_id":6539028,"coord":{"lat":40.245209,"lon":16.46969},"country":"IT","name":"Tursi"},{"_id":3165084,"coord":{"lat":40.245209,"lon":16.46969},"country":"IT","name":"Tursi"},{"_id":6541470,"coord":{"lat":40.644321,"lon":15.80857},"country":"IT","name":"Potenza"},{"_id":6541857,"coord":{"lat":41.46093,"lon":15.54925},"country":"IT","name":"Foggia"},{"_id":3169071,"coord":{"lat":41.900002,"lon":12.41667},"country":"IT","name":"Comune di Roma"},{"_id":6542723,"coord":{"lat":43.74535,"lon":10.98342},"country":"IT","name":"Capraia e Limite"},{"_id":3172968,"coord":{"lat":43.849998,"lon":12.36667},"country":"IT","name":"Monte Copiolo"},{"_id":6458618,"coord":{"lat":43.87698,"lon":11.12503},"country":"IT","name":"Provincia di Prato"},{"_id":6541787,"coord":{"lat":43.948952,"lon":11.12322},"country":"IT","name":"Vaiano"},{"_id":3215202,"coord":{"lat":44.05167,"lon":12.54778},"country":"IT","name":"Ciocefisso"},{"_id":6536083,"coord":{"lat":44.13303,"lon":8.25125},"country":"IT","name":"Loano"},{"_id":3181601,"coord":{"lat":44.369759,"lon":8.5314},"country":"IT","name":"Brasi"},{"_id":6537265,"coord":{"lat":44.847038,"lon":7.71803},"country":"IT","name":"Carmagnola"},{"_id":3175140,"coord":{"lat":44.883331,"lon":11.66667},"country":"IT","name":"La Pavonara"},{"_id":6542025,"coord":{"lat":45.046761,"lon":9.69937},"country":"IT","name":"Piacenza"},{"_id":3179063,"coord":{"lat":45.099998,"lon":7.65},"country":"IT","name":"Ceronda"},{"_id":3174618,"coord":{"lat":45.666672,"lon":9.5},"country":"IT","name":"Regione Lombardia"},{"_id":6541534,"coord":{"lat":45.147179,"lon":11.03169},"country":"IT","name":"Villimpenta"},{"_id":3180051,"coord":{"lat":45.238892,"lon":12.20556},"country":"IT","name":"Casa Rossa"},{"_id":3170412,"coord":{"lat":45.466671,"lon":11},"country":"IT","name":"Poiano"},{"_id":3164418,"coord":{"lat":45.666672,"lon":11.45},"country":"IT","name":"Provincia di Vicenza"},{"_id":6542289,"coord":{"lat":45.53199,"lon":11.4785},"country":"IT","name":"Creazzo"},{"_id":3165184,"coord":{"lat":45.664261,"lon":13.80655},"country":"IT","name":"Provincia di Trieste"},{"_id":3179263,"coord":{"lat":45.933331,"lon":12.5},"country":"IT","name":"Cavolano"},{"_id":3177813,"coord":{"lat":46.099998,"lon":8.53333},"country":"IT","name":"Crèves"},{"_id":3219868,"coord":{"lat":46.273609,"lon":13.35111},"country":"IT","name":"Cornappo"},{"_id":3166396,"coord":{"lat":46.166672,"lon":10.05},"country":"IT","name":"Provincia di Sondrio"},{"_id":6534732,"coord":{"lat":46.48901,"lon":10.29405},"country":"IT","name":"Valdidentro"},{"_id":6541623,"coord":{"lat":44.051128,"lon":8.14675},"country":"IT","name":"Villanova d'Albenga"},{"_id":6542002,"coord":{"lat":44.70866,"lon":10.61949},"country":"IT","name":"Reggio nell'Emilia"},{"_id":6539034,"coord":{"lat":39.25629,"lon":16.220091},"country":"IT","name":"Carolei"},{"_id":6543663,"coord":{"lat":45.427261,"lon":8.04942},"country":"IT","name":"Viverone"},{"_id":7670575,"coord":{"lat":41.934029,"lon":12.51424},"country":"IT","name":"Via di Villa Chigi"},{"_id":6542189,"coord":{"lat":46.380718,"lon":11.97439},"country":"IT","name":"San Tomaso Agordino"},{"_id":6543575,"coord":{"lat":45.541,"lon":11.89401},"country":"IT","name":"San Giorgio delle Pertiche"},{"_id":6542693,"coord":{"lat":46.361111,"lon":10.92587},"country":"IT","name":"Terzolas"},{"_id":6534646,"coord":{"lat":46.361111,"lon":10.92587},"country":"IT","name":"Terzolas"},{"_id":2525041,"coord":{"lat":38.038559,"lon":14.02285},"country":"IT","name":"Cefalu"},{"_id":6539814,"coord":{"lat":40.624908,"lon":14.37484},"country":"IT","name":"Sorrento"},{"_id":3175085,"coord":{"lat":43.799999,"lon":11.03333},"country":"IT","name":"La Serra"},{"_id":6537581,"coord":{"lat":39.94862,"lon":18.088831},"country":"IT","name":"Alliste"},{"_id":6540278,"coord":{"lat":41.808922,"lon":12.73778},"country":"IT","name":"Monte Compatri"},{"_id":3171802,"coord":{"lat":41.883331,"lon":12.7},"country":"IT","name":"Osteria dell’ Osa"},{"_id":6543083,"coord":{"lat":45.767872,"lon":8.74133},"country":"IT","name":"Casale Litta"},{"_id":6540519,"coord":{"lat":41.992619,"lon":12.09237},"country":"IT","name":"Cerveteri"},{"_id":6693938,"coord":{"lat":41.979969,"lon":12.05295},"country":"IT","name":"Marina di Cerveteri"},{"_id":6538972,"coord":{"lat":40.11842,"lon":18.298929},"country":"IT","name":"Maglie"},{"_id":6542290,"coord":{"lat":45.370491,"lon":11.92111},"country":"IT","name":"Ponte San Nicolò"},{"_id":7603207,"coord":{"lat":44.407928,"lon":8.96145},"country":"IT","name":"San Fruttuoso"},{"_id":6545151,"coord":{"lat":41.896351,"lon":12.48463},"country":"IT","name":"Pigna"},{"_id":6541413,"coord":{"lat":45.775181,"lon":9.05784},"country":"IT","name":"Grandate"},{"_id":6537063,"coord":{"lat":44.351139,"lon":9.22967},"country":"IT","name":"Rapallo"},{"_id":6541864,"coord":{"lat":44.397331,"lon":7.54453},"country":"IT","name":"Cuneo"},{"_id":6536997,"coord":{"lat":41.715721,"lon":13.6141},"country":"IT","name":"Sora"},{"_id":6541003,"coord":{"lat":45.222889,"lon":11.65871},"country":"IT","name":"Este"},{"_id":3173411,"coord":{"lat":45.033329,"lon":7.66667},"country":"IT","name":"Millefonti"},{"_id":6536098,"coord":{"lat":44.517448,"lon":9.04816},"country":"IT","name":"Montoggio"},{"_id":2523649,"coord":{"lat":36.916672,"lon":14.6},"country":"IT","name":"Provincia di Ragusa"},{"_id":3182712,"coord":{"lat":44.916672,"lon":8.16667},"country":"IT","name":"Provincia di Asti"},{"_id":3164038,"coord":{"lat":42.416672,"lon":12.08333},"country":"IT","name":"Provincia di Viterbo"},{"_id":6538374,"coord":{"lat":46.097919,"lon":13.13682},"country":"IT","name":"Martignacco"},{"_id":6620307,"coord":{"lat":43.1464,"lon":12.35413},"country":"IT","name":"Cenerente"},{"_id":6537651,"coord":{"lat":40.390621,"lon":16.556789},"country":"IT","name":"Pisticci"},{"_id":6540122,"coord":{"lat":43.542641,"lon":10.316},"country":"IT","name":"Livorno"},{"_id":6537135,"coord":{"lat":45.602982,"lon":9.51995},"country":"IT","name":"Trezzo sull'Adda"},{"_id":6542003,"coord":{"lat":43.903568,"lon":12.89026},"country":"IT","name":"Pesaro"},{"_id":6540434,"coord":{"lat":44.29147,"lon":11.87523},"country":"IT","name":"Faenza"},{"_id":6538442,"coord":{"lat":44.701359,"lon":10.44709},"country":"IT","name":"Montecchio Emilia"},{"_id":6540112,"coord":{"lat":45.961712,"lon":12.65532},"country":"IT","name":"Pordenone"},{"_id":6540435,"coord":{"lat":44.427071,"lon":11.90763},"country":"IT","name":"Lugo"},{"_id":6540995,"coord":{"lat":45.557201,"lon":12.24781},"country":"IT","name":"Mogliano Veneto"},{"_id":6538312,"coord":{"lat":45.972809,"lon":12.30001},"country":"IT","name":"Vittorio Veneto"},{"_id":6542124,"coord":{"lat":40.357029,"lon":18.17202},"country":"IT","name":"Lecce"},{"_id":3168154,"coord":{"lat":40.366669,"lon":18.200001},"country":"IT","name":"San Ligorio"},{"_id":6541810,"coord":{"lat":45.885761,"lon":10.84118},"country":"IT","name":"Riva del Garda"},{"_id":3169272,"coord":{"lat":45.885769,"lon":10.84117},"country":"IT","name":"Riva del Garda"},{"_id":3182397,"coord":{"lat":43.713799,"lon":10.37676},"country":"IT","name":"Barbaricina"},{"_id":6536853,"coord":{"lat":43.472439,"lon":11.14562},"country":"IT","name":"Poggibonsi"},{"_id":6538297,"coord":{"lat":45.887112,"lon":12.30391},"country":"IT","name":"Conegliano"},{"_id":6538953,"coord":{"lat":40.401821,"lon":17.633511},"country":"IT","name":"Manduria"},{"_id":2525058,"coord":{"lat":38.916672,"lon":16.433331},"country":"IT","name":"Provincia di Catanzaro"},{"_id":6540124,"coord":{"lat":43.884251,"lon":11.09092},"country":"IT","name":"Prato"},{"_id":3182636,"coord":{"lat":42.04023,"lon":13.4388},"country":"IT","name":"Avezzano"},{"_id":3175001,"coord":{"lat":43.933331,"lon":10.9},"country":"IT","name":"La Vergine"},{"_id":6541255,"coord":{"lat":41.110828,"lon":16.689381},"country":"IT","name":"Bitonto"},{"_id":6540392,"coord":{"lat":45.59391,"lon":12.86973},"country":"IT","name":"Caorle"},{"_id":2524819,"coord":{"lat":37.558849,"lon":14.28917},"country":"IT","name":"Enna"},{"_id":6539198,"coord":{"lat":37.75576,"lon":15.19589},"country":"IT","name":"Mascali"},{"_id":6540680,"coord":{"lat":40.90921,"lon":14.34573},"country":"IT","name":"Casalnuovo di Napoli"},{"_id":6535987,"coord":{"lat":46.45472,"lon":11.26178},"country":"IT","name":"Appiano sulla strada del vino - Eppan an der Weinstrasse"},{"_id":6540050,"coord":{"lat":38.080051,"lon":13.28854},"country":"IT","name":"Monreale"},{"_id":6541050,"coord":{"lat":43.820358,"lon":13.01206},"country":"IT","name":"Fano"},{"_id":3178617,"coord":{"lat":42.387131,"lon":12.95698},"country":"IT","name":"Cittaducale"},{"_id":2525524,"coord":{"lat":39.51667,"lon":15.93333},"country":"IT","name":"Borgo"},{"_id":6540635,"coord":{"lat":44.989262,"lon":9.00155},"country":"IT","name":"Voghera"},{"_id":6538768,"coord":{"lat":40.818909,"lon":14.34043},"country":"IT","name":"Portici"},{"_id":6540214,"coord":{"lat":45.503689,"lon":11.412},"country":"IT","name":"Montecchio Maggiore"},{"_id":6537131,"coord":{"lat":45.418072,"lon":9.27165},"country":"IT","name":"San Donato Milanese"},{"_id":6541856,"coord":{"lat":42.66494,"lon":13.71789},"country":"IT","name":"Teramo"},{"_id":6539114,"coord":{"lat":36.827919,"lon":11.94243},"country":"IT","name":"Pantelleria"},{"_id":6537731,"coord":{"lat":37.823139,"lon":12.80564},"country":"IT","name":"Salemi"},{"_id":6540449,"coord":{"lat":43.340649,"lon":12.90726},"country":"IT","name":"Fabriano"},{"_id":6536440,"coord":{"lat":44.760849,"lon":8.78955},"country":"IT","name":"Novi Ligure"},{"_id":6539706,"coord":{"lat":44.769772,"lon":10.7823},"country":"IT","name":"Correggio"},{"_id":6539115,"coord":{"lat":37.870541,"lon":12.82504},"country":"IT","name":"Vita"},{"_id":3164051,"coord":{"lat":44.088879,"lon":12.5366},"country":"IT","name":"Viserba"},{"_id":6536883,"coord":{"lat":42.779942,"lon":12.40456},"country":"IT","name":"Todi"},{"_id":6539938,"coord":{"lat":45.807919,"lon":13.52514},"country":"IT","name":"Monfalcone"},{"_id":6537548,"coord":{"lat":41.145531,"lon":16.41387},"country":"IT","name":"Corato"},{"_id":6538293,"coord":{"lat":45.683601,"lon":12.28441},"country":"IT","name":"Carbonera"},{"_id":7290085,"coord":{"lat":45.534672,"lon":10.91191},"country":"IT","name":"Valgatara"},{"_id":6541892,"coord":{"lat":41.25761,"lon":13.72371},"country":"IT","name":"Minturno"},{"_id":6537085,"coord":{"lat":45.62537,"lon":8.78344},"country":"IT","name":"Samarate"},{"_id":6539839,"coord":{"lat":40.175121,"lon":18.02972},"country":"IT","name":"Nardò"},{"_id":6539841,"coord":{"lat":40.729721,"lon":15.72026},"country":"IT","name":"Avigliano"},{"_id":6541177,"coord":{"lat":40.74271,"lon":14.57144},"country":"IT","name":"Angri"},{"_id":6541938,"coord":{"lat":40.79073,"lon":17.131701},"country":"IT","name":"Noci"},{"_id":6536735,"coord":{"lat":44.737968,"lon":10.9263},"country":"IT","name":"Soliera"},{"_id":6537566,"coord":{"lat":40.633221,"lon":17.037201},"country":"IT","name":"Mottola"},{"_id":6538421,"coord":{"lat":44.92627,"lon":10.37678},"country":"IT","name":"Colorno"},{"_id":6539194,"coord":{"lat":37.789459,"lon":14.83418},"country":"IT","name":"Bronte"},{"_id":6540055,"coord":{"lat":38.221169,"lon":15.23828},"country":"IT","name":"Milazzo"},{"_id":6538477,"coord":{"lat":44.39946,"lon":11.24951},"country":"IT","name":"Sasso Marconi"},{"_id":6536785,"coord":{"lat":43.139851,"lon":13.06917},"country":"IT","name":"Camerino"},{"_id":6540979,"coord":{"lat":45.396889,"lon":11.2844},"country":"IT","name":"San Bonifacio"},{"_id":3182133,"coord":{"lat":44.146938,"lon":12.13889},"country":"IT","name":"Bertinoro"},{"_id":6537155,"coord":{"lat":45.524578,"lon":9.74836},"country":"IT","name":"Romano di Lombardia"},{"_id":6539945,"coord":{"lat":44.886181,"lon":11.41081},"country":"IT","name":"Bondeno"},{"_id":6540769,"coord":{"lat":39.93042,"lon":18.35533},"country":"IT","name":"Tricase"},{"_id":3182657,"coord":{"lat":43.950001,"lon":10.78333},"country":"IT","name":"Avaglio"},{"_id":6540064,"coord":{"lat":36.890141,"lon":15.06929},"country":"IT","name":"Noto"},{"_id":6537535,"coord":{"lat":41.844238,"lon":15.85615},"country":"IT","name":"Carpino"},{"_id":3180428,"coord":{"lat":41.844238,"lon":15.85615},"country":"IT","name":"Carpino"},{"_id":6536130,"coord":{"lat":45.902279,"lon":8.82333},"country":"IT","name":"Valganna"},{"_id":6536401,"coord":{"lat":40.886429,"lon":17.165501},"country":"IT","name":"Castellana Grotte"},{"_id":6539094,"coord":{"lat":38.288471,"lon":15.8078},"country":"IT","name":"Bagnara Calabra"},{"_id":6541791,"coord":{"lat":45.512859,"lon":7.85802},"country":"IT","name":"Borgofranco d'Ivrea"},{"_id":6541556,"coord":{"lat":44.37635,"lon":9.59418},"country":"IT","name":"Varese Ligure"},{"_id":6536607,"coord":{"lat":45.352379,"lon":10.84019},"country":"IT","name":"Villafranca di Verona"},{"_id":6538767,"coord":{"lat":40.907909,"lon":14.38623},"country":"IT","name":"Pomigliano d'Arco"},{"_id":6540102,"coord":{"lat":45.308361,"lon":8.02102},"country":"IT","name":"Cigliano"},{"_id":3173758,"coord":{"lat":43.04903,"lon":10.89283},"country":"IT","name":"Massa Marittima"},{"_id":6540472,"coord":{"lat":43.65905,"lon":11.18952},"country":"IT","name":"San Casciano in Val di Pesa"},{"_id":6536647,"coord":{"lat":45.685799,"lon":12.38052},"country":"IT","name":"San Biagio di Callalta"},{"_id":6538473,"coord":{"lat":44.712269,"lon":11.30761},"country":"IT","name":"Pieve di Cento"},{"_id":3174704,"coord":{"lat":45.44701,"lon":9.27229},"country":"IT","name":"Linate"},{"_id":6540115,"coord":{"lat":38.674278,"lon":16.0951},"country":"IT","name":"Vibo Valentia"},{"_id":6537727,"coord":{"lat":38.35627,"lon":16.0109},"country":"IT","name":"Taurianova"},{"_id":6542286,"coord":{"lat":37.085152,"lon":15.273},"country":"IT","name":"Siracusa"},{"_id":2523112,"coord":{"lat":38.283329,"lon":16.26667},"country":"IT","name":"Siderno Superiore"},{"_id":6539304,"coord":{"lat":39.294338,"lon":9.09304},"country":"IT","name":"Sestu"},{"_id":6537912,"coord":{"lat":39.256641,"lon":9.16755},"country":"IT","name":"Selargius"},{"_id":6537811,"coord":{"lat":37.29805,"lon":14.84078},"country":"IT","name":"Scordia"},{"_id":6542103,"coord":{"lat":37.50824,"lon":13.08805},"country":"IT","name":"Sciacca"},{"_id":6541970,"coord":{"lat":37.57605,"lon":15.09809},"country":"IT","name":"San Giovanni la Punta"},{"_id":6540794,"coord":{"lat":39.263302,"lon":16.6996},"country":"IT","name":"San Giovanni in Fiore"},{"_id":6539851,"coord":{"lat":39.5751,"lon":16.634899},"country":"IT","name":"Rossano"},{"_id":6541973,"coord":{"lat":36.730541,"lon":14.84989},"country":"IT","name":"Pozzallo"},{"_id":6537749,"coord":{"lat":38.043949,"lon":13.12004},"country":"IT","name":"Partinico"},{"_id":6541296,"coord":{"lat":39.35989,"lon":16.039591},"country":"IT","name":"Paola"},{"_id":6540843,"coord":{"lat":37.192638,"lon":13.76496},"country":"IT","name":"Palma di Montechiaro"},{"_id":6541351,"coord":{"lat":37.328251,"lon":14.74478},"country":"IT","name":"Palagonia"},{"_id":6539180,"coord":{"lat":37.14864,"lon":14.39128},"country":"IT","name":"Niscemi"},{"_id":6539133,"coord":{"lat":38.033852,"lon":13.45175},"country":"IT","name":"Misilmeri"},{"_id":6539584,"coord":{"lat":39.305328,"lon":8.53993},"country":"IT","name":"Iglesias"},{"_id":6541964,"coord":{"lat":37.080341,"lon":14.23068},"country":"IT","name":"Gela"},{"_id":6539209,"coord":{"lat":37.086948,"lon":15.15189},"country":"IT","name":"Floridia"},{"_id":6541339,"coord":{"lat":37.317539,"lon":13.66226},"country":"IT","name":"Favara"},{"_id":6541858,"coord":{"lat":38.890789,"lon":16.5987},"country":"IT","name":"Catanzaro"},{"_id":6540785,"coord":{"lat":39.820301,"lon":16.21229},"country":"IT","name":"Castrovillari"},{"_id":6542233,"coord":{"lat":39.783001,"lon":16.31819},"country":"IT","name":"Cassano allo Ionio"},{"_id":2525110,"coord":{"lat":39.783001,"lon":16.31819},"country":"IT","name":"Cassano al Ionio"},{"_id":6539208,"coord":{"lat":37.26955,"lon":15.01259},"country":"IT","name":"Carlentini"},{"_id":6537892,"coord":{"lat":39.176338,"lon":8.97184},"country":"IT","name":"Capoterra"},{"_id":6539170,"coord":{"lat":37.35894,"lon":13.85036},"country":"IT","name":"Canicattì"},{"_id":6541347,"coord":{"lat":37.645149,"lon":14.86708},"country":"IT","name":"Biancavilla"},{"_id":6541966,"coord":{"lat":37.59465,"lon":14.98338},"country":"IT","name":"Belpasso"},{"_id":6537735,"coord":{"lat":38.07935,"lon":13.50935},"country":"IT","name":"Bagheria"},{"_id":6540854,"coord":{"lat":36.911339,"lon":15.1395},"country":"IT","name":"Avola"},{"_id":6541772,"coord":{"lat":37.236549,"lon":15.21969},"country":"IT","name":"Augusta"},{"_id":6537888,"coord":{"lat":39.291538,"lon":9.00154},"country":"IT","name":"Assemini"},{"_id":6541317,"coord":{"lat":38.390179,"lon":16.085501},"country":"IT","name":"San Giorgio Morgeto"},{"_id":2525725,"coord":{"lat":38.383331,"lon":16.133329},"country":"IT","name":"Amato"},{"_id":6541860,"coord":{"lat":37.320839,"lon":13.58876},"country":"IT","name":"Agrigento"},{"_id":6537803,"coord":{"lat":37.606159,"lon":15.12019},"country":"IT","name":"Aci Sant'Antonio"},{"_id":6540849,"coord":{"lat":37.61253,"lon":15.16628},"country":"IT","name":"Acireale"},{"_id":2525790,"coord":{"lat":37.606659,"lon":15.16279},"country":"IT","name":"Acireale"},{"_id":6537802,"coord":{"lat":37.595959,"lon":15.14019},"country":"IT","name":"Aci Catena"},{"_id":6537801,"coord":{"lat":37.55825,"lon":15.13459},"country":"IT","name":"Aci Castello"},{"_id":6541539,"coord":{"lat":44.489658,"lon":11.21831},"country":"IT","name":"Zola Predosa"},{"_id":6537140,"coord":{"lat":45.611881,"lon":9.36705},"country":"IT","name":"Vimercate"},{"_id":6541532,"coord":{"lat":45.721298,"lon":12.25311},"country":"IT","name":"Villorba"},{"_id":6540687,"coord":{"lat":40.921612,"lon":14.18983},"country":"IT","name":"Villaricca"},{"_id":6542081,"coord":{"lat":45.427601,"lon":11.95941},"country":"IT","name":"Vigonza"},{"_id":6539710,"coord":{"lat":44.48296,"lon":11.0048},"country":"IT","name":"Vignola"},{"_id":6541169,"coord":{"lat":40.659809,"lon":14.43174},"country":"IT","name":"Vico Equense"},{"_id":6541645,"coord":{"lat":43.873539,"lon":10.2558},"country":"IT","name":"Viareggio"},{"_id":6537000,"coord":{"lat":41.69112,"lon":13.4177},"country":"IT","name":"Veroli"},{"_id":3164528,"coord":{"lat":41.6824,"lon":13.41774},"country":"IT","name":"Veroli"},{"_id":6541441,"coord":{"lat":45.123852,"lon":7.63542},"country":"IT","name":"Venaria Reale"},{"_id":6542112,"coord":{"lat":45.829079,"lon":8.82193},"country":"IT","name":"Varese"},{"_id":6541260,"coord":{"lat":41.04533,"lon":16.88509},"country":"IT","name":"Valenzano"},{"_id":3164919,"coord":{"lat":41.04533,"lon":16.88509},"country":"IT","name":"Valenzano"},{"_id":6539686,"coord":{"lat":45.6483,"lon":11.30639},"country":"IT","name":"Valdagno"},{"_id":6541472,"coord":{"lat":43.729759,"lon":12.63555},"country":"IT","name":"Urbino"},{"_id":6538949,"coord":{"lat":41.06673,"lon":16.925989},"country":"IT","name":"Triggiano"},{"_id":3165178,"coord":{"lat":41.06673,"lon":16.925989},"country":"IT","name":"Triggiano"},{"_id":6537305,"coord":{"lat":45.434769,"lon":8.73684},"country":"IT","name":"Trecate"},{"_id":6541259,"coord":{"lat":41.272732,"lon":16.415371},"country":"IT","name":"Trani"},{"_id":6537089,"coord":{"lat":45.710972,"lon":8.90764},"country":"IT","name":"Tradate"},{"_id":6542269,"coord":{"lat":41.690739,"lon":15.29634},"country":"IT","name":"Torremaggiore"},{"_id":3165435,"coord":{"lat":41.690739,"lon":15.29634},"country":"IT","name":"Torre Maggiore"},{"_id":6541069,"coord":{"lat":43.212551,"lon":13.29008},"country":"IT","name":"Tolentino"},{"_id":6541893,"coord":{"lat":41.286308,"lon":13.2217},"country":"IT","name":"Terracina"},{"_id":6542114,"coord":{"lat":42.567131,"lon":12.64987},"country":"IT","name":"Terni"},{"_id":6541934,"coord":{"lat":41.988838,"lon":14.98953},"country":"IT","name":"Termoli"},{"_id":6541258,"coord":{"lat":41.13113,"lon":16.54528},"country":"IT","name":"Terlizzi"},{"_id":6536909,"coord":{"lat":42.248219,"lon":11.75526},"country":"IT","name":"Tarquinia"},{"_id":6540649,"coord":{"lat":44.991871,"lon":10.74309},"country":"IT","name":"Suzzara"},{"_id":6540713,"coord":{"lat":42.047932,"lon":13.92911},"country":"IT","name":"Sulmona"},{"_id":6537351,"coord":{"lat":40.871609,"lon":14.43613},"country":"IT","name":"Somma Vesuviana"},{"_id":6542006,"coord":{"lat":43.792351,"lon":11.09792},"country":"IT","name":"Signa"},{"_id":6541587,"coord":{"lat":45.64238,"lon":9.14594},"country":"IT","name":"Seveso"},{"_id":6540923,"coord":{"lat":45.140251,"lon":7.76802},"country":"IT","name":"Settimo Torinese"},{"_id":6538731,"coord":{"lat":41.240822,"lon":13.93282},"country":"IT","name":"Sessa Aurunca"},{"_id":6537134,"coord":{"lat":45.652382,"lon":9.20034},"country":"IT","name":"Seregno"},{"_id":6537133,"coord":{"lat":45.576271,"lon":9.12454},"country":"IT","name":"Senago"},{"_id":6541826,"coord":{"lat":45.391392,"lon":11.80051},"country":"IT","name":"Selvazzano Dentro"},{"_id":6541663,"coord":{"lat":45.494171,"lon":9.30005},"country":"IT","name":"Segrate"},{"_id":6542089,"coord":{"lat":43.757462,"lon":11.19043},"country":"IT","name":"Scandicci"},{"_id":6541194,"coord":{"lat":40.752811,"lon":14.53384},"country":"IT","name":"Scafati"},{"_id":6536733,"coord":{"lat":44.550861,"lon":10.7847},"country":"IT","name":"Sassuolo"},{"_id":6537086,"coord":{"lat":45.627869,"lon":9.03464},"country":"IT","name":"Saronno"},{"_id":6537559,"coord":{"lat":40.79303,"lon":16.755289},"country":"IT","name":"Santeramo in Colle"},{"_id":6539732,"coord":{"lat":43.229858,"lon":13.68608},"country":"IT","name":"Sant'Elpidio a Mare"},{"_id":6541166,"coord":{"lat":40.723709,"lon":14.54654},"country":"IT","name":"Sant'Antonio Abate"},{"_id":6540686,"coord":{"lat":40.945709,"lon":14.23143},"country":"IT","name":"Sant'Antimo"},{"_id":6539813,"coord":{"lat":40.866909,"lon":14.40483},"country":"IT","name":"Sant'Anastasia"},{"_id":6541100,"coord":{"lat":43.57465,"lon":12.14304},"country":"IT","name":"Sansepolcro"},{"_id":6542207,"coord":{"lat":43.818218,"lon":7.76115},"country":"IT","name":"San Remo"},{"_id":6538962,"coord":{"lat":40.491531,"lon":17.99892},"country":"IT","name":"San Pietro Vernotico"},{"_id":6542195,"coord":{"lat":41.83844,"lon":15.56535},"country":"IT","name":"San Nicandro Garganico"},{"_id":3167940,"coord":{"lat":41.83844,"lon":15.56535},"country":"IT","name":"Sannicandro Garganico"},{"_id":6541435,"coord":{"lat":45.10585,"lon":7.75452},"country":"IT","name":"San Mauro Torinese"},{"_id":6538931,"coord":{"lat":41.713139,"lon":15.63985},"country":"IT","name":"San Marco in Lamis"},{"_id":6536278,"coord":{"lat":44.46777,"lon":11.41401},"country":"IT","name":"San Lazzaro di Savena"},{"_id":6540744,"coord":{"lat":41.704941,"lon":15.71905},"country":"IT","name":"San Giovanni Rotondo"},{"_id":6540247,"coord":{"lat":45.38789,"lon":11.03799},"country":"IT","name":"San Giovanni Lupatoto"},{"_id":6538958,"coord":{"lat":40.456619,"lon":17.3787},"country":"IT","name":"San Giorgio Ionico"},{"_id":6537348,"coord":{"lat":40.830711,"lon":14.33763},"country":"IT","name":"San Giorgio a Cremano"},{"_id":6539909,"coord":{"lat":44.646439,"lon":7.48623},"country":"IT","name":"Saluzzo"},{"_id":3168609,"coord":{"lat":44.646439,"lon":7.48623},"country":"IT","name":"Saluzzo"},{"_id":3168770,"coord":{"lat":41.113628,"lon":16.48778},"country":"IT","name":"Ruvo di Puglia"},{"_id":6538947,"coord":{"lat":41.011131,"lon":17.005489},"country":"IT","name":"Rutigliano"},{"_id":6541662,"coord":{"lat":45.38187,"lon":9.16055},"country":"IT","name":"Rozzano"},{"_id":6541093,"coord":{"lat":43.407928,"lon":10.47291},"country":"IT","name":"Rosignano Marittimo"},{"_id":6541925,"coord":{"lat":42.666351,"lon":14.0227},"country":"IT","name":"Roseto degli Abruzzi"},{"_id":6539902,"coord":{"lat":45.071548,"lon":7.52622},"country":"IT","name":"Rivoli"},{"_id":6538077,"coord":{"lat":45.034039,"lon":7.51842},"country":"IT","name":"Rivalta di Torino"},{"_id":6537346,"coord":{"lat":40.922611,"lon":14.15013},"country":"IT","name":"Qualiano"},{"_id":6541077,"coord":{"lat":43.258259,"lon":13.75829},"country":"IT","name":"Porto Sant'Elpidio"},{"_id":6536802,"coord":{"lat":43.182659,"lon":13.79339},"country":"IT","name":"Porto San Giorgio"},{"_id":3170073,"coord":{"lat":43.182659,"lon":13.79339},"country":"IT","name":"Porto San Giorgio"},{"_id":6540261,"coord":{"lat":43.306961,"lon":13.72058},"country":"IT","name":"Civitanova Marche"},{"_id":6536839,"coord":{"lat":43.66164,"lon":10.63171},"country":"IT","name":"Pontedera"},{"_id":6538564,"coord":{"lat":43.773651,"lon":11.42823},"country":"IT","name":"Pontassieve"},{"_id":6536960,"coord":{"lat":41.667011,"lon":12.50518},"country":"IT","name":"Pomezia"},{"_id":6537556,"coord":{"lat":40.99593,"lon":17.215891},"country":"IT","name":"Polignano a Mare"},{"_id":6541279,"coord":{"lat":40.21151,"lon":16.67259},"country":"IT","name":"Policoro"},{"_id":3170384,"coord":{"lat":40.21151,"lon":16.67259},"country":"IT","name":"Policoro"},{"_id":6538766,"coord":{"lat":40.803108,"lon":14.53904},"country":"IT","name":"Poggiomarino"},{"_id":6539928,"coord":{"lat":45.297691,"lon":12.03681},"country":"IT","name":"Piove di Sacco"},{"_id":6538073,"coord":{"lat":44.99054,"lon":7.46372},"country":"IT","name":"Piossasco"},{"_id":6541646,"coord":{"lat":42.934818,"lon":10.52212},"country":"IT","name":"Piombino"},{"_id":3170674,"coord":{"lat":42.934818,"lon":10.52212},"country":"IT","name":"Piombino"},{"_id":6536242,"coord":{"lat":46.064999,"lon":11.23798},"country":"IT","name":"Pergine Valsugana"},{"_id":6536728,"coord":{"lat":44.331459,"lon":10.835},"country":"IT","name":"Pavullo nel Frignano"},{"_id":6536518,"coord":{"lat":45.55497,"lon":8.94564},"country":"IT","name":"Parabiago"},{"_id":6537555,"coord":{"lat":41.057529,"lon":16.700781},"country":"IT","name":"Palo del Colle"},{"_id":3171562,"coord":{"lat":41.057529,"lon":16.700781},"country":"IT","name":"Palo del Colle"},{"_id":3171664,"coord":{"lat":40.578892,"lon":17.03861},"country":"IT","name":"Palagiano"},{"_id":6542037,"coord":{"lat":45.573071,"lon":9.16344},"country":"IT","name":"Paderno Dugnano"},{"_id":6541906,"coord":{"lat":40.849812,"lon":14.49014},"country":"IT","name":"Ottaviano"},{"_id":3171778,"coord":{"lat":40.849812,"lon":14.49014},"country":"IT","name":"Ottaviano"},{"_id":6538961,"coord":{"lat":40.727631,"lon":17.57641},"country":"IT","name":"Ostuni"},{"_id":6536779,"coord":{"lat":43.482761,"lon":13.48748},"country":"IT","name":"Osimo"},{"_id":6539748,"coord":{"lat":42.719528,"lon":12.11156},"country":"IT","name":"Orvieto"},{"_id":3171900,"coord":{"lat":41.329929,"lon":15.71066},"country":"IT","name":"Orta Nova"},{"_id":3171961,"coord":{"lat":40.49733,"lon":17.64131},"country":"IT","name":"Oria"},{"_id":6540127,"coord":{"lat":40.921371,"lon":9.48563},"country":"IT","name":"Olbia"},{"_id":3172087,"coord":{"lat":40.921371,"lon":9.48563},"country":"IT","name":"Olbia"},{"_id":6540996,"coord":{"lat":45.788212,"lon":12.50192},"country":"IT","name":"Oderzo"},{"_id":6536517,"coord":{"lat":45.530972,"lon":9.13474},"country":"IT","name":"Novate Milanese"},{"_id":6537124,"coord":{"lat":45.59037,"lon":9.19954},"country":"IT","name":"Nova Milanese"},{"_id":6541905,"coord":{"lat":40.922009,"lon":14.53294},"country":"IT","name":"Nola"},{"_id":3172227,"coord":{"lat":40.922009,"lon":14.53294},"country":"IT","name":"Nola"},{"_id":3172228,"coord":{"lat":41.033829,"lon":16.98959},"country":"IT","name":"Noicattaro"},{"_id":6540699,"coord":{"lat":40.742111,"lon":14.67294},"country":"IT","name":"Nocera Superiore"},{"_id":6541687,"coord":{"lat":40.752209,"lon":14.64014},"country":"IT","name":"Nocera Inferiore"},{"_id":6540915,"coord":{"lat":44.994041,"lon":7.64182},"country":"IT","name":"Nichelino"},{"_id":6539972,"coord":{"lat":42.517132,"lon":12.52307},"country":"IT","name":"Narni"},{"_id":6538765,"coord":{"lat":40.911308,"lon":14.20513},"country":"IT","name":"Mugnano di Napoli"},{"_id":6539675,"coord":{"lat":45.588371,"lon":9.22625},"country":"IT","name":"Muggiò"},{"_id":6536280,"coord":{"lat":45.778,"lon":12.04871},"country":"IT","name":"Montebelluna"},{"_id":6538552,"coord":{"lat":43.87035,"lon":10.81231},"country":"IT","name":"Monsummano Terme"},{"_id":6541005,"coord":{"lat":45.24239,"lon":11.74901},"country":"IT","name":"Monselice"},{"_id":6541257,"coord":{"lat":40.955929,"lon":17.2896},"country":"IT","name":"Monopoli"},{"_id":6538064,"coord":{"lat":44.99625,"lon":7.69032},"country":"IT","name":"Moncalieri"},{"_id":6537553,"coord":{"lat":41.20023,"lon":16.597481},"country":"IT","name":"Molfetta"},{"_id":3173287,"coord":{"lat":41.20023,"lon":16.597481},"country":"IT","name":"Molfetta"},{"_id":6538945,"coord":{"lat":41.06094,"lon":17.08729},"country":"IT","name":"Mola di Bari"},{"_id":6541262,"coord":{"lat":40.55883,"lon":17.80831},"country":"IT","name":"Mesagne"},{"_id":6538680,"coord":{"lat":42.03492,"lon":12.64238},"country":"IT","name":"Mentana"},{"_id":6537121,"coord":{"lat":45.50127,"lon":9.42525},"country":"IT","name":"Melzo"},{"_id":6538763,"coord":{"lat":40.920509,"lon":14.23003},"country":"IT","name":"Melito di Napoli"},{"_id":6540587,"coord":{"lat":45.358768,"lon":9.32395},"country":"IT","name":"Melegnano"},{"_id":6540586,"coord":{"lat":45.65818,"lon":9.15974},"country":"IT","name":"Meda"},{"_id":6537564,"coord":{"lat":40.588821,"lon":17.117001},"country":"IT","name":"Massafra"},{"_id":6542128,"coord":{"lat":44.022041,"lon":10.11409},"country":"IT","name":"Massa"},{"_id":6538954,"coord":{"lat":40.703129,"lon":17.3339},"country":"IT","name":"Martina Franca"},{"_id":6538315,"coord":{"lat":45.544201,"lon":12.16071},"country":"IT","name":"Martellago"},{"_id":6539761,"coord":{"lat":41.762421,"lon":12.64438},"country":"IT","name":"Marino"},{"_id":6542087,"coord":{"lat":44.062939,"lon":10.06069},"country":"IT","name":"Carrara"},{"_id":3173935,"coord":{"lat":44.038368,"lon":10.04142},"country":"IT","name":"Marina di Carrara"},{"_id":6541475,"coord":{"lat":40.926311,"lon":14.45813},"country":"IT","name":"Marigliano"},{"_id":6536113,"coord":{"lat":45.692081,"lon":9.17974},"country":"IT","name":"Mariano Comense"},{"_id":6541409,"coord":{"lat":41.032211,"lon":14.30093},"country":"IT","name":"Marcianise"},{"_id":6537344,"coord":{"lat":40.89761,"lon":14.19053},"country":"IT","name":"Marano di Napoli"},{"_id":6540571,"coord":{"lat":45.790779,"lon":8.88193},"country":"IT","name":"Malnate"},{"_id":6536515,"coord":{"lat":45.464569,"lon":8.88264},"country":"IT","name":"Magenta"},{"_id":6539987,"coord":{"lat":41.040009,"lon":14.37683},"country":"IT","name":"Maddaloni"},{"_id":6537538,"coord":{"lat":41.508228,"lon":15.33505},"country":"IT","name":"Lucera"},{"_id":3174526,"coord":{"lat":41.508228,"lon":15.33505},"country":"IT","name":"Lucera"},{"_id":6540337,"coord":{"lat":45.596771,"lon":9.12904},"country":"IT","name":"Limbiate"},{"_id":6537118,"coord":{"lat":45.59597,"lon":8.90784},"country":"IT","name":"Legnano"},{"_id":6541997,"coord":{"lat":45.85334,"lon":9.39048},"country":"IT","name":"Lecco"},{"_id":6537575,"coord":{"lat":40.552929,"lon":17.72051},"country":"IT","name":"Latiano"},{"_id":3175061,"coord":{"lat":40.552929,"lon":17.72051},"country":"IT","name":"Latiano"},{"_id":6541999,"coord":{"lat":42.36504,"lon":13.39349},"country":"IT","name":"L'Aquila"},{"_id":6535956,"coord":{"lat":46.42281,"lon":11.33478},"country":"IT","name":"Laives - Leifers"},{"_id":6541586,"coord":{"lat":45.575871,"lon":9.01714},"country":"IT","name":"Lainate"},{"_id":6541616,"coord":{"lat":41.95372,"lon":12.07347},"country":"IT","name":"Ladispoli"},{"_id":6539811,"coord":{"lat":40.7342,"lon":13.94712},"country":"IT","name":"Ischia"},{"_id":3175453,"coord":{"lat":40.73333,"lon":13.95},"country":"IT","name":"Ischia Porto"},{"_id":3175458,"coord":{"lat":40.735229,"lon":13.94813},"country":"IT","name":"Ischia"},{"_id":6537342,"coord":{"lat":40.935909,"lon":14.25983},"country":"IT","name":"Grumo Nevano"},{"_id":6537276,"coord":{"lat":45.06805,"lon":7.57762},"country":"IT","name":"Grugliasco"},{"_id":3175786,"coord":{"lat":42.77142,"lon":11.10794},"country":"IT","name":"Grosseto"},{"_id":6540684,"coord":{"lat":40.69561,"lon":14.51234},"country":"IT","name":"Gragnano"},{"_id":6537117,"coord":{"lat":45.53157,"lon":9.40465},"country":"IT","name":"Gorgonzola"},{"_id":6541630,"coord":{"lat":45.69408,"lon":9.21124},"country":"IT","name":"Giussano"},{"_id":6540717,"coord":{"lat":42.76115,"lon":13.9537},"country":"IT","name":"Giulianova"},{"_id":3176053,"coord":{"lat":42.76115,"lon":13.9537},"country":"IT","name":"Giulianova"},{"_id":6537550,"coord":{"lat":41.186432,"lon":16.667379},"country":"IT","name":"Giovinazzo"},{"_id":3176072,"coord":{"lat":41.186432,"lon":16.667379},"country":"IT","name":"Giovinazzo"},{"_id":6541943,"coord":{"lat":40.056721,"lon":17.99642},"country":"IT","name":"Gallipoli"},{"_id":3176366,"coord":{"lat":40.055561,"lon":17.976391},"country":"IT","name":"Gallipoli"},{"_id":6537078,"coord":{"lat":45.663971,"lon":8.79034},"country":"IT","name":"Gallarate"},{"_id":3176406,"coord":{"lat":40.142921,"lon":18.070419},"country":"IT","name":"Galatone"},{"_id":3176407,"coord":{"lat":40.174019,"lon":18.168221},"country":"IT","name":"Galatina"},{"_id":6540683,"coord":{"lat":40.939308,"lon":14.27403},"country":"IT","name":"Frattamaggiore"},{"_id":6541615,"coord":{"lat":41.816319,"lon":12.66868},"country":"IT","name":"Frascati"},{"_id":6539572,"coord":{"lat":44.548939,"lon":7.72013},"country":"IT","name":"Fossano"},{"_id":3176639,"coord":{"lat":44.548939,"lon":7.72013},"country":"IT","name":"Fossano"},{"_id":6540530,"coord":{"lat":41.25626,"lon":13.60584},"country":"IT","name":"Formia"},{"_id":3176738,"coord":{"lat":41.25626,"lon":13.60588},"country":"IT","name":"Formia"},{"_id":6541106,"coord":{"lat":42.926331,"lon":10.76162},"country":"IT","name":"Follonica"},{"_id":6541874,"coord":{"lat":43.164661,"lon":13.72329},"country":"IT","name":"Fermo"},{"_id":6541559,"coord":{"lat":45.809582,"lon":9.23124},"country":"IT","name":"Erba"},{"_id":6540335,"coord":{"lat":45.620178,"lon":9.20424},"country":"IT","name":"Desio"},{"_id":6537115,"coord":{"lat":45.55307,"lon":9.18344},"country":"IT","name":"Cusano Milanino"},{"_id":6540883,"coord":{"lat":45.57386,"lon":8.18172},"country":"IT","name":"Cossato"},{"_id":6536842,"coord":{"lat":43.27454,"lon":11.98705},"country":"IT","name":"Cortona"},{"_id":6536509,"coord":{"lat":45.4305,"lon":9.11539},"country":"IT","name":"Corsico"},{"_id":6536507,"coord":{"lat":45.496971,"lon":9.02614},"country":"IT","name":"Cornaredo"},{"_id":6537929,"coord":{"lat":45.98362,"lon":12.69492},"country":"IT","name":"Cordenons"},{"_id":3178112,"coord":{"lat":45.989719,"lon":12.70194},"country":"IT","name":"Cordenons"},{"_id":6540430,"coord":{"lat":44.892979,"lon":11.82492},"country":"IT","name":"Copparo"},{"_id":3178137,"coord":{"lat":44.892979,"lon":11.82492},"country":"IT","name":"Copparo"},{"_id":6542055,"coord":{"lat":45.809978,"lon":9.08744},"country":"IT","name":"Como"},{"_id":6542256,"coord":{"lat":43.58884,"lon":10.47481},"country":"IT","name":"Collesalvetti"},{"_id":3178349,"coord":{"lat":43.58884,"lon":10.47481},"country":"IT","name":"Colle Salvetti"},{"_id":6538053,"coord":{"lat":45.077549,"lon":7.57242},"country":"IT","name":"Collegno"},{"_id":6541652,"coord":{"lat":41.726219,"lon":13.00359},"country":"IT","name":"Colleferro"},{"_id":6541617,"coord":{"lat":41.59761,"lon":12.83049},"country":"IT","name":"Cisterna di Latina"},{"_id":6542143,"coord":{"lat":45.23505,"lon":7.59882},"country":"IT","name":"Ciriè"},{"_id":6538052,"coord":{"lat":45.18935,"lon":7.88722},"country":"IT","name":"Chivasso"},{"_id":6539800,"coord":{"lat":45.01395,"lon":7.82233},"country":"IT","name":"Chieri"},{"_id":6536172,"coord":{"lat":45.535881,"lon":9.93036},"country":"IT","name":"Chiari"},{"_id":6541989,"coord":{"lat":45.630379,"lon":9.15224},"country":"IT","name":"Cesano Maderno"},{"_id":6540432,"coord":{"lat":44.265671,"lon":12.34274},"country":"IT","name":"Cervia"},{"_id":6539481,"coord":{"lat":45.522869,"lon":9.32275},"country":"IT","name":"Cernusco sul Naviglio"},{"_id":6538923,"coord":{"lat":41.26403,"lon":15.90046},"country":"IT","name":"Cerignola"},{"_id":3179075,"coord":{"lat":41.26403,"lon":15.90046},"country":"IT","name":"Cerignola"},{"_id":6540973,"coord":{"lat":45.192081,"lon":11.2103},"country":"IT","name":"Cerea"},{"_id":6538759,"coord":{"lat":40.856609,"lon":14.35773},"country":"IT","name":"Cercola"},{"_id":6538704,"coord":{"lat":41.567719,"lon":13.3333},"country":"IT","name":"Ceccano"},{"_id":6539690,"coord":{"lat":45.136688,"lon":12.08162},"country":"IT","name":"Cavarzere"},{"_id":6537232,"coord":{"lat":45.390579,"lon":10.48528},"country":"IT","name":"Castiglione delle Stiviere"},{"_id":6541898,"coord":{"lat":41.014912,"lon":13.94622},"country":"IT","name":"Castel Volturno"},{"_id":6540251,"coord":{"lat":44.577068,"lon":11.36071},"country":"IT","name":"Castel Maggiore"},{"_id":6541633,"coord":{"lat":44.595772,"lon":11.052},"country":"IT","name":"Castelfranco Emilia"},{"_id":6540469,"coord":{"lat":43.610039,"lon":10.96922},"country":"IT","name":"Castelfiorentino"},{"_id":6541654,"coord":{"lat":41.487621,"lon":13.83151},"country":"IT","name":"Cassino"},{"_id":6540333,"coord":{"lat":45.523579,"lon":9.51395},"country":"IT","name":"Cassano d'Adda"},{"_id":6541680,"coord":{"lat":40.911812,"lon":14.29343},"country":"IT","name":"Casoria"},{"_id":6541869,"coord":{"lat":41.083221,"lon":14.33493},"country":"IT","name":"Caserta"},{"_id":6540660,"coord":{"lat":45.177849,"lon":7.64262},"country":"IT","name":"Caselle Torinese"},{"_id":6541030,"coord":{"lat":44.475571,"lon":11.27591},"country":"IT","name":"Casalecchio di Reno"},{"_id":6541407,"coord":{"lat":41.01141,"lon":14.12482},"country":"IT","name":"Casal di Principe"},{"_id":6539992,"coord":{"lat":40.942009,"lon":14.29943},"country":"IT","name":"Cardito"},{"_id":6540332,"coord":{"lat":45.673679,"lon":9.23594},"country":"IT","name":"Carate Brianza"},{"_id":6538810,"coord":{"lat":40.424412,"lon":15.08085},"country":"IT","name":"Capaccio"},{"_id":3180746,"coord":{"lat":40.424412,"lon":15.08085},"country":"IT","name":"Capaccio"},{"_id":6539464,"coord":{"lat":45.729382,"lon":9.14054},"country":"IT","name":"Cantù"},{"_id":6538940,"coord":{"lat":41.219631,"lon":16.067471},"country":"IT","name":"Canosa di Puglia"},{"_id":6541087,"coord":{"lat":43.855949,"lon":11.16272},"country":"IT","name":"Calenzano"},{"_id":6541163,"coord":{"lat":40.957111,"lon":14.31023},"country":"IT","name":"Caivano"},{"_id":6537075,"coord":{"lat":45.612171,"lon":8.84274},"country":"IT","name":"Busto Arsizio"},{"_id":6536261,"coord":{"lat":45.469189,"lon":10.85058},"country":"IT","name":"Bussolengo"},{"_id":6539713,"coord":{"lat":44.537071,"lon":11.53362},"country":"IT","name":"Budrio"},{"_id":6539990,"coord":{"lat":40.92321,"lon":14.42393},"country":"IT","name":"Brusciano"},{"_id":6537112,"coord":{"lat":45.55727,"lon":9.29405},"country":"IT","name":"Brugherio"},{"_id":6540583,"coord":{"lat":45.537868,"lon":9.19755},"country":"IT","name":"Bresso"},{"_id":6542060,"coord":{"lat":40.775612,"lon":14.49944},"country":"IT","name":"Boscoreale"},{"_id":6538124,"coord":{"lat":45.70237,"lon":8.45813},"country":"IT","name":"Borgomanero"},{"_id":6537111,"coord":{"lat":45.546471,"lon":9.12054},"country":"IT","name":"Bollate"},{"_id":6540748,"coord":{"lat":41.242031,"lon":16.504379},"country":"IT","name":"Bisceglie"},{"_id":3182007,"coord":{"lat":41.242031,"lon":16.504379},"country":"IT","name":"Bisceglie"},{"_id":6538038,"coord":{"lat":45.02314,"lon":7.58392},"country":"IT","name":"Beinasco"},{"_id":6541913,"coord":{"lat":40.610909,"lon":14.98515},"country":"IT","name":"Battipaglia"},{"_id":3182272,"coord":{"lat":40.610909,"lon":14.98515},"country":"IT","name":"Battipaglia"},{"_id":6542181,"coord":{"lat":43.06794,"lon":12.54556},"country":"IT","name":"Bastia Umbra"},{"_id":3182289,"coord":{"lat":43.06794,"lon":12.54556},"country":"IT","name":"Bastia Umbra"},{"_id":6541686,"coord":{"lat":40.747711,"lon":14.77084},"country":"IT","name":"Baronissi"},{"_id":3182337,"coord":{"lat":40.747711,"lon":14.77084},"country":"IT","name":"Baronissi"},{"_id":3182518,"coord":{"lat":40.813221,"lon":14.16807},"country":"IT","name":"Bagnoli"},{"_id":6536819,"coord":{"lat":43.751148,"lon":11.32252},"country":"IT","name":"Bagno a Ripoli"},{"_id":6541635,"coord":{"lat":44.412472,"lon":11.97713},"country":"IT","name":"Bagnacavallo"},{"_id":6542059,"coord":{"lat":40.799519,"lon":14.07829},"country":"IT","name":"Bacoli"},{"_id":3182599,"coord":{"lat":40.799259,"lon":14.07846},"country":"IT","name":"Bacoli"},{"_id":6536612,"coord":{"lat":45.519291,"lon":11.33859},"country":"IT","name":"Arzignano"},{"_id":6539810,"coord":{"lat":40.91441,"lon":14.26713},"country":"IT","name":"Arzano"},{"_id":6538668,"coord":{"lat":41.720119,"lon":12.67588},"country":"IT","name":"Ariccia"},{"_id":6538773,"coord":{"lat":41.148918,"lon":15.08334},"country":"IT","name":"Ariano Irpino"},{"_id":3182854,"coord":{"lat":41.148918,"lon":15.08334},"country":"IT","name":"Ariano Irpino"},{"_id":3182884,"coord":{"lat":43.461391,"lon":11.87691},"country":"IT","name":"Arezzo"},{"_id":6540169,"coord":{"lat":45.626678,"lon":9.32555},"country":"IT","name":"Arcore"},{"_id":6541471,"coord":{"lat":45.737358,"lon":7.3166},"country":"IT","name":"Aosta"},{"_id":6542092,"coord":{"lat":41.48531,"lon":12.61789},"country":"IT","name":"Anzio"},{"_id":6541937,"coord":{"lat":41.230629,"lon":16.290871},"country":"IT","name":"Andria"},{"_id":6541254,"coord":{"lat":40.829231,"lon":16.55368},"country":"IT","name":"Altamura"},{"_id":6537016,"coord":{"lat":45.101952,"lon":7.52662},"country":"IT","name":"Alpignano"},{"_id":6538325,"coord":{"lat":45.347488,"lon":11.86721},"country":"IT","name":"Albignasego"},{"_id":6539671,"coord":{"lat":44.052929,"lon":8.21605},"country":"IT","name":"Albenga"},{"_id":6541651,"coord":{"lat":41.726021,"lon":12.63128},"country":"IT","name":"Albano Laziale"},{"_id":6541894,"coord":{"lat":41.730621,"lon":13.3402},"country":"IT","name":"Alatri"},{"_id":6541176,"coord":{"lat":40.346901,"lon":14.99655},"country":"IT","name":"Agropoli"},{"_id":3183412,"coord":{"lat":40.346901,"lon":14.99655},"country":"IT","name":"Agropoli"},{"_id":6541162,"coord":{"lat":40.92601,"lon":14.31083},"country":"IT","name":"Afragola"},{"_id":6538938,"coord":{"lat":41.00423,"lon":16.871691},"country":"IT","name":"Adelfia"},{"_id":3183472,"coord":{"lat":41.00423,"lon":16.871691},"country":"IT","name":"Adelfia"},{"_id":6538185,"coord":{"lat":44.67514,"lon":8.46755},"country":"IT","name":"Acqui Terme"},{"_id":6538937,"coord":{"lat":40.897831,"lon":16.842489},"country":"IT","name":"Acquaviva delle Fonti"},{"_id":6537337,"coord":{"lat":40.95071,"lon":14.37623},"country":"IT","name":"Acerra"},{"_id":6540167,"coord":{"lat":45.400768,"lon":8.91854},"country":"IT","name":"Abbiategrasso"},{"_id":3219114,"coord":{"lat":45.493061,"lon":12.16056},"country":"IT","name":"Spinea"},{"_id":6542294,"coord":{"lat":45.3475,"lon":9.20002},"country":"IT","name":"Pieve Emanuele"},{"_id":6542304,"coord":{"lat":45.41713,"lon":9.10698},"country":"IT","name":"Buccinasco"},{"_id":6534232,"coord":{"lat":38.965889,"lon":16.3092},"country":"IT","name":"Lamezia Terme"},{"_id":6542310,"coord":{"lat":45.66917,"lon":8.82674},"country":"IT","name":"Cassano Magnago"},{"_id":6542315,"coord":{"lat":45.482281,"lon":9.05205},"country":"IT","name":"Settimo Milanese"},{"_id":6542326,"coord":{"lat":41.00581,"lon":14.45583},"country":"IT","name":"San Felice a Cancello"},{"_id":6542355,"coord":{"lat":42.001671,"lon":12.62194},"country":"IT","name":"Fonte Nuova"},{"_id":3175395,"coord":{"lat":42.833328,"lon":12.83333},"country":"IT","name":"Italian Republic"},{"_id":2523119,"coord":{"lat":37.75,"lon":14.25},"country":"IT","name":"Regione Autonoma Siciliana"},{"_id":2525065,"coord":{"lat":37.383331,"lon":14.66667},"country":"IT","name":"Provincia di Catania"},{"_id":6541967,"coord":{"lat":37.23682,"lon":14.5126},"country":"IT","name":"Caltagirone"},{"_id":2523322,"coord":{"lat":37.23333,"lon":14.51667},"country":"IT","name":"Santa Maria di Gesù"},{"_id":2524818,"coord":{"lat":37.583328,"lon":14.43333},"country":"IT","name":"Provincia di Enna"},{"_id":6540848,"coord":{"lat":37.379139,"lon":14.20107},"country":"IT","name":"Barrafranca"},{"_id":2525593,"coord":{"lat":37.379139,"lon":14.20107},"country":"IT","name":"Barrafranca"},{"_id":2525763,"coord":{"lat":37.450001,"lon":13.5},"country":"IT","name":"Provincia di Agrigento"},{"_id":6539174,"coord":{"lat":37.49844,"lon":13.26415},"country":"IT","name":"Ribera"},{"_id":2523619,"coord":{"lat":37.49844,"lon":13.26415},"country":"IT","name":"Ribera"},{"_id":6541468,"coord":{"lat":37.500252,"lon":15.07339},"country":"IT","name":"Catania"},{"_id":2524993,"coord":{"lat":37.51667,"lon":15.06667},"country":"IT","name":"Cibali"},{"_id":6537780,"coord":{"lat":37.60664,"lon":12.96784},"country":"IT","name":"Menfi"},{"_id":2524179,"coord":{"lat":37.60664,"lon":12.96784},"country":"IT","name":"Menfi"},{"_id":2523850,"coord":{"lat":37.616852,"lon":15.05669},"country":"IT","name":"Pedara"},{"_id":2522875,"coord":{"lat":37.833328,"lon":12.66667},"country":"IT","name":"Provincia di Trapani"},{"_id":6541759,"coord":{"lat":37.664139,"lon":12.58804},"country":"IT","name":"Mazara del Vallo"},{"_id":2524205,"coord":{"lat":37.664139,"lon":12.58804},"country":"IT","name":"Mazara del Vallo"},{"_id":2525468,"coord":{"lat":39,"lon":16.5},"country":"IT","name":"Regione Calabria"},{"_id":2523629,"coord":{"lat":38.316669,"lon":16.08333},"country":"IT","name":"Provincia di Reggio di Calabria"},{"_id":6542287,"coord":{"lat":38.11047,"lon":15.66129},"country":"IT","name":"Reggio di Calabria"},{"_id":2523845,"coord":{"lat":38.01667,"lon":15.65},"country":"IT","name":"Pellaro"},{"_id":2525729,"coord":{"lat":38.042049,"lon":13.29624},"country":"IT","name":"Altofonte"},{"_id":6540824,"coord":{"lat":38.09045,"lon":13.17434},"country":"IT","name":"Montelepre"},{"_id":2524070,"coord":{"lat":38.09045,"lon":13.17434},"country":"IT","name":"Montelepre"},{"_id":2523630,"coord":{"lat":38.11047,"lon":15.66129},"country":"IT","name":"Reggio Calabria"},{"_id":6537754,"coord":{"lat":38.14756,"lon":15.21048},"country":"IT","name":"Barcellona Pozzo di Gotto"},{"_id":2525597,"coord":{"lat":38.14756,"lon":15.21048},"country":"IT","name":"Barcellona-Pozzo di Gotto"},{"_id":6541758,"coord":{"lat":38.16917,"lon":15.7892},"country":"IT","name":"Santo Stefano in Aspromonte"},{"_id":6541859,"coord":{"lat":38.193272,"lon":15.54969},"country":"IT","name":"Messina"},{"_id":2524170,"coord":{"lat":38.193272,"lon":15.54969},"country":"IT","name":"Messina"},{"_id":6541315,"coord":{"lat":38.405979,"lon":16.08},"country":"IT","name":"Polistena"},{"_id":2523738,"coord":{"lat":38.405979,"lon":16.08},"country":"IT","name":"Polistena"},{"_id":2524906,"coord":{"lat":39.466671,"lon":16.41667},"country":"IT","name":"Provincia di Cosenza"},{"_id":6541297,"coord":{"lat":39.228489,"lon":16.264891},"country":"IT","name":"Paterno Calabro"},{"_id":2525381,"coord":{"lat":39.216671,"lon":16.25},"country":"IT","name":"Capora-Merendi"},{"_id":2523228,"coord":{"lat":40,"lon":9},"country":"IT","name":"Regione Autonoma della Sardegna"},{"_id":2525471,"coord":{"lat":39.245022,"lon":9.09119},"country":"IT","name":"Provincia di Cagliari"},{"_id":6540125,"coord":{"lat":39.213299,"lon":9.13033},"country":"IT","name":"Cagliari"},{"_id":2525473,"coord":{"lat":39.207378,"lon":9.13462},"country":"IT","name":"Cagliari"},{"_id":2524084,"coord":{"lat":39.256111,"lon":9.13972},"country":"IT","name":"Monserrato"},{"_id":6539309,"coord":{"lat":39.304241,"lon":9.20355},"country":"IT","name":"Sinnai"},{"_id":2592662,"coord":{"lat":39.30056,"lon":9.36556},"country":"IT","name":"San Gregorio"},{"_id":2523024,"coord":{"lat":39.299999,"lon":16.35},"country":"IT","name":"Spezzano della Sila"},{"_id":2525319,"coord":{"lat":39.333328,"lon":16.466669},"country":"IT","name":"Casa Camigliati"},{"_id":6537895,"coord":{"lat":39.378239,"lon":9.17864},"country":"IT","name":"Dolianova"},{"_id":2524844,"coord":{"lat":39.377781,"lon":9.17583},"country":"IT","name":"Dolianova"},{"_id":2524352,"coord":{"lat":39.446098,"lon":16.28829},"country":"IT","name":"Luzzi"},{"_id":6537887,"coord":{"lat":39.52174,"lon":9.38185},"country":"IT","name":"Armungia"},{"_id":2525667,"coord":{"lat":39.523331,"lon":9.38083},"country":"IT","name":"Armungia"},{"_id":3182306,"coord":{"lat":40.5,"lon":16.5},"country":"IT","name":"Regione Basilicata"},{"_id":3169778,"coord":{"lat":41.25,"lon":16.25},"country":"IT","name":"Regione Puglia"},{"_id":3174952,"coord":{"lat":40.216671,"lon":18.16667},"country":"IT","name":"Provincia di Lecce"},{"_id":6541941,"coord":{"lat":40.06472,"lon":18.32443},"country":"IT","name":"Botrugno"},{"_id":3181670,"coord":{"lat":40.06472,"lon":18.32443},"country":"IT","name":"Botrugno"},{"_id":6541369,"coord":{"lat":40.068451,"lon":9.14733},"country":"IT","name":"Tiana"},{"_id":3165692,"coord":{"lat":40.068451,"lon":9.14733},"country":"IT","name":"Tiana"},{"_id":3167696,"coord":{"lat":40.10355,"lon":8.49243},"country":"IT","name":"Santa Caterina"},{"_id":3181042,"coord":{"lat":41,"lon":14.5},"country":"IT","name":"Regione Campania"},{"_id":3168670,"coord":{"lat":40.450001,"lon":15.26667},"country":"IT","name":"Provincia di Salerno"},{"_id":6537421,"coord":{"lat":40.379211,"lon":15.54046},"country":"IT","name":"Teggiano"},{"_id":3165851,"coord":{"lat":40.379211,"lon":15.54046},"country":"IT","name":"Teggiano"},{"_id":6539026,"coord":{"lat":40.517818,"lon":16.547279},"country":"IT","name":"Pomarico"},{"_id":3170350,"coord":{"lat":40.517818,"lon":16.547279},"country":"IT","name":"Pomarico"},{"_id":6541900,"coord":{"lat":41.009911,"lon":14.08052},"country":"IT","name":"Villa Literno"},{"_id":3164219,"coord":{"lat":41.009911,"lon":14.08052},"country":"IT","name":"Villa Literno"},{"_id":6538798,"coord":{"lat":41.020119,"lon":15.11025},"country":"IT","name":"Sturno"},{"_id":3166056,"coord":{"lat":41.020119,"lon":15.11025},"country":"IT","name":"Sturno"},{"_id":3176884,"coord":{"lat":41.450001,"lon":15.53333},"country":"IT","name":"Provincia di Foggia"},{"_id":6537541,"coord":{"lat":41.281631,"lon":15.26445},"country":"IT","name":"Orsara di Puglia"},{"_id":3176140,"coord":{"lat":41.316669,"lon":15.4},"country":"IT","name":"Giardinetto"},{"_id":6537309,"coord":{"lat":41.33852,"lon":14.39213},"country":"IT","name":"San Potito Sannitico"},{"_id":3167796,"coord":{"lat":41.33852,"lon":14.39213},"country":"IT","name":"San Potito Sannitico"},{"_id":6542350,"coord":{"lat":41.350819,"lon":14.36803},"country":"IT","name":"Piedimonte Matese"},{"_id":6534279,"coord":{"lat":41.350819,"lon":14.36803},"country":"IT","name":"Piedimonte Matese"},{"_id":3174976,"coord":{"lat":42,"lon":12.5},"country":"IT","name":"Regione Lazio"},{"_id":3175057,"coord":{"lat":41.450001,"lon":13.1},"country":"IT","name":"Provincia di Latina"},{"_id":6541618,"coord":{"lat":41.410912,"lon":13.0441},"country":"IT","name":"Pontinia"},{"_id":3173539,"coord":{"lat":41.383331,"lon":13.11667},"country":"IT","name":"Mesa"},{"_id":3169069,"coord":{"lat":41.966671,"lon":12.66667},"country":"IT","name":"Provincia di Roma"},{"_id":6536956,"coord":{"lat":41.860619,"lon":13.03309},"country":"IT","name":"Olevano Romano"},{"_id":3172074,"coord":{"lat":41.860619,"lon":13.03309},"country":"IT","name":"Olevano Romano"},{"_id":6539757,"coord":{"lat":42.100422,"lon":12.16617},"country":"IT","name":"Bracciano"},{"_id":3179676,"coord":{"lat":42.049999,"lon":12.11667},"country":"IT","name":"Castel Giuliano"},{"_id":6538684,"coord":{"lat":42.160931,"lon":12.78488},"country":"IT","name":"Nerola"},{"_id":3172303,"coord":{"lat":42.160931,"lon":12.78488},"country":"IT","name":"Nerola"},{"_id":3183560,"coord":{"lat":42.25,"lon":13.75},"country":"IT","name":"Regione Abruzzo"},{"_id":3175120,"coord":{"lat":42.083328,"lon":13.66667},"country":"IT","name":"Provincia di L’Aquila"},{"_id":6542801,"coord":{"lat":42.290932,"lon":13.33799},"country":"IT","name":"Lucoli"},{"_id":6536921,"coord":{"lat":42.301231,"lon":12.58977},"country":"IT","name":"Forano"},{"_id":3176772,"coord":{"lat":42.301231,"lon":12.58977},"country":"IT","name":"Forano"},{"_id":6537438,"coord":{"lat":42.43214,"lon":13.31169},"country":"IT","name":"Pizzoli"},{"_id":3170590,"coord":{"lat":42.43214,"lon":13.31169},"country":"IT","name":"Pizzoli"},{"_id":3165361,"coord":{"lat":43.416672,"lon":11},"country":"IT","name":"Regione Toscana"},{"_id":3175784,"coord":{"lat":42.833328,"lon":11.25},"country":"IT","name":"Provincia di Grosseto"},{"_id":6536859,"coord":{"lat":42.587921,"lon":11.51625},"country":"IT","name":"Manciano"},{"_id":3175350,"coord":{"lat":42.51667,"lon":11.46667},"country":"IT","name":"La Capriola"},{"_id":3165802,"coord":{"lat":42.650002,"lon":13.68333},"country":"IT","name":"Provincia di Teramo"},{"_id":6536352,"coord":{"lat":42.58794,"lon":13.48959},"country":"IT","name":"Crognaleto"},{"_id":3168316,"coord":{"lat":42.583328,"lon":13.51667},"country":"IT","name":"San Giorgio"},{"_id":6541868,"coord":{"lat":42.77142,"lon":11.10794},"country":"IT","name":"Grosseto"},{"_id":3182493,"coord":{"lat":42.811138,"lon":11.13859},"country":"IT","name":"Bagno Roselle"},{"_id":3165048,"coord":{"lat":43,"lon":12.5},"country":"IT","name":"Regione Umbria"},{"_id":3171179,"coord":{"lat":43.049999,"lon":12.55},"country":"IT","name":"Provincia di Perugia"},{"_id":3171434,"coord":{"lat":42.966671,"lon":12.68333},"country":"IT","name":"Pasciana"},{"_id":6542125,"coord":{"lat":43.096741,"lon":12.38286},"country":"IT","name":"Perugia"},{"_id":7290471,"coord":{"lat":43.08873,"lon":12.3216},"country":"IT","name":"Ellera"},{"_id":3166546,"coord":{"lat":43.216671,"lon":11.4},"country":"IT","name":"Provincia di Siena"},{"_id":6538605,"coord":{"lat":43.18774,"lon":11.66754},"country":"IT","name":"Trequanda"},{"_id":3172660,"coord":{"lat":43.150002,"lon":11.66667},"country":"IT","name":"Montisi"},{"_id":6540486,"coord":{"lat":43.170238,"lon":11.77944},"country":"IT","name":"Torrita di Siena"},{"_id":3165381,"coord":{"lat":43.170238,"lon":11.77944},"country":"IT","name":"Torrita di Siena"},{"_id":3174004,"coord":{"lat":43.5,"lon":13.25},"country":"IT","name":"Regione Marche"},{"_id":3174379,"coord":{"lat":43.200001,"lon":13.16667},"country":"IT","name":"Provincia di Macerata"},{"_id":6541845,"coord":{"lat":43.31646,"lon":13.58848},"country":"IT","name":"Morrovalle"},{"_id":7535964,"coord":{"lat":43.274578,"lon":13.59369},"country":"IT","name":"Trodica"},{"_id":6541647,"coord":{"lat":43.235142,"lon":11.57634},"country":"IT","name":"Asciano"},{"_id":3164494,"coord":{"lat":43.26667,"lon":11.5},"country":"IT","name":"Vescona"},{"_id":6541111,"coord":{"lat":43.35445,"lon":12.57246},"country":"IT","name":"Gubbio"},{"_id":3180930,"coord":{"lat":43.333328,"lon":12.41667},"country":"IT","name":"Campo Reggiano"},{"_id":3183087,"coord":{"lat":43.549999,"lon":13.16667},"country":"IT","name":"Provincia di Ancona"},{"_id":6542126,"coord":{"lat":43.59816,"lon":13.51008},"country":"IT","name":"Ancona"},{"_id":3170798,"coord":{"lat":43.602242,"lon":13.53887},"country":"IT","name":"Pietra la Croce"},{"_id":3170646,"coord":{"lat":43.416672,"lon":10.71667},"country":"IT","name":"Provincia di Pisa"},{"_id":6538580,"coord":{"lat":43.62384,"lon":10.62911},"country":"IT","name":"Ponsacco"},{"_id":3170321,"coord":{"lat":43.62384,"lon":10.62911},"country":"IT","name":"Ponsacco"},{"_id":3180343,"coord":{"lat":43.683331,"lon":10.46667},"country":"IT","name":"Casa Boulogne"},{"_id":6542091,"coord":{"lat":43.689941,"lon":10.81741},"country":"IT","name":"San Miniato"},{"_id":3176271,"coord":{"lat":43.716671,"lon":10.85},"country":"IT","name":"Gavena"},{"_id":3176958,"coord":{"lat":43.833328,"lon":11.33333},"country":"IT","name":"Provincia di Firenze"},{"_id":6542285,"coord":{"lat":43.786449,"lon":11.24892},"country":"IT","name":"Firenze"},{"_id":3176959,"coord":{"lat":43.76667,"lon":11.25},"country":"IT","name":"Firenze"},{"_id":6538549,"coord":{"lat":43.815739,"lon":10.67391},"country":"IT","name":"Altopascio"},{"_id":3183147,"coord":{"lat":43.815739,"lon":10.67391},"country":"IT","name":"Altopascio"},{"_id":3164231,"coord":{"lat":43.833328,"lon":12.35},"country":"IT","name":"Villagrande"},{"_id":6541643,"coord":{"lat":43.85125,"lon":10.66831},"country":"IT","name":"Montecarlo"},{"_id":3173008,"coord":{"lat":43.85125,"lon":10.66831},"country":"IT","name":"Montecarlo"},{"_id":3172828,"coord":{"lat":43.92165,"lon":11.03112},"country":"IT","name":"Montemurlo"},{"_id":3166920,"coord":{"lat":43.966671,"lon":11.1},"country":"IT","name":"Schignano"},{"_id":6536810,"coord":{"lat":43.978951,"lon":10.5457},"country":"IT","name":"Borgo a Mozzano"},{"_id":6589202,"coord":{"lat":44.0116,"lon":10.52701},"country":"IT","name":"Gioviano"},{"_id":3174725,"coord":{"lat":44.5,"lon":8.83333},"country":"IT","name":"Regione Liguria"},{"_id":3167021,"coord":{"lat":44.299999,"lon":8.26667},"country":"IT","name":"Provincia di Savona"},{"_id":3177401,"coord":{"lat":44.75,"lon":11},"country":"IT","name":"Regione Emilia-Romagna"},{"_id":6457404,"coord":{"lat":44.024052,"lon":12.51858},"country":"IT","name":"Provincia di Rimini"},{"_id":6541863,"coord":{"lat":44.068371,"lon":12.55565},"country":"IT","name":"Rimini"},{"_id":3215203,"coord":{"lat":44.04306,"lon":12.51278},"country":"IT","name":"Vergiano"},{"_id":6540301,"coord":{"lat":44.063568,"lon":12.44874},"country":"IT","name":"Santarcangelo di Romagna"},{"_id":3167373,"coord":{"lat":44.063259,"lon":12.44657},"country":"IT","name":"SantArcangelo di Romagna"},{"_id":6541879,"coord":{"lat":44.12125,"lon":10.4046},"country":"IT","name":"Castelnuovo di Garfagnana"},{"_id":3179523,"coord":{"lat":44.12125,"lon":10.4046},"country":"IT","name":"Castelnuovo di Garfagnana"},{"_id":3181832,"coord":{"lat":44.11187,"lon":8.24129},"country":"IT","name":"Borghetto Santo Spirito"},{"_id":3174649,"coord":{"lat":44.127769,"lon":8.25743},"country":"IT","name":"Loano"},{"_id":3214783,"coord":{"lat":44.12722,"lon":12.17694},"country":"IT","name":"Lizzano"},{"_id":6535947,"coord":{"lat":44.138569,"lon":12.46934},"country":"IT","name":"Bellaria-Igea Marina"},{"_id":3180251,"coord":{"lat":44.15099,"lon":12.44682},"country":"IT","name":"Casa la Torretta"},{"_id":3170831,"coord":{"lat":45,"lon":8},"country":"IT","name":"Regione Piemonte"},{"_id":3177699,"coord":{"lat":44.51667,"lon":7.56667},"country":"IT","name":"Provincia di Cuneo"},{"_id":6538164,"coord":{"lat":44.245029,"lon":7.53383},"country":"IT","name":"Vernante"},{"_id":3171659,"coord":{"lat":44.200001,"lon":7.48333},"country":"IT","name":"Palanfrè"},{"_id":3169560,"coord":{"lat":44.416672,"lon":11.98333},"country":"IT","name":"Provincia di Ravenna"},{"_id":6541043,"coord":{"lat":44.22506,"lon":11.62512},"country":"IT","name":"Casola Valsenio"},{"_id":3179830,"coord":{"lat":44.22506,"lon":11.62512},"country":"IT","name":"Casola Valsenio"},{"_id":6537055,"coord":{"lat":44.228531,"lon":8.41405},"country":"IT","name":"Spotorno"},{"_id":3166228,"coord":{"lat":44.226379,"lon":8.41647},"country":"IT","name":"Spotorno"},{"_id":3175080,"coord":{"lat":44.25,"lon":9.7},"country":"IT","name":"Provincia di La Spezia"},{"_id":6541516,"coord":{"lat":44.218941,"lon":9.51898},"country":"IT","name":"Deiva Marina"},{"_id":3170904,"coord":{"lat":44.233849,"lon":9.55862},"country":"IT","name":"Piazza"},{"_id":6540121,"coord":{"lat":44.416969,"lon":12.19873},"country":"IT","name":"Ravenna"},{"_id":3215249,"coord":{"lat":44.270531,"lon":12.21405},"country":"IT","name":"San Zaccaria"},{"_id":6541659,"coord":{"lat":44.269138,"lon":8.43375},"country":"IT","name":"Vado Ligure"},{"_id":3164988,"coord":{"lat":44.269138,"lon":8.43375},"country":"IT","name":"Vado Ligure"},{"_id":6540558,"coord":{"lat":44.292542,"lon":8.41265},"country":"IT","name":"Quiliano"},{"_id":3169670,"coord":{"lat":44.292542,"lon":8.41265},"country":"IT","name":"Quiliano"},{"_id":3176217,"coord":{"lat":44.5,"lon":9.06667},"country":"IT","name":"Province of Genoa"},{"_id":6536092,"coord":{"lat":44.320141,"lon":9.32197},"country":"IT","name":"Chiavari"},{"_id":3224723,"coord":{"lat":44.330559,"lon":9.34583},"country":"IT","name":"Caperana"},{"_id":6541514,"coord":{"lat":44.34864,"lon":8.54395},"country":"IT","name":"Celle Ligure"},{"_id":6538141,"coord":{"lat":44.36483,"lon":7.64673},"country":"IT","name":"Beinette"},{"_id":3182244,"coord":{"lat":44.36483,"lon":7.64673},"country":"IT","name":"Beinette"},{"_id":6536752,"coord":{"lat":44.465069,"lon":11.95713},"country":"IT","name":"Fusignano"},{"_id":3176467,"coord":{"lat":44.465069,"lon":11.95713},"country":"IT","name":"Fusignano"},{"_id":6542361,"coord":{"lat":44.46764,"lon":8.08824},"country":"IT","name":"Mombarcaro"},{"_id":3174468,"coord":{"lat":44.48333,"lon":8.06667},"country":"IT","name":"Lunetta"},{"_id":3173501,"coord":{"lat":44.467499,"lon":12.08694},"country":"IT","name":"Mezzano"},{"_id":3169524,"coord":{"lat":44.616669,"lon":10.61667},"country":"IT","name":"Provincia di Reggio Emilia"},{"_id":6538437,"coord":{"lat":44.455959,"lon":10.51969},"country":"IT","name":"Carpineti"},{"_id":3181927,"coord":{"lat":44.466671,"lon":11.43333},"country":"IT","name":"Provincia di Bologna"},{"_id":6541998,"coord":{"lat":44.506569,"lon":11.35041},"country":"IT","name":"Bologna"},{"_id":3167356,"coord":{"lat":44.5,"lon":11.31667},"country":"IT","name":"Santa Viola"},{"_id":3176631,"coord":{"lat":44.48333,"lon":11.38333},"country":"IT","name":"Fossolo"},{"_id":3167624,"coord":{"lat":44.541672,"lon":12.13417},"country":"IT","name":"Sant’Alberto"},{"_id":3183298,"coord":{"lat":44.816669,"lon":8.7},"country":"IT","name":"Provincia di Alessandria"},{"_id":6543533,"coord":{"lat":44.639252,"lon":8.75615},"country":"IT","name":"Mornese"},{"_id":6535552,"coord":{"lat":44.639252,"lon":8.75615},"country":"IT","name":"Mornese"},{"_id":6538475,"coord":{"lat":44.639969,"lon":11.18411},"country":"IT","name":"San Giovanni in Persiceto"},{"_id":3168239,"coord":{"lat":44.639969,"lon":11.18411},"country":"IT","name":"San Giovanni in Persiceto"},{"_id":3169522,"coord":{"lat":44.69825,"lon":10.63125},"country":"IT","name":"Reggio nellEmilia"},{"_id":3177088,"coord":{"lat":44.799999,"lon":11.83333},"country":"IT","name":"Provincia di Ferrara"},{"_id":3177090,"coord":{"lat":44.826778,"lon":11.62071},"country":"IT","name":"Ferrara"},{"_id":3165523,"coord":{"lat":45.133331,"lon":7.36667},"country":"IT","name":"Provincia di Torino"},{"_id":3180496,"coord":{"lat":44.847038,"lon":7.71803},"country":"IT","name":"Carmagnola"},{"_id":3179199,"coord":{"lat":44.883331,"lon":9.75},"country":"IT","name":"Celleri"},{"_id":6537287,"coord":{"lat":45.026138,"lon":7.44812},"country":"IT","name":"Sangano"},{"_id":3168350,"coord":{"lat":45.026138,"lon":7.44812},"country":"IT","name":"Sangano"},{"_id":3165525,"coord":{"lat":45.049999,"lon":7.66667},"country":"IT","name":"Torino"},{"_id":3181770,"coord":{"lat":45.049999,"lon":7.7},"country":"IT","name":"Borgo Po"},{"_id":6541794,"coord":{"lat":45.047039,"lon":7.34922},"country":"IT","name":"Giaveno"},{"_id":3176130,"coord":{"lat":45.047039,"lon":7.34922},"country":"IT","name":"Giaveno"},{"_id":3171058,"coord":{"lat":45.046761,"lon":9.69937},"country":"IT","name":"Piacenza"},{"_id":6536051,"coord":{"lat":45.112438,"lon":7.23841},"country":"IT","name":"Villar Focchiardo"},{"_id":3164154,"coord":{"lat":45.112438,"lon":7.23841},"country":"IT","name":"Villar Focchiardo"},{"_id":6540631,"coord":{"lat":45.114658,"lon":8.66444},"country":"IT","name":"Sartirana Lomellina"},{"_id":3167108,"coord":{"lat":45.114658,"lon":8.66444},"country":"IT","name":"Sartirana Lomellina"},{"_id":3174050,"coord":{"lat":45.166672,"lon":10.78333},"country":"IT","name":"Provincia di Mantova"},{"_id":3177837,"coord":{"lat":45.23333,"lon":9.93333},"country":"IT","name":"Provincia di Cremona"},{"_id":6541851,"coord":{"lat":45.136169,"lon":10.02797},"country":"IT","name":"Cremona"},{"_id":3168397,"coord":{"lat":45.133331,"lon":10.06667},"country":"IT","name":"San Felice"},{"_id":6540101,"coord":{"lat":45.137539,"lon":7.05461},"country":"IT","name":"Susa"},{"_id":3168226,"coord":{"lat":45.133331,"lon":7.08333},"country":"IT","name":"San Giuliano"},{"_id":3164604,"coord":{"lat":45.5,"lon":11.75},"country":"IT","name":"Regione Veneto"},{"_id":3164526,"coord":{"lat":45.416672,"lon":11.03333},"country":"IT","name":"Provincia di Verona"},{"_id":6539638,"coord":{"lat":45.183182,"lon":11.3091},"country":"IT","name":"Legnago"},{"_id":3174922,"coord":{"lat":45.183182,"lon":11.3091},"country":"IT","name":"Legnago"},{"_id":3171727,"coord":{"lat":45.349998,"lon":11.81667},"country":"IT","name":"Provincia di Padova"},{"_id":6542671,"coord":{"lat":45.217388,"lon":11.516},"country":"IT","name":"Megliadino San Fidenzio"},{"_id":3169217,"coord":{"lat":45.23333,"lon":11.51667},"country":"IT","name":"Roaro"},{"_id":3181553,"coord":{"lat":45.633331,"lon":10.3},"country":"IT","name":"Provincia di Brescia"},{"_id":6540619,"coord":{"lat":45.242668,"lon":10.17797},"country":"IT","name":"Seniga"},{"_id":3166741,"coord":{"lat":45.242668,"lon":10.17797},"country":"IT","name":"Seniga"},{"_id":6541821,"coord":{"lat":45.20779,"lon":12.29302},"country":"IT","name":"Chioggia"},{"_id":6542654,"coord":{"lat":45.25787,"lon":9.20115},"country":"IT","name":"Zeccone"},{"_id":6534606,"coord":{"lat":45.25787,"lon":9.20115},"country":"IT","name":"Zeccone"},{"_id":6458617,"coord":{"lat":45.296379,"lon":9.52858},"country":"IT","name":"Provincia di Lodi"},{"_id":6543354,"coord":{"lat":45.274971,"lon":9.52636},"country":"IT","name":"San Martino in Strada"},{"_id":6535371,"coord":{"lat":45.274971,"lon":9.52636},"country":"IT","name":"San Martino in Strada"},{"_id":6540373,"coord":{"lat":45.26228,"lon":10.56958},"country":"IT","name":"Ceresara"},{"_id":3182015,"coord":{"lat":45.283329,"lon":10.56667},"country":"IT","name":"Birbesi"},{"_id":3173434,"coord":{"lat":45.5,"lon":9.5},"country":"IT","name":"Province of Milan"},{"_id":6536513,"coord":{"lat":45.324267999999996,"lon":9.13905},"country":"IT","name":"Lacchiarella"},{"_id":3164214,"coord":{"lat":45.316669,"lon":9.16667},"country":"IT","name":"Villamaggiore"},{"_id":6540114,"coord":{"lat":45.313568,"lon":9.50286},"country":"IT","name":"Lodi"},{"_id":3174638,"coord":{"lat":45.313568,"lon":9.50286},"country":"IT","name":"Lodi"},{"_id":3164564,"coord":{"lat":45.331879,"lon":8.41415},"country":"IT","name":"Provincia di Vercelli"},{"_id":6540116,"coord":{"lat":45.323059,"lon":8.41533},"country":"IT","name":"Vercelli"},{"_id":3175104,"coord":{"lat":45.299999,"lon":8.38333},"country":"IT","name":"Larizzate"},{"_id":6540640,"coord":{"lat":45.358768,"lon":9.66826},"country":"IT","name":"Crema"},{"_id":3177841,"coord":{"lat":45.358768,"lon":9.66826},"country":"IT","name":"Crema"},{"_id":6540393,"coord":{"lat":45.406898,"lon":12.01691},"country":"IT","name":"Stra"},{"_id":3218996,"coord":{"lat":45.410561,"lon":12.05083},