{"countryCityList":[{"_id":250199,"coord":{"lat":30.75,"lon":35.583328},"country":"JO","name":"Muḩāfaz̧at aţ Ţafīlah"},{"_id":250420,"coord":{"lat":32.306301,"lon":35.756531},"country":"JO","name":"Anjarah"},{"_id":248380,"coord":{"lat":30.33333,"lon":36.583328},"country":"JO","name":"Muḩāfaz̧at Ma‘ān"},{"_id":246314,"coord":{"lat":31.88542,"lon":35.854301},"country":"JO","name":"Umm as Summaq"},{"_id":247105,"coord":{"lat":31.87207,"lon":36.005009},"country":"JO","name":"Sahab"},{"_id":443123,"coord":{"lat":31.58333,"lon":35.666672},"country":"JO","name":"Muḩāfaz̧at Mādabā"},{"_id":248370,"coord":{"lat":31.716669,"lon":35.799999},"country":"JO","name":"Madaba"},{"_id":248414,"coord":{"lat":32.27639,"lon":35.59938},"country":"JO","name":"Kurayyimah"},{"_id":248875,"coord":{"lat":32.280819,"lon":35.899288},"country":"JO","name":"Jarash"},{"_id":250625,"coord":{"lat":31.16667,"lon":35.75},"country":"JO","name":"Muḩāfaz̧at al Karak"},{"_id":248923,"coord":{"lat":31.15889,"lon":35.69278},"country":"JO","name":"Izra"},{"_id":250092,"coord":{"lat":31.83333,"lon":36.833328},"country":"JO","name":"Muḩāfaz̧at az Zarqā’"},{"_id":250090,"coord":{"lat":32.07275,"lon":36.087959},"country":"JO","name":"Az Zarqa"},{"_id":250152,"coord":{"lat":32.507221,"lon":35.857498},"country":"JO","name":"Aydun"},{"_id":250336,"coord":{"lat":32.55917,"lon":36.006939},"country":"JO","name":"Ar Ramtha"},{"_id":250461,"coord":{"lat":31.9167,"lon":35.950001},"country":"JO","name":"Al Quwaysimah"},{"_id":250582,"coord":{"lat":32.342892,"lon":36.208038},"country":"JO","name":"Al Mafraq"},{"_id":250637,"coord":{"lat":32.02581,"lon":35.864578},"country":"JO","name":"Al Jubayhah"},{"_id":6946409,"coord":{"lat":31.163679,"lon":35.762039},"country":"JO","name":"Karak City"},{"_id":7838895,"coord":{"lat":32.01778,"lon":36.046391},"country":"JO","name":"Russeifa"},{"_id":250583,"coord":{"lat":32.333328,"lon":37.916672},"country":"JO","name":"Muḩāfaz̧at al Mafraq"},{"_id":248311,"coord":{"lat":32.193501,"lon":37.12513},"country":"JO","name":"Maḩaţţat al Ḩafīf"},{"_id":248055,"coord":{"lat":32.466671,"lon":38.033329},"country":"JO","name":"Miqţ"},{"_id":250198,"coord":{"lat":30.837521,"lon":35.60442},"country":"JO","name":"At Tafilah"},{"_id":250799,"coord":{"lat":32.333851,"lon":35.75238},"country":"JO","name":"Ajlun"},{"_id":248816,"coord":{"lat":31,"lon":36},"country":"JO","name":"Hashemite Kingdom of Jordan"},{"_id":246013,"coord":{"lat":31.95126,"lon":35.81979},"country":"JO","name":"Wadi as Sir"},{"_id":250439,"coord":{"lat":31.583691,"lon":36.333351},"country":"JO","name":"Muḩāfaz̧at `Ammān"},{"_id":250441,"coord":{"lat":31.955219,"lon":35.94503},"country":"JO","name":"Amman"},{"_id":248944,"coord":{"lat":32.5,"lon":35.833328},"country":"JO","name":"Irbid"},{"_id":248946,"coord":{"lat":32.555561,"lon":35.849998},"country":"JO","name":"Irbid"},{"_id":250624,"coord":{"lat":31.18248,"lon":35.699989},"country":"JO","name":"Qir Moav"},{"_id":250751,"coord":{"lat":32,"lon":35.666672},"country":"JO","name":"Muḩāfaz̧at al Balqā’"},{"_id":250258,"coord":{"lat":32.039169,"lon":35.727219},"country":"JO","name":"As Salt"},{"_id":250303,"coord":{"lat":30.179291,"lon":35.762859},"country":"JO","name":"isfīr al Maḩaṭṭah"},{"_id":250085,"coord":{"lat":32.378719,"lon":36.295952},"country":"JO","name":"Az Zubaydīyah"},{"_id":443122,"coord":{"lat":29.75,"lon":35.333328},"country":"JO","name":"Muḩāfaz̧at al ‘Aqabah"},{"_id":7031355,"coord":{"lat":29.557159,"lon":35.001839},"country":"JO","name":"Tall al Khalīfah"},{"_id":248174,"coord":{"lat":31.98333,"lon":35.98333},"country":"JO","name":"Mārkā"},{"_id":250639,"coord":{"lat":31.69968,"lon":35.957211},"country":"JO","name":"Al Jizah"},{"_id":250774,"coord":{"lat":29.52667,"lon":35.007778},"country":"JO","name":"Aqaba"},{"_id":245915,"coord":{"lat":32.566669,"lon":35.7775},"country":"JO","name":"Zahar"},{"_id":245939,"coord":{"lat":31.978451,"lon":35.694729},"country":"JO","name":"Yarqa"},{"_id":245989,"coord":{"lat":32.542702,"lon":35.605331},"country":"JO","name":"Waqqas"},{"_id":246008,"coord":{"lat":30.32221,"lon":35.479328},"country":"JO","name":"Petra"},{"_id":246202,"coord":{"lat":32.653481,"lon":35.685398},"country":"JO","name":"Umm Qays"},{"_id":246345,"coord":{"lat":32.315632,"lon":36.62944},"country":"JO","name":"Umm al Qittayn"},{"_id":246522,"coord":{"lat":32.475552,"lon":35.728439},"country":"JO","name":"Tibnah"},{"_id":246725,"coord":{"lat":32.313721,"lon":35.837132},"country":"JO","name":"Suf"},{"_id":247015,"coord":{"lat":32.57103,"lon":35.69025},"country":"JO","name":"Samma"},{"_id":247061,"coord":{"lat":32.569439,"lon":35.911942},"country":"JO","name":"Sal"},{"_id":247068,"coord":{"lat":32.283298,"lon":35.80946},"country":"JO","name":"Sakib"},{"_id":247074,"coord":{"lat":32.36805,"lon":35.846561},"country":"JO","name":"Sakhrah"},{"_id":247103,"coord":{"lat":32.69833,"lon":35.776112},"country":"JO","name":"Saham"},{"_id":247176,"coord":{"lat":32.329651,"lon":36.50098},"country":"JO","name":"Sabha"},{"_id":247340,"coord":{"lat":32.28339,"lon":35.825321},"country":"JO","name":"Raymun"},{"_id":247496,"coord":{"lat":32.571339,"lon":35.732689},"country":"JO","name":"Qumaym"},{"_id":247659,"coord":{"lat":32.348309,"lon":35.939499},"country":"JO","name":"Qafqafa"},{"_id":248250,"coord":{"lat":32.673809,"lon":35.75013},"country":"JO","name":"Malka"},{"_id":248434,"coord":{"lat":32.43832,"lon":35.89563},"country":"JO","name":"Kitim"},{"_id":248627,"coord":{"lat":32.65873,"lon":35.886971},"country":"JO","name":"Kharja"},{"_id":248719,"coord":{"lat":32.683331,"lon":35.799999},"country":"JO","name":"Kafr Sawm"},{"_id":248734,"coord":{"lat":32.598282,"lon":35.712399},"country":"JO","name":"Kafr Asad"},{"_id":248738,"coord":{"lat":32.417549,"lon":35.66938},"country":"JO","name":"Kafr Abil"},{"_id":248803,"coord":{"lat":32.407921,"lon":35.708019},"country":"JO","name":"Judayta"},{"_id":248843,"coord":{"lat":31.85247,"lon":35.939281},"country":"JO","name":"Jawa"},{"_id":249184,"coord":{"lat":32.645191,"lon":35.777222},"country":"JO","name":"Hatim"},{"_id":249310,"coord":{"lat":32.38464,"lon":35.661469},"country":"JO","name":"Halawah"},{"_id":249318,"coord":{"lat":32.594452,"lon":35.884109},"country":"JO","name":"Hakama"},{"_id":249676,"coord":{"lat":32.491161,"lon":35.798729},"country":"JO","name":"Dayr Yusuf"},{"_id":249842,"coord":{"lat":30.7376,"lon":35.60775},"country":"JO","name":"Busayra"},{"_id":249849,"coord":{"lat":32.219898,"lon":35.783939},"country":"JO","name":"Burma"},{"_id":249930,"coord":{"lat":32.517368,"lon":35.7883},"country":"JO","name":"Bayt Yafa"},{"_id":249933,"coord":{"lat":32.437599,"lon":35.69836},"country":"JO","name":"Bayt Idis"},{"_id":250052,"coord":{"lat":32.388062,"lon":35.935051},"country":"JO","name":"Balila"},{"_id":250106,"coord":{"lat":31.133329,"lon":35.640831},"country":"JO","name":"Ayy"},{"_id":250124,"coord":{"lat":32.335289,"lon":35.76189},"country":"JO","name":"Ayn Janna"},{"_id":250179,"coord":{"lat":32.641392,"lon":35.99194},"country":"JO","name":"At Turrah"},{"_id":250186,"coord":{"lat":32.541672,"lon":35.716942},"country":"JO","name":"At Tayyibah"},{"_id":250187,"coord":{"lat":31.056721,"lon":35.601681},"country":"JO","name":"At Tayyibah"},{"_id":250188,"coord":{"lat":30.256611,"lon":35.459969},"country":"JO","name":"At Tayyibah"},{"_id":250294,"coord":{"lat":32.644562,"lon":35.940971},"country":"JO","name":"Ash Shajarah"},{"_id":250345,"coord":{"lat":31.26923,"lon":35.738289},"country":"JO","name":"Ar Rabbah"},{"_id":250462,"coord":{"lat":29.800449,"lon":35.3116},"country":"JO","name":"Al Quwayrah"},{"_id":250487,"coord":{"lat":31.31444,"lon":35.744999},"country":"JO","name":"Al Qasr"},{"_id":250540,"coord":{"lat":31.065559,"lon":35.69611},"country":"JO","name":"Al Mazar"},{"_id":250603,"coord":{"lat":32.276852,"lon":35.841141},"country":"JO","name":"Al Kittah"},{"_id":250623,"coord":{"lat":31.952221,"lon":35.57917},"country":"JO","name":"Al Karamah"},{"_id":250649,"coord":{"lat":30.294559,"lon":36.212151},"country":"JO","name":"Al Jafr"},{"_id":250697,"coord":{"lat":32.440609,"lon":36.151211},"country":"JO","name":"Al Hamra"},{"_id":250738,"coord":{"lat":31.89299,"lon":35.893139},"country":"JO"