{"countryCityList":[{"_id":1861387,"coord":{"lat":36.77145,"lon":136.770493},"country":"JP","name":"Ishikawa-ken"},{"_id":1857578,"coord":{"lat":34.25,"lon":133.949997},"country":"JP","name":"Matoba"},{"_id":1861060,"coord":{"lat":35.68536,"lon":139.753098},"country":"JP","name":"Japan"},{"_id":2130037,"coord":{"lat":43.06451,"lon":141.346603},"country":"JP","name":"Hokkaidō"},{"_id":2130135,"coord":{"lat":40.816669,"lon":140.75},"country":"JP","name":"Hashimoto"},{"_id":2110681,"coord":{"lat":36.083328,"lon":140.116669},"country":"JP","name":"Tsukuba-kenkyūgakuen-toshi"},{"_id":1862845,"coord":{"lat":35.466671,"lon":133.066666},"country":"JP","name":"Higashi-asahimachi"},{"_id":1863250,"coord":{"lat":32.799999,"lon":130.699997},"country":"JP","name":"Hanabatachō"},{"_id":1852699,"coord":{"lat":34.383331,"lon":131.199997},"country":"JP","name":"Senzaki"},{"_id":1853163,"coord":{"lat":36.466671,"lon":138.183334},"country":"JP","name":"Sakaki"},{"_id":1864427,"coord":{"lat":35.383331,"lon":133.533325},"country":"JP","name":"Daisen"},{"_id":1861816,"coord":{"lat":34.833328,"lon":134.583328},"country":"JP","name":"Ikaruga"},{"_id":1857451,"coord":{"lat":34.75,"lon":138.783325},"country":"JP","name":"Matsuzaki"},{"_id":2128894,"coord":{"lat":42.451389,"lon":141.173065},"country":"JP","name":"Noboribetsu"},{"_id":1850144,"coord":{"lat":35.689499,"lon":139.691711},"country":"JP","name":"Tōkyō-to"},{"_id":1859472,"coord":{"lat":34.183331,"lon":135.199997},"country":"JP","name":"Kimiidera"},{"_id":1848382,"coord":{"lat":35.116261,"lon":136.197678},"country":"JP","name":"Youkaichi"},{"_id":1849154,"coord":{"lat":32.190559,"lon":130.022781},"country":"JP","name":"Ushibuka"},{"_id":1851357,"coord":{"lat":36.650002,"lon":138.316666},"country":"JP","name":"Suzaka"},{"_id":1851390,"coord":{"lat":33.366669,"lon":133.283325},"country":"JP","name":"Susaki"},{"_id":1851542,"coord":{"lat":31.65,"lon":131.016663},"country":"JP","name":"Sueyoshi"},{"_id":1852102,"coord":{"lat":34.549999,"lon":133.266663},"country":"JP","name":"Shinichi"},{"_id":1854028,"coord":{"lat":34.283329,"lon":132.266663},"country":"JP","name":"Ono"},{"_id":1862302,"coord":{"lat":34.049999,"lon":131.566666},"country":"JP","name":"Hofu"},{"_id":1863426,"coord":{"lat":26.336941,"lon":127.871941},"country":"JP","name":"Haebaru"},{"_id":2111401,"coord":{"lat":38.438332,"lon":141.449997},"country":"JP","name":"Onagawa Cho"},{"_id":2130075,"coord":{"lat":43.066669,"lon":141.916672},"country":"JP","name":"Hinode"},{"_id":1862047,"coord":{"lat":35.040321,"lon":134.825974},"country":"JP","name":"Hyōgo-ken"},{"_id":1856300,"coord":{"lat":34.966671,"lon":134.916672},"country":"JP","name":"Myōrakuji"},{"_id":1864226,"coord":{"lat":33.625801,"lon":132.854721},"country":"JP","name":"Ehime-ken"},{"_id":1926016,"coord":{"lat":33.803761,"lon":132.886414},"country":"JP","name":"Yokogawara"},{"_id":2110554,"coord":{"lat":38.450298,"lon":140.099701},"country":"JP","name":"Yamagata-ken"},{"_id":2114102,"coord":{"lat":38.433891,"lon":140.124176},"country":"JP","name":"Mazawa"},{"_id":1848681,"coord":{"lat":34.206081,"lon":131.570465},"country":"JP","name":"Yamaguchi-ken"},{"_id":1864470,"coord":{"lat":34.049999,"lon":131.483337},"country":"JP","name":"Daidō"},{"_id":1848649,"coord":{"lat":35.61602,"lon":138.608002},"country":"JP","name":"Yamanashi-ken"},{"_id":1861454,"coord":{"lat":35.650002,"lon":138.633331},"country":"JP","name":"Isawa"},{"_id":1865694,"coord":{"lat":35.180168,"lon":136.906555},"country":"JP","name":"Aichi-ken"},{"_id":1865110,"coord":{"lat":35.066669,"lon":136.966675},"country":"JP","name":"Arimatsu"},{"_id":2110608,"coord":{"lat":39.650002,"lon":140.216675},"country":"JP","name":"Wada"},{"_id":2112669,"coord":{"lat":36.310349,"lon":140.316147},"country":"JP","name":"Ibaraki-ken"},{"_id":1856472,"coord":{"lat":36.633331,"lon":136.633331},"country":"JP","name":"Mukai-awagasaki"},{"_id":1859181,"coord":{"lat":32.01667,"lon":131.283325},"country":"JP","name":"Kobaruyama"},{"_id":1852748,"coord":{"lat":32.700001,"lon":129.850006},"country":"JP","name":"Sembonyama"},{"_id":1856566,"coord":{"lat":33.400002,"lon":131.033325},"country":"JP","name":"Morizane"},{"_id":1852025,"coord":{"lat":33.566669,"lon":130.433334},"country":"JP","name":"Shiobaru"},{"_id":1854029,"coord":{"lat":33.98333,"lon":134.366669},"country":"JP","name":"Ono"},{"_id":1856207,"coord":{"lat":34.26667,"lon":134.166672},"country":"JP","name":"Nagao"},{"_id":1865721,"coord":{"lat":35.150002,"lon":136.516663},"country":"JP","name":"Ageki"},{"_id":1862978,"coord":{"lat":35.216671,"lon":139.633331},"country":"JP","name":"Hayashi"},{"_id":1860310,"coord":{"lat":35.283329,"lon":139.183334},"country":"JP","name":"Kamonomiya"},{"_id":1907255,"coord":{"lat":35.41806,"lon":139.255554},"country":"JP","name":"Koyasu"},{"_id":1907235,"coord":{"lat":35.422779,"lon":139.392776},"country":"JP","name":"Miyanomae"},{"_id":6419788,"coord":{"lat":35.453331,"lon":140.008331},"country":"JP","name":"Kubota"},{"_id":1852278,"coord":{"lat":35.566669,"lon":139.633331},"country":"JP","name":"Shimo-kodanaka"},{"_id":1864381,"coord":{"lat":35.583328,"lon":139.666672},"country":"JP","name":"Denenchōfu"},{"_id":1855301,"coord":{"lat":35.583328,"lon":138.533325},"country":"JP","name":"Nishi-hanawa"},{"_id":1907157,"coord":{"lat":35.606392,"lon":139.143066},"country":"JP","name":"Fujino"},{"_id":1865090,"coord":{"lat":35.700001,"lon":139.649994},"country":"JP","name":"Asagaya"},{"_id":1864231,"coord":{"lat":35.73333,"lon":139.666672},"country":"JP","name":"Egotamachi"},{"_id":1864878,"coord":{"lat":35.915611,"lon":136.239395},"country":"JP","name":"Awatabe"},{"_id":1854022,"coord":{"lat":35.98106,"lon":136.487274},"country":"JP","name":"Ono"},{"_id":2110809,"coord":{"lat":36.033329,"lon":140.116669},"country":"JP","name":"Tateno"},{"_id":1848119,"coord":{"lat":36.033329,"lon":138.233337},"country":"JP","name":"Yugawa"},{"_id":2111043,"coord":{"lat":36.333328,"lon":140.550003},"country":"JP","name":"Shiogasaki"},{"_id":2114152,"coord":{"lat":38.141941,"lon":140.533615},"country":"JP","name":"Aone"},{"_id":2112569,"coord":{"lat":39.383331,"lon":140.050003},"country":"JP","name":"Ishiwaki"},{"_id":2130204,"coord":{"lat":40.505001,"lon":141.491943},"country":"JP","name":"Hachinohe"},{"_id":2111258,"coord":{"lat":35.900002,"lon":140.183334},"country":"JP","name":"Ryugasaki"},{"_id":1849053,"coord":{"lat":36.56583,"lon":139.883606},"country":"JP","name":"Utsunomiya-shi"},{"_id":1854579,"coord":{"lat":34.5,"lon":136.833328},"country":"JP","name":"Ohama"},{"_id":1894616,"coord":{"lat":26.335831,"lon":127.801392},"country":"JP","name":"Okinawa"},{"_id":1862818,"coord":{"lat":37.916672,"lon":139.050003},"country":"JP","name":"Higashi-horidōri"},{"_id":2111220,"coord":{"lat":35.716671,"lon":140.233337},"country":"JP","name":"Sakura"},{"_id":1856717,"coord":{"lat":31.91111,"lon":131.423889},"country":"JP","name":"Miyazaki-shi"},{"_id":1860797,"coord":{"lat":34.666672,"lon":133.916672},"country":"JP","name":"Kaigandōri"},{"_id":1852524,"coord":{"lat":35.00378,"lon":135.763031},"country":"JP","name":"Shijōdōri"},{"_id":2112923,"coord":{"lat":37.75,"lon":140.467773},"country":"JP","name":"Fukushima-shi"},{"_id":1856697,"coord":{"lat":35.083328,"lon":137.066666},"country":"JP","name":"Miyoshi"},{"_id":1856524,"coord":{"lat":35.150002,"lon":138.649994},"country":"JP","name":"Motoichiba"},{"_id":1849876,"coord":{"lat":36.695278,"lon":137.211395},"country":"JP","name":"Toyama-shi"},{"_id":1854629,"coord":{"lat":34.099998,"lon":131.399994},"country":"JP","name":"Ogori"},{"_id":1856900,"coord":{"lat":34.666672,"lon":135.833328},"country":"JP","name":"Mitsugarasuchō"},{"_id":1862415,"coord":{"lat":34.396271,"lon":132.459366},"country":"JP","name":"Hiroshima-shi"},{"_id":1860483,"coord":{"lat":34.400002,"lon":132.449997},"country":"JP","name":"Kami-nagarekawachō"},{"_id":1863130,"coord":{"lat":34.916672,"lon":137.149994},"country":"JP","name":"Harisakichō"},{"_id":1855891,"coord":{"lat":32.98333,"lon":132.933334},"country":"JP","name":"Nakamura"},{"_id":1863641,"coord":{"lat":35.422909,"lon":136.760391},"country":"JP","name":"Gifu-shi"},{"_id":1862197,"coord":{"lat":35.416672,"lon":136.75},"country":"JP","name":"Honjōchō"},{"_id":1853574,"coord":{"lat":35.00444,"lon":135.868332},"country":"JP","name":"Otsu-shi"},{"_id":2128295,"coord":{"lat":43.064171,"lon":141.346939},"country":"JP","name":"Sapporo-shi"},{"_id":2130658,"coord":{"lat":40.82444,"lon":140.740005},"country":"JP","name":"Aomori-shi"},{"_id":1857550,"coord":{"lat":35.472221,"lon":133.050568},"country":"JP","name":"Matsue-shi"},{"_id":1856789,"coord":{"lat":34.583328,"lon":135.550003},"country":"JP","name":"Miyake"},{"_id":1856177,"coord":{"lat":32.74472,"lon":129.873611},"country":"JP","name":"Nagasaki-shi"},{"_id":1862554,"coord":{"lat":32.75,"lon":129.866669},"country":"JP","name":"Hiradogoyamachi"},{"_id":1851100,"coord":{"lat":34.340279,"lon":134.043335},"country":"JP","name":"Takamatsu-shi"},{"_id":2128815,"coord":{"lat":42.917221,"lon":143.204437},"country":"JP","name":"Obihiro"},{"_id":1855863,"coord":{"lat":36.75,"lon":138.366669},"country":"JP","name":"Nakano"},{"_id":1863219,"coord":{"lat":36.549999,"lon":139.883331},"country":"JP","name":"Hanawadamachi"},{"_id":1855265,"coord":{"lat":35.650002,"lon":138.566666},"country":"JP","name":"Nishikichō"},{"_id":1852607,"coord":{"lat":37.950001,"lon":139.333328},"country":"JP","name":"Shibata"},{"_id":1853045,"coord":{"lat":33.549999,"lon":133.550003},"country":"JP","name":"Sambashidōri"},{"_id":1857594,"coord":{"lat":34.666672,"lon":131.850006},"country":"JP","name":"Masuda"},{"_id":1855944,"coord":{"lat":34.166672,"lon":131.483337},"country":"JP","name":"Nakaichi"},{"_id":1865103,"coord":{"lat":33.183331,"lon":129.899994},"country":"JP","name":"Arita"},{"_id":1863822,"coord":{"lat":34.73333,"lon":135.600006},"country":"JP","name":"Furukawabashi"},{"_id":1850314,"coord":{"lat":33.48333,"lon":129.933334},"country":"JP","name":"Tōbō"},{"_id":1857140,"coord":{"lat":35.73333,"lon":139.816666},"country":"JP","name":"Minami-senjumachi"},{"_id":1853188,"coord":{"lat":34.316669,"lon":133.850006},"country":"JP","name":"Sakaidechō"},{"_id":1863683,"coord":{"lat":26.25601,"lon":127.75351},"country":"JP","name":"Ganiko"},{"_id":1849519,"coord":{"lat":35.049999,"lon":134},"country":"JP","name":"Tsuyama"},{"_id":1850152,"coord":{"lat":34.049999,"lon":131.816666},"country":"JP","name":"Tokuyama"},{"_id":1926020,"coord":{"lat":33.223751,"lon":132.560013},"country":"JP","name":"Uwajima"},{"_id":1858296,"coord":{"lat":34.23333,"lon":132.566666},"country":"JP","name":"Kure"},{"_id":1856243,"coord":{"lat":35.383331,"lon":136.266663},"country":"JP","name":"Nagahama"},{"_id":1926108,"coord":{"lat":33.883331,"lon":133.116669},"country":"JP","name":"Komatsu"},{"_id":2114009,"coord":{"lat":38.926109,"lon":140.176392},"country":"JP","name":"Nishikawa"},{"_id":2128574,"coord":{"lat":43.189442,"lon":141.002213},"country":"JP","name":"Otaru"},{"_id":1849831,"coord":{"lat":35.533329,"lon":134.833328},"country":"JP","name":"Toyooka"},{"_id":1859492,"coord":{"lat":32.98333,"lon":130.816666},"country":"JP","name":"Kikuchi"},{"_id":1896348,"coord":{"lat":33.955002,"lon":131.949997},"country":"JP","name":"Hikari"},{"_id":1859908,"coord":{"lat":37.366669,"lon":138.550003},"country":"JP","name":"Kashiwazaki"},{"_id":2129163,"coord":{"lat":44.352501,"lon":143.352493},"country":"JP","name":"Mombetsu"},{"_id":1850523,"coord":{"lat":34.98333,"lon":139.866669},"country":"JP","name":"Tateyama"},{"_id":1848706,"coord":{"lat":33.466671,"lon":130.566666},"country":"JP","name":"Yamae"},{"_id":1849977,"coord":{"lat":35.23333,"lon":136.966675},"country":"JP","name":"Toriimatsu"},{"_id":2111127,"coord":{"lat":35.683331,"lon":140.433334},"country":"JP","name":"Shibayama"},{"_id":1852788,"coord":{"lat":35.366669,"lon":136.466675},"country":"JP","name":"Sekigahara"},{"_id":1858333,"coord":{"lat":35.450001,"lon":135.333328},"country":"JP","name":"Kuradani"},{"_id":1857922,"coord":{"lat":35.450001,"lon":135.333328},"country":"JP","name":"Kyōguchi"},{"_id":1864180,"coord":{"lat":35.700001,"lon":138.733337},"country":"JP","name":"Enzan"},{"_id":1849713,"coord":{"lat":34.75,"lon":135.416672},"country":"JP","name":"Tsukaguchi"},{"_id":2110774,"coord":{"lat":35.549999,"lon":140.366669},"country":"JP","name":"Togane"},{"_id":1863173,"coord":{"lat":36.166672,"lon":139.533325},"country":"JP","name":"Hanyu"},{"_id":1850708,"coord":{"lat":33.73333,"lon":135.366669},"country":"JP","name":"Tanabe"},{"_id":1863276,"coord":{"lat":33.883331,"lon":135.149994},"country":"JP","name":"Hamanose"},{"_id":1854444,"coord":{"lat":37.299999,"lon":138.800003},"country":"JP","name":"Ojiya"},{"_id":1861207,"coord":{"lat":35.283329,"lon":136.866669},"country":"JP","name":"Iwakura"},{"_id":1857089,"coord":{"lat":33.033329,"lon":130.449997},"country":"JP","name":"Minatomachi"},{"_id":1857343,"coord":{"lat":32.716671,"lon":130.800003},"country":"JP","name":"Mifune"},{"_id":1853662,"coord":{"lat":34.200001,"lon":132.216675},"country":"JP","name":"Otake"},{"_id":1859716,"coord":{"lat":34.23333,"lon":135.850006},"country":"JP","name":"Kawai"},{"_id":2128333,"coord":{"lat":42.121941,"lon":142.919174},"country":"JP","name":"Samani"},{"_id":2129447,"coord":{"lat":43.853329,"lon":144.459717},"country":"JP","name":"Koshimizu"},{"_id":2112370,"coord":{"lat":39.200001,"lon":141.116669},"country":"JP","name":"Kanegasaki"},{"_id":1855987,"coord":{"lat":35.066669,"lon":137.033325},"country":"JP","name":"Nakagawa"},{"_id":2110506,"coord":{"lat":39.299999,"lon":140.566666},"country":"JP","name":"Yokote"},{"_id":2128983,"coord":{"lat":44.350559,"lon":142.457779},"country":"JP","name":"Nayoro"},{"_id":1856434,"coord":{"lat":38.23333,"lon":139.483337},"country":"JP","name":"Murakami"},{"_id":1847996,"coord":{"lat":37.450001,"lon":138.850006},"country":"JP","name":"Zaōmachi"},{"_id":1860635,"coord":{"lat":35,"lon":135.583328},"country":"JP","name":"Kameoka"},{"_id":1850762,"coord":{"lat":38.033329,"lon":139.666672},"country":"JP","name":"Tamagawa"},{"_id":1858492,"coord":{"lat":34.283329,"lon":135.566666},"country":"JP","name":"Kudoyama"},{"_id":7302983,"coord":{"lat":34.733921,"lon":135.30719},"country":"JP","name":"芦屋"},{"_id":1861202,"coord":{"lat":34.783329,"lon":134.533325},"country":"JP","name":"Iwami"},{"_id":1853338,"coord":{"lat":35.946468,"lon":136.184982},"country":"JP","name":"Sabae"},{"_id":1851079,"coord":{"lat":32.816669,"lon":131.116669},"country":"JP","name":"Takamori"},{"_id":1861853,"coord":{"lat":35.299999,"lon":137.883331},"country":"JP","name":"Iijima"},{"_id":1862998,"coord":{"lat":35.450001,"lon":138.350006},"country":"JP","name":"Hayakawa"},{"_id":1855585,"coord":{"lat":35.75,"lon":138.733337},"country":"JP","name":"Narusawa"},{"_id":1854691,"coord":{"lat":36.01667,"lon":139},"country":"JP","name":"Ogano"},{"_id":2112455,"coord":{"lat":37.966671,"lon":140.783325},"country":"JP","name":"Kakuda"},{"_id":1849237,"coord":{"lat":36.799999,"lon":137.399994},"country":"JP","name":"Uozu"},{"_id":1861838,"coord":{"lat":36.849998,"lon":138.366669},"country":"JP","name":"Iiyama"},{"_id":1863917,"coord":{"lat":34.48333,"lon":133.366669},"country":"JP","name":"Fukuyama"},{"_id":1850892,"coord":{"lat":36.133331,"lon":137.25},"country":"JP","name":"Takayama"},{"_id":1849845,"coord":{"lat":34.816669,"lon":137.399994},"country":"JP","name":"Toyokawa"},{"_id":1853237,"coord":{"lat":32.950001,"lon":131.899994},"country":"JP","name":"Saiki"},{"_id":2113698,"coord":{"lat":38.51667,"lon":141.321671},"country":"JP","name":"Kahoku"},{"_id":1865485,"coord":{"lat":35.666672,"lon":139.783325},"country":"JP","name":"Akashichō"},{"_id":1848040,"coord":{"lat":35.666672,"lon":139.766663},"country":"JP","name":"Yūrakuchō"},{"_id":6415253,"coord":{"lat":35.65694,"lon":136.064438},"country":"JP","name":"Kawasaki"},{"_id":2112062,"coord":{"lat":39.283329,"lon":141.116669},"country":"JP","name":"Kurosawajiri"},{"_id":1855623,"coord":{"lat":34.599998,"lon":133.466675},"country":"JP","name":"Nanukaichi"},{"_id":2130705,"coord":{"lat":43.551392,"lon":142.053055},"country":"JP","name":"Akabira"},{"_id":1853412,"coord":{"lat":36.383331,"lon":139.066666},"country":"JP","name":"Renjakuchō"},{"_id":1860039,"coord":{"lat":37.429749,"lon":138.61879},"country":"JP","name":"Kariwa"},{"_id":1863475,"coord":{"lat":33.816669,"lon":130.699997},"country":"JP","name":"Habu"},{"_id":1851713,"coord":{"lat":34.849998,"lon":133.016663},"country":"JP","name":"Shobara"},{"_id":1856938,"coord":{"lat":35.416672,"lon":137.133331},"country":"JP","name":"Mitake"},{"_id":1858067,"coord":{"lat":35.01667,"lon":135.966675},"country":"JP","name":"Kusatsu"},{"_id":1864009,"coord":{"lat":35.299999,"lon":135.116669},"country":"JP","name":"Fukuchiyama"},{"_id":1850589,"coord":{"lat":31.48333,"lon":130.699997},"country":"JP","name":"Tarumizu"},{"_id":2128710,"coord":{"lat":43.849998,"lon":143.516663},"country":"JP","name":"Oku-ikutahara"},{"_id":2130700,"coord":{"lat":43.083328,"lon":140.817215},"country":"JP","name":"Akaigawa"},{"_id":1850217,"coord":{"lat":37.133331,"lon":138.766663},"country":"JP","name":"Tokamachi"},{"_id":1855363,"coord":{"lat":35.700001,"lon":138.449997},"country":"JP","name":"Nirasaki"},{"_id":2127586,"coord":{"lat":42.15556,"lon":142.783615},"country":"JP","name":"Urakawa"},{"_id":2128498,"coord":{"lat":43.869438,"lon":142.473892},"country":"JP","name":"Pippu"},{"_id":2128215,"coord":{"lat":43.90556,"lon":144.659439},"country":"JP","name":"Shari"},{"_id":1852984,"coord":{"lat":37.616669,"lon":138.949997},"country":"JP","name":"Sanjo"},{"_id":1854807,"coord":{"lat":32.816669,"lon":129.883331},"country":"JP","name":"Obita"},{"_id":2127652,"coord":{"lat":42.816669,"lon":143.533325},"country":"JP","name":"Toyokoro"},{"_id":2129387,"coord":{"lat":42.66806,"lon":140.306107},"country":"JP","name":"Kuromatsunai"},{"_id":1849347,"coord":{"lat":28.299999,"lon":129.233337},"country":"JP","name":"Uken"},{"_id":2130387,"coord":{"lat":44.054169,"lon":143.522217},"country":"JP","name":"Engaru"},{"_id":1848764,"coord":{"lat":34.616669,"lon":133.583328},"country":"JP","name":"Yakage"},{"_id":1863837,"coord":{"lat":26.368589,"lon":127.751106},"country":"JP","name":"Furugen"},{"_id":1856488,"coord":{"lat":33.666672,"lon":134.416672},"country":"JP","name":"Mugi"},{"_id":2130389,"coord":{"lat":44.707218,"lon":141.788895},"country":"JP","name":"Embetsu"},{"_id":2128139,"coord":{"lat":44.28944,"lon":142.636383},"country":"JP","name":"Shimokawa"},{"_id":1849073,"coord":{"lat":34.299999,"lon":133.816666},"country":"JP","name":"Utazu"},{"_id":1863866,"coord":{"lat":34.25,"lon":135.316666},"country":"JP","name":"Funato"},{"_id":1865312,"coord":{"lat":37.23333,"lon":136.899994},"country":"JP","name":"Anamizu"},{"_id":1848528,"coord":{"lat":34.066669,"lon":136.199997},"country":"JP","name":"Yanohama"},{"_id":1864894,"coord":{"lat":36.223091,"lon":136.192368},"country":"JP","name":"Awara"},{"_id":1854026,"coord":{"lat":34.849998,"lon":134.933334},"country":"JP","name":"Ono"},{"_id":2111559,"coord":{"lat":38.603329,"lon":140.401947},"country":"JP","name":"Obanazawa"},{"_id":2111325,"coord":{"lat":36.866669,"lon":140.033325},"country":"JP","name":"Otawara"},{"_id":1848705,"coord":{"lat":33.01667,"lon":130.683334},"country":"JP","name":"Yamaga"},{"_id":1926006,"coord":{"lat":33.751389,"lon":132.701385},"country":"JP","name":"Iyo"},{"_id":1926055,"coord":{"lat":33.5,"lon":132.550003},"country":"JP","name":"Ozu"},{"_id":2130106,"coord":{"lat":44.23333,"lon":141.783325},"country":"JP","name":"Higashikawa"},{"_id":1862752,"coord":{"lat":34.666672,"lon":135.583328},"country":"JP","name":"Higashi-ōsaka"},{"_id":2127545,"coord":{"lat":43.51667,"lon":142.050003},"country":"JP","name":"Utashinai"},{"_id":2128159,"coord":{"lat":43.006111,"lon":142.88472},"country":"JP","name":"Shimizu"},{"_id":2127731,"coord":{"lat":44.305279,"lon":141.654434},"country":"JP","name":"Tomamae"},{"_id":1848935,"coord":{"lat":34.799999,"lon":134.133331},"country":"JP","name":"Wake"},{"_id":1894619,"coord":{"lat":26.25444,"lon":127.70639},"country":"JP","name":"Urazoe"},{"_id":2129696,"coord":{"lat":43.138329,"lon":140.434433},"country":"JP","name":"Kamoenai"},{"_id":1861305,"coord":{"lat":34.01667,"lon":133.783325},"country":"JP","name":"Itano"},{"_id":1848194,"coord":{"lat":36.25,"lon":138.983337},"country":"JP","name":"Yoshii"},{"_id":1848498,"coord":{"lat":34.916672,"lon":134.966675},"country":"JP","name":"Yashiro"},{"_id":1848776,"coord":{"lat":36.799999,"lon":139.933334},"country":"JP","name":"Yaita"},{"_id":1848933,"coord":{"lat":34.066669,"lon":134.149994},"country":"JP","name":"Waki"},{"_id":1849367,"coord":{"lat":36.683331,"lon":139.966675},"country":"JP","name":"Ujiie"},{"_id":1849424,"coord":{"lat":32.900002,"lon":130.683334},"country":"JP","name":"Ueki"},{"_id":1849561,"coord":{"lat":33.240002,"lon":131.684433},"country":"JP","name":"Tsurusaki"},{"_id":1849814,"coord":{"lat":35.083328,"lon":137.149994},"country":"JP","name":"Toyota"},{"_id":1849817,"coord":{"lat":36.299911,"lon":137.901077},"country":"JP","name":"Toyoshina"},{"_id":1849850,"coord":{"lat":34.700001,"lon":136.933334},"country":"JP","name":"Toyohama"},{"_id":1850269,"coord":{"lat":32.833328,"lon":129.850006},"country":"JP","name":"Togitsu"},{"_id":1850405,"coord":{"lat":39.900002,"lon":139.966675},"country":"JP","name":"Tenno"},{"_id":1850627,"coord":{"lat":33.349998,"lon":130.683334},"country":"JP","name":"Tanushimaru"},{"_id":1850630,"coord":{"lat":36.366669,"lon":139.583328},"country":"JP","name":"Tanuma"},{"_id":1850742,"coord":{"lat":34.48333,"lon":133.949997},"country":"JP","name":"Tamano"},{"_id":1850834,"coord":{"lat":33.200001,"lon":130.016663},"country":"JP","name":"Takeo"},{"_id":1850872,"coord":{"lat":35.903931,"lon":136.16687},"country":"JP","name":"Takefu"},{"_id":1851012,"coord":{"lat":34.799358,"lon":135.356964},"country":"JP","name":"Takarazuka"},{"_id":1851170,"coord":{"lat":33.556702,"lon":131.445053},"country":"JP","name":"Bungo-Takada-shi"},{"_id":1851622,"coord":{"lat":35.25,"lon":136.716675},"country":"JP","name":"Sobue"},{"_id":1851711,"coord":{"lat":36.066669,"lon":139.600006},"country":"JP","name":"Shobu"},{"_id":1851935,"coord":{"lat":34.783329,"lon":134.716675},"country":"JP","name":"Shirahama"},{"_id":1851952,"coord":{"lat":37.033329,"lon":138.850006},"country":"JP","name":"Shiozawa"},{"_id":1852109,"coord":{"lat":33.716671,"lon":130.433334},"country":"JP","name":"Shingu"},{"_id":1852225,"coord":{"lat":33.950001,"lon":130.949997},"country":"JP","name":"Shimonoseki"},{"_id":1852561,"coord":{"lat":34.32333,"lon":134.173325},"country":"JP","name":"Shido"},{"_id":1852673,"coord":{"lat":33.150002,"lon":130.466675},"country":"JP","name":"Setaka"},{"_id":1853193,"coord":{"lat":36.099998,"lon":139.800003},"country":"JP","name":"Sakai"},{"_id":1853303,"coord":{"lat":33.249321,"lon":130.298798},"country":"JP","name":"Saga-shi"},{"_id":1853486,"coord":{"lat":34.599998,"lon":138.216675},"country":"JP","name":"Oyama"},{"_id":1853514,"coord":{"lat":34.066669,"lon":136.199997},"country":"JP","name":"Owase"},{"_id":1854177,"coord":{"lat":36.433331,"lon":139.283325},"country":"JP","name":"Omama"},{"_id":1854246,"coord":{"lat":32.066669,"lon":130.616669},"country":"JP","name":"Okuchi"},{"_id":1855066,"coord":{"lat":33.73333,"lon":130.733337},"country":"JP","name":"Nogata"},{"_id":1855425,"coord":{"lat":33.959332,"lon":133.316727},"country":"JP","name":"Niihama"},{"_id":1855476,"coord":{"lat":31.6,"lon":131.366669},"country":"JP","name":"Nichinan"},{"_id":1855757,"coord":{"lat":33.59811,"lon":131.188293},"country":"JP","name":"Nakatsu"},{"_id":1855907,"coord":{"lat":33.816669,"lon":130.699997},"country":"JP","name":"Nakama"},{"_id":1856456,"coord":{"lat":34.96545,"lon":135.704147},"country":"JP","name":"Muko"},{"_id":1856476,"coord":{"lat":37.066669,"lon":138.883331},"country":"JP","name":"Muikamachi"},{"_id":1856698,"coord":{"lat":34.799999,"lon":132.850006},"country":"JP","name":"Miyoshi"},{"_id":1856828,"coord":{"lat":33.716671,"lon":130.666672},"country":"JP","name":"Miyada"},{"_id":1857403,"coord":{"lat":36.216671,"lon":139.383331},"country":"JP","name":"Menuma"},{"_id":1857470,"coord":{"lat":36.51667,"lon":136.566666},"country":"JP","name":"Matsuto"},{"_id":1857651,"coord":{"lat":36.1534,"lon":136.270294},"country":"JP","name":"Maruoka"},{"_id":1857659,"coord":{"lat":36.316669,"lon":138.266663},"country":"JP","name":"Maruko"},{"_id":1857766,"coord":{"lat":35.450001,"lon":135.333328},"country":"JP","name":"Maizuru"},{"_id":1857844,"coord":{"lat":33.549999,"lon":130.199997},"country":"JP","name":"Maebaru"},{"_id":1858249,"coord":{"lat":35.349998,"lon":136.783325},"country":"JP","name":"Kuroda"},{"_id":1858283,"coord":{"lat":36.133331,"lon":139.699997},"country":"JP","name":"Kurihashi"},{"_id":1858591,"coord":{"lat":34.799999,"lon":137.358887},"country":"JP","name":"Kozakai-cho"},{"_id":1858836,"coord":{"lat":35.33165,"lon":136.870422},"country":"JP","name":"Konan"},{"_id":1858858,"coord":{"lat":36.316669,"lon":138.433334},"country":"JP","name":"Komoro"},{"_id":1859113,"coord":{"lat":36.183331,"lon":139.133331},"country":"JP","name":"Kodama"},{"_id":1859335,"coord":{"lat":35.166672,"lon":135.916672},"country":"JP","name":"Kitahama"},{"_id":1859400,"coord":{"lat":36.099998,"lon":139.583328},"country":"JP","name":"Kisai"},{"_id":1859586,"coord":{"lat":36.116669,"lon":139.600006},"country":"JP","name":"Kazo"},{"_id":1859647,"coord":{"lat":33.583328,"lon":130.833328},"country":"JP","name":"Kawasaki"},{"_id":1859891,"coord":{"lat":35.24762,"lon":136.97229},"country":"JP","name":"Kasugai"},{"_id":1859951,"coord":{"lat":34.508961,"lon":135.792892},"country":"JP","name":"Kashihara-shi"},{"_id":1859990,"coord":{"lat":34.5,"lon":133.5},"country":"JP","name":"Kasaoka"},{"_id":1860191,"coord":{"lat":35.133331,"lon":136.800003},"country":"JP","name":"Kanie"},{"_id":1860211,"coord":{"lat":36.400002,"lon":139},"country":"JP","name":"Kaneko"},{"_id":1860256,"coord":{"lat":34.816669,"lon":138.133331},"country":"JP","name":"Kanaya"},{"_id":1860321,"coord":{"lat":34.066669,"lon":134.350006},"country":"JP","name":"Kamojima"},{"_id":1860335,"coord":{"lat":34.533329,"lon":133.583328},"country":"JP","name":"Kamogata"},{"_id":1860648,"coord":{"lat":37.866669,"lon":139.116669},"country":"JP","name":"Kameda"},{"_id":1860750,"coord":{"lat":31.73333,"lon":130.666672},"country":"JP","name":"Kajiki"},{"_id":1861171,"coord":{"lat":34.700001,"lon":137.850006},"country":"JP","name":"Iwata"},{"_id":1861223,"coord":{"lat":36.049999,"lon":139.899994},"country":"JP","name":"Iwai"},{"_id":1861244,"coord":{"lat":34.25,"lon":135.316666},"country":"JP","name":"Iwade"},{"_id":1861383,"coord":{"lat":34.799999,"lon":137.016663},"country":"JP","name":"Ishiki"},{"_id":1861406,"coord":{"lat":36.116669,"lon":139.966675},"country":"JP","name":"Ishige"},{"_id":1861416,"coord":{"lat":24.34478,"lon":124.157173},"country":"JP","name":"Ishigaki"},{"_id":1861795,"coord":{"lat":34.822079,"lon":135.429794},"country":"JP","name":"Ikeda"},{"_id":1861799,"coord":{"lat":34.01667,"lon":133.800003},"country":"JP","name":"Ikeda"},{"_id":1861825,"coord":{"lat":31.616671,"lon":130.399994},"country":"JP","name":"Ijuin"},{"_id":1861901,"coord":{"lat":34.768551,"lon":136.130127},"country":"JP","name":"Iga"},{"_id":1862033,"coord":{"lat":34.81641,"lon":135.568283},"country":"JP","name":"Ibaraki"},{"_id":1862034,"coord":{"lat":34.599998,"lon":133.466675},"country":"JP","name":"Ibara"},{"_id":1862098,"coord":{"lat":36.3396,"lon":137.882538},"country":"JP","name":"Hotaka"},{"_id":1862389,"coord":{"lat":34.666672,"lon":136.466675},"country":"JP","name":"Hisai"},{"_id":1862471,"coord":{"lat":35.433331,"lon":132.816666},"country":"JP","name":"Hirata"},{"_id":1862601,"coord":{"lat":35,"lon":136.25},"country":"JP","name":"Hino"},{"_id":1862912,"coord":{"lat":34.883331,"lon":136.983337},"country":"JP","name":"Hekinan"},{"_id":1863279,"coord":{"lat":31.716669,"lon":130.733337},"country":"JP","name":"Hamanoichi"},{"_id":1863293,"coord":{"lat":34.799999,"lon":137.783325},"country":"JP","name":"Hamakita"},{"_id":1863398,"coord":{"lat":34.533329,"lon":135.949997},"country":"JP","name":"Haibara"},{"_id":1863451,"coord":{"lat":35.128609,"lon":136.097595},"country":"JP","name":"Omihachiman"},{"_id":1863614,"coord":{"lat":33.883331,"lon":135.149994},"country":"JP","name":"Gobo"},{"_id":1863627,"coord":{"lat":26.26265,"lon":127.761467},"country":"JP","name":"Ginowan"},{"_id":1863953,"coord":{"lat":34.25,"lon":134.716675},"country":"JP","name":"Fukura"},{"_id":1863973,"coord":{"lat":36.549999,"lon":136.866669},"country":"JP","name":"Fukumitsu"},{"_id":1863978,"coord":{"lat":33.76667,"lon":130.466675},"country":"JP","name":"Fukuma"},{"_id":1863985,"coord":{"lat":36.06443,"lon":136.222565},"country":"JP","name":"Fukui-shi"},{"_id":1863997,"coord":{"lat":32.688061,"lon":128.841934},"country":"JP","name":"Fukue"},{"_id":1864025,"coord":{"lat":36.099998,"lon":139.449997},"country":"JP","name":"Fukiage"},{"_id":1864098,"coord":{"lat":36.25,"lon":139.649994},"country":"JP","name":"Fujioka"},{"_id":1864134,"coord":{"lat":35.166672,"lon":138.683334},"country":"JP","name":"Fuji"},{"_id":1864155,"coord":{"lat":34.566669,"lon":133.233337},"country":"JP","name":"Fuchu"},{"_id":1864557,"coord":{"lat":35.9944,"lon":138.154282},"country":"JP","name":"Chino"},{"_id":1865375,"coord":{"lat":33.416672,"lon":130.649994},"country":"JP","name":"Amagi"},{"_id":1865661,"coord":{"lat":34.803612,"lon":134.468063},"country":"JP","name":"Aioi-shi"},{"_id":1899102,"coord":{"lat":34.383331,"lon":131.199997},"country":"JP","name":"Nagato"},{"_id":1926004,"coord":{"lat":34.226109,"lon":135.167496},"country":"JP","name":"Wakayama-shi"},{"_id":2110538,"coord":{"lat":37.849998,"lon":140.600006},"country":"JP","name":"Yanagawa"},{"_id":2110683,"coord":{"lat":36.200001,"lon":140.100006},"country":"JP","name":"Tsukuba"},{"_id":2110743,"coord":{"lat":36.349998,"lon":140.300003},"country":"JP","name":"Tomobe"},{"_id":2110893,"coord":{"lat":36.716671,"lon":140.716675},"country":"JP","name":"Takahagi"},{"_id":2111425,"coord":{"lat":36.549999,"lon":140.416672},"country":"JP","name":"Omiya"},{"_id":2111429,"coord":{"lat":35.849998,"lon":140.616669},"country":"JP","name":"Omigawa"},{"_id":2111441,"coord":{"lat":36.283329,"lon":140.416672},"country":"JP","name":"Okunoya"},{"_id":2111495,"coord":{"lat":35.25,"lon":140.383331},"country":"JP","name":"Ohara"},{"_id":2111824,"coord":{"lat":37.51667,"lon":140.399994},"country":"JP","name":"Motomiya"},{"_id":2111859,"coord":{"lat":39.133331,"lon":141.133331},"country":"JP","name":"Mizusawa"},{"_id":2111964,"coord":{"lat":38.373569,"lon":141.06105},"country":"JP","name":"Matsushima"},{"_id":2112019,"coord":{"lat":36.26667,"lon":140.100006},"country":"JP","name":"Makabe"},{"_id":2112077,"coord":{"lat":36.966671,"lon":140.050003},"country":"JP","name":"Kuroiso"},{"_id":2112182,"coord":{"lat":38.549999,"lon":141.050003},"country":"JP","name":"Kogota"},{"_id":2112227,"coord":{"lat":39.283329,"lon":141.116669},"country":"JP","name":"Kitakami"},{"_id":2112297,"coord":{"lat":35.099998,"lon":140.100006},"country":"JP","name":"Kawaguchi"},{"_id":2112309,"coord":{"lat":35.133331,"lon":140.300003},"country":"JP","name":"Katsuura"},{"_id":2112319,"coord":{"lat":35.897671,"lon":140.499435},"country":"JP","name":"Katori-shi"},{"_id":2112354,"coord":{"lat":36.650002,"lon":140.149994},"country":"JP","name":"Karasuyama"},{"_id":2112521,"coord":{"lat":36.349998,"lon":140.100006},"country":"JP","name":"Iwase"},{"_id":2112583,"coord":{"lat":37.150002,"lon":140.449997},"country":"JP","name":"Ishikawa"},{"_id":2112615,"coord":{"lat":37.566669,"lon":140.116669},"country":"JP","name":"Inawashiro"},{"_id":2112692,"coord":{"lat":37.816669,"lon":140.550003},"country":"JP","name":"Hobara"},{"_id":2112903,"coord":{"lat":37.433331,"lon":140.583328},"country":"JP","name":"Funehiki"},{"_id":2112940,"coord":{"lat":35.916672,"lon":140.116669},"country":"JP","name":"Fujishiro"},{"_id":2112963,"coord":{"lat":35.950001,"lon":140.316666},"country":"JP","name":"Edosaki"},{"_id":2113126,"coord":{"lat":39.716671,"lon":140.116669},"country":"JP","name":"Akita"},{"_id":2128147,"coord":{"lat":43.349998,"lon":142.383331},"country":"JP","name":"Shimo-furano"},{"_id":2129766,"coord":{"lat":41.816669,"lon":140.649994},"country":"JP","name":"Kamiiso"},{"_id":6822217,"coord":{"lat":35.481991,"lon":137.021667},"country":"JP","name":"Minokamo"},{"_id":8125829,"coord":{"lat":35.029541,"lon":135.756653},"country":"JP","name":"Kamigyo-ku"},{"_id":1859895,"coord":{"lat":33.533329,"lon":130.466675},"country":"JP","name":"Kasugabaru"},{"_id":1860521,"coord":{"lat":33.828579,"lon":130.760193},"country":"JP","name":"Kami-kōjaku"},{"_id":1857441,"coord":{"lat":34.549999,"lon":136.516663},"country":"JP","name":"Mayanoheta"},{"_id":1859842,"coord":{"lat":35.31694,"lon":139.474442},"country":"JP","name":"Katase"},{"_id":1848848,"coord":{"lat":35.408329,"lon":139.467224},"country":"JP","name":"Yabuhana"},{"_id":6419432,"coord":{"lat":35.571671,"lon":139.75},"country":"JP","name":"Shōwajima"},{"_id":1851992,"coord":{"lat":35.583328,"lon":139.533325},"country":"JP","name":"Shiomidai"},{"_id":1907174,"coord":{"lat":35.584721,"lon":139.470276},"country":"JP","name":"Okura"},{"_id":1862143,"coord":{"lat":35.683331,"lon":139.649994},"country":"JP","name":"Horinouchi"},{"_id":1848305,"coord":{"lat":35.75,"lon":139.383331},"country":"JP","name":"Yokota"},{"_id":2112874,"coord":{"lat":35.966671,"lon":140.366669},"country":"JP","name":"Futto"},{"_id":2128131,"coord":{"lat":41.816669,"lon":140.850006},"country":"JP","name":"Shimo-masukawa"},{"_id":2130574,"coord":{"lat":43.16861,"lon":141.321106},"country":"JP","name":"Bannaguro"},{"_id":2127712,"coord":{"lat":43.48333,"lon":142.183334},"country":"JP","name":"Tomioka"},{"_id":1855939,"coord":{"lat":34.700001,"lon":137.850006},"country":"JP","name":"Nakaizumi"},{"_id":1853398,"coord":{"lat":34.933331,"lon":135.800003},"country":"JP","name":"Rokujizō"},{"_id":1865006,"coord":{"lat":34.666672,"lon":135.5},"country":"JP","name":"Ashiharachō"},{"_id":1855444,"coord":{"lat":35.450001,"lon":139.649994},"country":"JP","name":"Nihon’ōdōri"},{"_id":1864771,"coord":{"lat":34.683331,"lon":135.183334},"country":"JP","name":"Bentenchō"},{"_id":1852676,"coord":{"lat":35.633331,"lon":139.649994},"country":"JP","name":"Setagaya"},{"_id":1850418,"coord":{"lat":33.583328,"lon":130.399994},"country":"JP","name":"Tenjinchō"},{"_id":1865264,"coord":{"lat":35.166672,"lon":136.916672},"country":"JP","name":"Aoichō"},{"_id":1854345,"coord":{"lat":25.772249,"lon":126.668709},"country":"JP","name":"Okinawa-ken"},{"_id":1855431,"coord":{"lat":37.902222,"lon":139.023605},"country":"JP","name":"Niigata-shi"},{"_id":1856215,"coord":{"lat":36.65139,"lon":138.181107},"country":"JP","name":"Nagano-shi"},{"_id":1855309,"coord":{"lat":36.650002,"lon":138.183334},"country":"JP","name":"Nishigochō"},{"_id":1857910,"coord":{"lat":35.021069,"lon":135.753845},"country":"JP","name":"Kyoto"},{"_id":2110617,"coord":{"lat":37.75,"lon":140.466675},"country":"JP","name":"Uwamachi"},{"_id":1853620,"coord":{"lat":36.067348,"lon":136.220169},"country":"JP","name":"Ohtemachi"},{"_id":1863140,"coord":{"lat":35.866669,"lon":139.633331},"country":"JP","name":"Harigayachō"},{"_id":1850158,"coord":{"lat":34.06583,"lon":134.559433},"country":"JP","name":"Tokushima-shi"},{"_id":1857689,"coord":{"lat":34.066669,"lon":134.566666},"country":"JP","name":"Mandaimachi"},{"_id":2127660,"coord":{"lat":43.049999,"lon":141.366669},"country":"JP","name":"Toyohira"},{"_id":1853058,"coord":{"lat":35.450001,"lon":139.466675},"country":"JP","name":"Sakurakabu"},{"_id":1860704,"coord":{"lat":34.76667,"lon":134.850006},"country":"JP","name":"Kakogawa"},{"_id":2110657,"coord":{"lat":39.700001,"lon":141.149994},"country":"JP","name":"Uchimaru"},{"_id":1859900,"coord":{"lat":33.033329,"lon":130.050003},"country":"JP","name":"Kasuga"},{"_id":1849846,"coord":{"lat":34.76667,"lon":137.383331},"country":"JP","name":"Toyohashi"},{"_id":1848489,"coord":{"lat":35.068008,"lon":136.02327},"country":"JP","name":"Yasu"},{"_id":1854642,"coord":{"lat":35.833328,"lon":139.399994},"country":"JP","name":"Ōgimachiya"},{"_id":2112892,"coord":{"lat":35.849998,"lon":140.133331},"country":"JP","name":"Fusa"},{"_id":2111149,"coord":{"lat":38.26889,"lon":140.871933},"country":"JP","name":"Sendai-shi"},{"_id":2111106,"coord":{"lat":38.25,"lon":140.883331},"country":"JP","name":"Shimizu-kōji"},{"_id":1848373,"coord":{"lat":34.966671,"lon":136.616669},"country":"JP","name":"Yokkaichi"},{"_id":1850420,"coord":{"lat":34.333328,"lon":134.050003},"country":"JP","name":"Tenjimmae"},{"_id":2130188,"coord":{"lat":41.775829,"lon":140.736664},"country":"JP","name":"Hakodate"},{"_id":1852795,"coord":{"lat":34.849998,"lon":136.399994},"country":"JP","name":"Seki"},{"_id":1859146,"coord":{"lat":33.559719,"lon":133.531113},"country":"JP","name":"Kochi-shi"},{"_id":1864821,"coord":{"lat":36.566669,"lon":136.649994},"country":"JP","name":"Bakurochō"},{"_id":1860649,"coord":{"lat":35.75,"lon":139.850006},"country":"JP","name":"Kamearimachi"},{"_id":1849429,"coord":{"lat":36.400002,"lon":138.266663},"country":"JP","name":"Ueda"},{"_id":1850345,"coord":{"lat":34.48333,"lon":136.850006},"country":"JP","name":"Toba"},{"_id":1858910,"coord":{"lat":36.40263,"lon":136.450882},"country":"JP","name":"Komatsu"},{"_id":1848445,"coord":{"lat":32.5,"lon":130.600006},"country":"JP","name":"Yatsushiro"},{"_id":1848131,"coord":{"lat":34.033329,"lon":135.183334},"country":"JP","name":"Yuasa"},{"_id":1855342,"coord":{"lat":26.18417,"lon":127.755829},"country":"JP","name":"Nishihara"},{"_id":1852237,"coord":{"lat":36.216671,"lon":138.783325},"country":"JP","name":"Shimonita"},{"_id":1848667,"coord":{"lat":35.35667,"lon":139.073334},"country":"JP","name":"Yamakita"},{"_id":2130421,"coord":{"lat":42.46806,"lon":140.868057},"country":"JP","name":"Date"},{"_id":1926102,"coord":{"lat":33.707279,"lon":132.792694},"country":"JP","name":"Mannen"},{"_id":2110560,"coord":{"lat":39.466671,"lon":141.949997},"country":"JP","name":"Yamada"},{"_id":1862136,"coord":{"lat":34.616669,"lon":135.733337},"country":"JP","name":"Hōryūji"},{"_id":1850822,"coord":{"lat":24.330669,"lon":124.08506},"country":"JP","name":"Taketomi"},{"_id":1852357,"coord":{"lat":34.666672,"lon":138.949997},"country":"JP","name":"Shimoda"},{"_id":2111884,"coord":{"lat":39.636669,"lon":141.952499},"country":"JP","name":"Miyako"},{"_id":1848949,"coord":{"lat":35.333328,"lon":134.399994},"country":"JP","name":"Wakasa"},{"_id":1862291,"coord":{"lat":34.98333,"lon":139.866669},"country":"JP","name":"Hōjō"},{"_id":1926024,"coord":{"lat":33.788849,"lon":132.705017},"country":"JP","name":"Tsutsui"},{"_id":2112562,"coord":{"lat":35.083328,"lon":140.100006},"country":"JP","name":"Isomura"},{"_id":1855395,"coord":{"lat":36.75,"lon":139.616669},"country":"JP","name":"Nikko"},{"_id":1850943,"coord":{"lat":35.433331,"lon":136.233337},"country":"JP","name":"Takata"},{"_id":1848440,"coord":{"lat":35.616669,"lon":139.116669},"country":"JP","name":"Yatsuzawa"},{"_id":1856521,"coord":{"lat":33.73333,"lon":135.366669},"country":"JP","name":"Motomachi"},{"_id":1851009,"coord":{"lat":34.75,"lon":134.800003},"country":"JP","name":"Takasago"},{"_id":1863310,"coord":{"lat":34.883331,"lon":132.083328},"country":"JP","name":"Hamada"},{"_id":1856950,"coord":{"lat":35.650002,"lon":139.733337},"country":"JP","name":"Mita"},{"_id":1857665,"coord":{"lat":34.283329,"lon":133.783325},"country":"JP","name":"Marugame"},{"_id":1854905,"coord":{"lat":36.633331,"lon":139.050003},"country":"JP","name":"Numata"},{"_id":6416230,"coord":{"lat":34.06432,"lon":133.000488},"country":"JP","name":"Asahi"},{"_id":1856764,"coord":{"lat":36.316669,"lon":139.199997},"country":"JP","name":"Miyamaechō"},{"_id":2130332,"coord":{"lat":43.708061,"lon":142.039169},"country":"JP","name":"Fukagawa"},{"_id":1856199,"coord":{"lat":37.450001,"lon":138.850006},"country":"JP","name":"Nagaoka"},{"_id":1853807,"coord":{"lat":36.133331,"lon":139.449997},"country":"JP","name":"Oshi"},{"_id":2130677,"coord":{"lat":43.035561,"lon":144.852493},"country":"JP","name":"Akkeshi"},{"_id":1864523,"coord":{"lat":35.26667,"lon":134.233337},"country":"JP","name":"Chizu"},{"_id":2111248,"coord":{"lat":38.372501,"lon":140.272507},"country":"JP","name":"Sagae"},{"_id":1851141,"coord":{"lat":31.91667,"lon":131.016663},"country":"JP","name":"Takaharu"},{"_id":1848841,"coord":{"lat":34.799999,"lon":134.466675},"country":"JP","name":"Yabutani"},{"_id":1848028,"coord":{"lat":33.383331,"lon":132.916672},"country":"JP","name":"Yusuhara"},{"_id":1858681,"coord":{"lat":34.916672,"lon":135.699997},"country":"JP","name":"Kōtari"},{"_id":2112688,"coord":{"lat":36.150002,"lon":140.516663},"country":"JP","name":"Hokota"},{"_id":2110901,"coord":{"lat":36.716671,"lon":140.716675},"country":"JP","name":"Takado"},{"_id":1863341,"coord":{"lat":36.883331,"lon":136.783325},"country":"JP","name":"Hakui"},{"_id":2129646,"coord":{"lat":40.321388,"lon":141.458328},"country":"JP","name":"Karumai"},{"_id":1859913,"coord":{"lat":34.450001,"lon":135.766663},"country":"JP","name":"Kashiwara"},{"_id":1861116,"coord":{"lat":34.201389,"lon":129.287216},"country":"JP","name":"Izuhara"},{"_id":1850302,"coord":{"lat":31.6,"lon":131.366669},"country":"JP","name":"Todaka"},{"_id":2128975,"coord":{"lat":43.323608,"lon":145.574997},"country":"JP","name":"Nemuro"},{"_id":2112860,"coord":{"lat":39.933331,"lon":140.116669},"country":"JP","name":"Gojōnome"},{"_id":1851617,"coord":{"lat":33.566669,"lon":130.866669},"country":"JP","name":"Soeda"},{"_id":2128490,"coord":{"lat":44.475281,"lon":142.343063},"country":"JP","name":"Piuka"},{"_id":2111049,"coord":{"lat":38.316669,"lon":141.033325},"country":"JP","name":"Shiogama"},{"_id":2129132,"coord":{"lat":43.687778,"lon":141.959167},"country":"JP","name":"Moseushi"},{"_id":2130531,"coord":{"lat":43.584438,"lon":142.459717},"country":"JP","name":"Biei"},{"_id":2130567,"coord":{"lat":43.375832,"lon":145.286667},"country":"JP","name":"Bekkai"},{"_id":2113001,"coord":{"lat":35.400002,"lon":140.233337},"country":"JP","name":"Chōnan"},{"_id":2111704,"coord":{"lat":37.48333,"lon":141},"country":"JP","name":"Namie"},{"_id":1864031,"coord":{"lat":36.200001,"lon":139.283325},"country":"JP","name":"Fukaya"},{"_id":1848976,"coord":{"lat":37.400002,"lon":136.899994},"country":"JP","name":"Wajima"},{"_id":1848002,"coord":{"lat":26.224171,"lon":127.301109},"country":"JP","name":"Zamami"},{"_id":1860122,"coord":{"lat":34.116669,"lon":133.649994},"country":"JP","name":"Kanonji"},{"_id":2127955,"coord":{"lat":43.486389,"lon":141.905563},"country":"JP","name":"Sunagawa"},{"_id":1851279,"coord":{"lat":35.226341,"lon":136.286255},"country":"JP","name":"Taga"},{"_id":1862444,"coord":{"lat":33.116669,"lon":130.966675},"country":"JP","name":"Hirokawa"},{"_id":2127398,"coord":{"lat":43.007221,"lon":141.784439},"country":"JP","name":"Yuni"},{"_id":1859619,"coord":{"lat":33.066669,"lon":129.866669},"country":"JP","name":"Kawatana"},{"_id":1862569,"coord":{"lat":31.58333,"lon":130.350006},"country":"JP","name":"Hioki"},{"_id":2127588,"coord":{"lat":42.80611,"lon":143.654724},"country":"JP","name":"Urahoro"},{"_id":1850233,"coord":{"lat":32.400002,"lon":130.833328},"country":"JP","name":"Tōji"},{"_id":1854774,"coord":{"lat":35.183331,"lon":132.5},"country":"JP","name":"Oda"},{"_id":1851068,"coord":{"lat":32.133331,"lon":131.5},"country":"JP","name":"Takanabe"},{"_id":1856386,"coord":{"lat":33.283329,"lon":134.149994},"country":"JP","name":"Murotsu"},{"_id":1848852,"coord":{"lat":35.383331,"lon":134.816666},"country":"JP","name":"Yabu"},{"_id":1859143,"coord":{"lat":34.700001,"lon":138.933334},"country":"JP","name":"Kōchi"},{"_id":1861290,"coord":{"lat":34.966671,"lon":139.083328},"country":"JP","name":"Ito"},{"_id":2114134,"coord":{"lat":38.291111,"lon":140.266663},"country":"JP","name":"Yamanobe"},{"_id":1851462,"coord":{"lat":32.933331,"lon":132.733337},"country":"JP","name":"Sukumo"},{"_id":1850223,"coord":{"lat":34.799999,"lon":132.850006},"country":"JP","name":"Tōkaichi"},{"_id":1860588,"coord":{"lat":34.866669,"lon":134.366669},"country":"JP","name":"Kamigōri"},{"_id":2129884,"coord":{"lat":40.690281,"lon":140.45694},"country":"JP","name":"Itayanagi"},{"_id":1848210,"coord":{"lat":37.683331,"lon":138.883331},"country":"JP","name":"Yoshida"},{"_id":1848447,"coord":{"lat":36.566669,"lon":137.133331},"country":"JP","name":"Yatsuo"},{"_id":1848633,"coord":{"lat":35,"lon":134.550003},"country":"JP","name":"Yamasaki"},{"_id":1849414,"coord":{"lat":34.75,"lon":136.133331},"country":"JP","name":"Ueno"},{"_id":1849647,"coord":{"lat":32.099998,"lon":131.399994},"country":"JP","name":"Tsuma"},{"_id":1849809,"coord":{"lat":35.141178,"lon":137.301498},"country":"JP","name":"Toyota-shi"},{"_id":1850307,"coord":{"lat":37.466671,"lon":139},"country":"JP","name":"Tochio"},{"_id":1850707,"coord":{"lat":34.816669,"lon":135.766663},"country":"JP","name":"Tanabe"},{"_id":1851494,"coord":{"lat":37.833328,"lon":139.233337},"country":"JP","name":"Suibara"},{"_id":1851813,"coord":{"lat":37.76667,"lon":139.016663},"country":"JP","name":"Shirone"},{"_id":1852383,"coord":{"lat":34.183331,"lon":135.199997},"country":"JP","name":"Shimminatocho"},{"_id":1852385,"coord":{"lat":36.783329,"lon":137.066666},"country":"JP","name":"Shimminato"},{"_id":1853280,"coord":{"lat":34.683331,"lon":138.199997},"country":"JP","name":"Sagara"},{"_id":1853354,"coord":{"lat":35.650002,"lon":138.5},"country":"JP","name":"Ryuo"},{"_id":1853371,"coord":{"lat":38.083328,"lon":138.433334},"country":"JP","name":"Ryotsu"},{"_id":1855410,"coord":{"lat":37.799999,"lon":139.116669},"country":"JP","name":"Niitsu"},{"_id":1855540,"coord":{"lat":28.366671,"lon":129.483337},"country":"JP","name":"Naze"},{"_id":1855694,"coord":{"lat":36.76667,"lon":137.333328},"country":"JP","name":"Namerikawa"},{"_id":1856392,"coord":{"lat":33.283329,"lon":134.149994},"country":"JP","name":"Muroto"},{"_id":1856426,"coord":{"lat":37.683331,"lon":139.183334},"country":"JP","name":"Muramatsu"},{"_id":1857209,"coord":{"lat":34.966671,"lon":136.166672},"country":"JP","name":"Minakuchi"},{"_id":1857260,"coord":{"lat":36.21706,"lon":136.151855},"country":"JP","name":"Mikuni"},{"_id":1857560,"coord":{"lat":32.650002,"lon":130.666672},"country":"JP","name":"Matsubase"},{"_id":1857751,"coord":{"lat":37.75,"lon":138.883331},"country":"JP","name":"Maki"},{"_id":1858695,"coord":{"lat":36.716671,"lon":137.100006},"country":"JP","name":"Kosugi"},{"_id":1859964,"coord":{"lat":31.41667,"lon":130.316666},"country":"JP","name":"Kaseda"},{"_id":1860176,"coord":{"lat":34.533329,"lon":133.383331},"country":"JP","name":"Kannabe"},{"_id":1861280,"coord":{"lat":26.12472,"lon":127.669441},"country":"JP","name":"Itoman"},{"_id":1861285,"coord":{"lat":37.033329,"lon":137.850006},"country":"JP","name":"Itoigawa"},{"_id":1861393,"coord":{"lat":26.42333,"lon":127.821388},"country":"JP","name":"Ishikawa"},{"_id":1861586,"coord":{"lat":34.283329,"lon":133.183334},"country":"JP","name":"Innoshima"},{"_id":1861699,"coord":{"lat":36.716671,"lon":139.683334},"country":"JP","name":"Imaichi"},{"_id":1865207,"coord":{"lat":37.01667,"lon":138.25},"country":"JP","name":"Arai"},{"_id":1926101,"coord":{"lat":33.787571,"lon":132.711243},"country":"JP","name":"Masaki-cho"},{"_id":1926116,"coord":{"lat":34.01667,"lon":133.566666},"country":"JP","name":"Kawanoe"},{"_id":1926142,"coord":{"lat":33.976608,"lon":132.777664},"country":"JP","name":"Hojo"},{"_id":2110541,"coord":{"lat":38.42738,"lon":141.214874},"country":"JP","name":"Yamoto"},{"_id":2111435,"coord":{"lat":39.450001,"lon":140.483337},"country":"JP","name":"Omagari"},{"_id":2111568,"coord":{"lat":35.51667,"lon":140.316666},"country":"JP","name":"Oami"},{"_id":2111677,"coord":{"lat":35.599998,"lon":140.416672},"country":"JP","name":"Naruto"},{"_id":2112899,"coord":{"lat":38.571671,"lon":140.955566},"country":"JP","name":"Furukawa"},{"_id":2113719,"coord":{"lat":39.71806,"lon":140.103333},"country":"JP","name":"Akita Shi"},{"_id":2127910,"coord":{"lat":40.221939,"lon":140.369446},"country":"JP","name":"Takanosu"},{"_id":2129324,"coord":{"lat":45.371391,"lon":141.821106},"country":"JP","name":"Makubetsu"},{"_id":6825489,"coord":{"lat":37.148281,"lon":138.23642},"country":"JP","name":"Joetsu"},{"_id":7279571,"coord":{"lat":33.56543,"lon":131.731567},"country":"JP","name":"Kunisaki-shi"},{"_id":7281819,"coord":{"lat":35.48933,"lon":138.688324},"country":"JP","name":"Fujikawaguchiko"},{"_id":1857906,"coord":{"lat":35.107368,"lon":135.724014},"country":"JP","name":"Kyōto-shi"},{"_id":1864660,"coord":{"lat":33.567429,"lon":131.085785},"country":"JP","name":"Buzen-shi"},{"_id":2113124,"coord":{"lat":39.75251,"lon":140.40538},"country":"JP","name":"Akita-ken"},{"_id":2130656,"coord":{"lat":40.7831,"lon":140.828278},"country":"JP","name":"Aomori-ken"},{"_id":2129752,"coord":{"lat":40.736111,"lon":140.956116},"country":"JP","name":"Kamikitakōzan"},{"_id":1863640,"coord":{"lat":35.78091,"lon":137.053986},"country":"JP","name":"Gifu-ken"},{"_id":1852775,"coord":{"lat":35.48333,"lon":136.916672},"country":"JP","name":"Sekimachi"},{"_id":1863501,"coord":{"lat":36.507469,"lon":138.982346},"country":"JP","name":"Gunma-ken"},{"_id":1858937,"coord":{"lat":36.349998,"lon":139.133331},"country":"JP","name":"Komagata"},{"_id":1862413,"coord":{"lat":34.606731,"lon":132.785431},"country":"JP","name":"Hiroshima-ken"},{"_id":6822110,"coord":{"lat":34.434841,"lon":132.740616},"country":"JP","name":"Higashi-Hiroshima"},{"_id":1863983,"coord":{"lat":35.850101,"lon":136.225174},"country":"JP","name":"Fukui-ken"},{"_id":1848200,"coord":{"lat":35.987041,"lon":136.172287},"country":"JP","name":"Yoshie"},{"_id":1863958,"coord":{"lat":33.52813,"lon":130.664719},"country":"JP","name":"Fukuoka-ken"},{"_id":1852915,"coord":{"lat":33.616669,"lon":130.533325},"country":"JP","name":"Sasaguri"},{"_id":2112571,"coord":{"lat":36.183331,"lon":140.266663},"country":"JP","name":"Ishioka"},{"_id":2112518,"coord":{"lat":39.596008,"lon":141.359711},"country":"JP","name":"Iwate-ken"},{"_id":2111488,"coord":{"lat":39.466671,"lon":141.283325},"country":"JP","name":"Ōhasama"},{"_id":1860834,"coord":{"lat":34.247169,"lon":133.994705},"country":"JP","name":"Kagawa-ken"},{"_id":1860825,"coord":{"lat":31.032249,"lon":130.432922},"country":"JP","name":"Kagoshima-ken"},{"_id":1852685,"coord":{"lat":31.41667,"lon":130.516663},"country":"JP","name":"Sesekushi"},{"_id":1860291,"coord":{"lat":35.417461,"lon":139.338852},"country":"JP","name":"Kanagawa-ken"},{"_id":1852427,"coord":{"lat":35.433331,"lon":139.516663},"country":"JP","name":"Shimbashichō"},{"_id":1857907,"coord":{"lat":35.254318,"lon":135.441177},"country":"JP","name":"Kyōto-fu"},{"_id":1852272,"coord":{"lat":35.099998,"lon":135.600006},"country":"JP","name":"Shimoku"},{"_id":1859133,"coord":{"lat":33.428009,"lon":133.364014},"country":"JP","name":"Kōchi-ken"},{"_id":1849168,"coord":{"lat":33.450001,"lon":133.449997},"country":"JP","name":"Usa"},{"_id":1857352,"coord":{"lat":34.521229,"lon":136.382965},"country":"JP","name":"Mie-ken"},{"_id":1849796,"coord":{"lat":34.730282,"lon":136.508606},"country":"JP","name":"Tsu-shi"},{"_id":2111888,"coord":{"lat":38.449379,"lon":140.926239},"country":"JP","name":"Miyagi-ken"},{"_id":2111277,"coord":{"lat":38.323608,"lon":140.974442},"country":"JP","name":"Rifu"},{"_id":1856710,"coord":{"lat":32.198071,"lon":131.297623},"country":"JP","name":"Miyazaki-ken"},{"_id":1853024,"coord":{"lat":32,"lon":131.350006},"country":"JP","name":"Sammyō"},{"_id":1856210,"coord":{"lat":36.13464,"lon":138.040771},"country":"JP","name":"Nagano-ken"},{"_id":1851497,"coord":{"lat":36.26667,"lon":138.149994},"country":"JP","name":"Suguri"},{"_id":1856156,"coord":{"lat":33.23344,"lon":129.611084},"country":"JP","name":"Nagasaki-ken"},{"_id":1856531,"coord":{"lat":32.966671,"lon":129.800003},"country":"JP","name":"Motogoe"},{"_id":1855608,"coord":{"lat":34.685249,"lon":135.832886},"country":"JP","name":"Nara-ken"},{"_id":1863077,"coord":{"lat":34.566669,"lon":135.75},"country":"JP","name":"Hashio"},{"_id":1855429,"coord":{"lat":37.52343,"lon":138.91748},"country":"JP","name":"Niigata-ken"},{"_id":1861006,"coord":{"lat":37.616669,"lon":138.850006},"country":"JP","name":"Jizōdō"},{"_id":1854381,"coord":{"lat":34.902039,"lon":133.810181},"country":"JP","name":"Okayama-ken"},{"_id":1861314,"coord":{"lat":34.666672,"lon":133.833328},"country":"JP","name":"Itakura"},{"_id":1853299,"coord":{"lat":33.28904,"lon":130.114914},"country":"JP","name":"Saga-ken"},{"_id":1854656,"coord":{"lat":33.287781,"lon":130.201111},"country":"JP","name":"Ogi"},{"_id":1853226,"coord":{"lat":35.857208,"lon":139.649033},"country":"JP","name":"Saitama-ken"},{"_id":1862539,"coord":{"lat":35.933331,"lon":139.550003},"country":"JP","name":"Hirakata"},{"_id":1852553,"coord":{"lat":35.219391,"lon":136.13652},"country":"JP","name":"Shiga-ken"},{"_id":1864237,"coord":{"lat":35.116669,"lon":136.050003},"country":"JP","name":"Egashira"},{"_id":1852442,"coord":{"lat":35.076931,"lon":132.561111},"country":"JP","name":"Shimane-ken"},{"_id":1852201,"coord":{"lat":35.216671,"lon":132.649994},"country":"JP","name":"Shimo-satsume"},{"_id":1851715,"coord":{"lat":35.025219,"lon":138.325424},"country":"JP","name":"Shizuoka-ken"},{"_id":1863218,"coord":{"lat":34.900002,"lon":138.333328},"country":"JP","name":"Hanazawa"},{"_id":6419747,"coord":{"lat":35.633331,"lon":140.059998},"country":"JP","name":"Mihama"},{"_id":6419751,"coord":{"lat":35.633331,"lon":140.083328},"country":"JP","name":"Inage"},{"_id":1850157,"coord":{"lat":33.921761,"lon":134.236816},"country":"JP","name":"Tokushima-ken"},{"_id":1861950,"coord":{"lat":34.033329,"lon":134.466675},"country":"JP","name":"Ichinomiya"},{"_id":1849890,"coord":{"lat":35.367859,"lon":133.850815},"country":"JP","name":"Tottori-ken"},{"_id":1848049,"coord":{"lat":35.48333,"lon":133.75},"country":"JP","name":"Yura"},{"_id":1849872,"coord":{"lat":36.639259,"lon":137.265137},"country":"JP","name":"Toyama-ken"},{"_id":1859363,"coord":{"lat":36.716671,"lon":137.166672},"country":"JP","name":"Kitadai"},{"_id":1848938,"coord":{"lat":33.914581,"lon":135.511124},"country":"JP","name":"Wakayama-ken"},{"_id":1861189,"coord":{"lat":34.049999,"lon":135.333328},"country":"JP","name":"Iwanogawa"},{"_id":1854484,"coord":{"lat":33.19899,"lon":131.433533},"country":"JP","name":"Ōita-ken"},{"_id":1864750,"coord":{"lat":33.273609,"lon":131.491943},"country":"JP","name":"Beppu"},{"_id":7303469,"coord":{"lat":34.665051,"lon":135.53009},"country":"JP","name":"tsuruhashi"},{"_id":1860112,"coord":{"lat":31.383329,"lon":130.850006},"country":"JP","name":"Kanoya"},{"_id":1858419,"coord":{"lat":32.620491,"lon":130.754303},"country":"JP","name":"Kumamoto-ken"},{"_id":1853150,"coord":{"lat":32.933331,"lon":131.133331},"country":"JP","name":"Sakanashi"},{"_id":1857357,"coord":{"lat":32.966671,"lon":131.583328},"country":"JP","name":"Mie"},{"_id":1851937,"coord":{"lat":33.01667,"lon":129.733337},"country":"JP","name":"Shirahama"},{"_id":1862732,"coord":{"lat":33.200001,"lon":130.199997},"country":"JP","name":"Higashi-suminoe"},{"_id":1863385,"coord":{"lat":33.200001,"lon":130.5},"country":"JP","name":"Hainuzuka"},{"_id":1898149,"coord":{"lat":33.438332,"lon":129.938324},"country":"JP","name":"Mirukashi"},{"_id":1862633,"coord":{"lat":33.48333,"lon":130.899994},"country":"JP","name":"Hikosan"},{"_id":6822147,"coord":{"lat":33.526112,"lon":130.48703},"country":"JP","name":"Kasuga"},{"_id":1852195,"coord":{"lat":33.51667,"lon":130.433334},"country":"JP","name":"Shimo-shirōzu"},{"_id":1864572,"coord":{"lat":33.496311,"lon":130.515594},"country":"JP","name":"Chikushino-shi"},{"_id":1849299,"coord":{"lat":33.566669,"lon":130.5},"country":"JP","name":"Umi"},{"_id":1848087,"coord":{"lat":33.728729,"lon":130.983002},"country":"JP","name":"Yukuhashi"},{"_id":1855973,"coord":{"lat":34.01667,"lon":131.333328},"country":"JP","name":"Naka-gōchi"},{"_id":1858486,"coord":{"lat":34.083328,"lon":132.083328},"country":"JP","name":"Kuga"},{"_id":1858667,"coord":{"lat":34.183331,"lon":133.816666},"country":"JP","name":"Kotohira"},{"_id":1859914,"coord":{"lat":34.316669,"lon":136.399994},"country":"JP","name":"Kashiwano"},{"_id":1851426,"coord":{"lat":34.349998,"lon":134.899994},"country":"JP","name":"Sumoto"},{"_id":1861049,"coord":{"lat":34.333328,"lon":132.316666},"country":"JP","name":"Jigozen"},{"_id":1853904,"coord":{"lat":34.68631,"lon":135.519684},"country":"JP","name":"Ōsaka-fu"},{"_id":1854255,"coord":{"lat":34.400002,"lon":135.350006},"country":"JP","name":"Ō-kubo"},{"_id":1857334,"coord":{"lat":34.400002,"lon":133.083328},"country":"JP","name":"Mihara"},{"_id":1862782,"coord":{"lat":34.400002,"lon":133.083328},"country":"JP","name":"Higashimachi"},{"_id":1848409,"coord":{"lat":34.5,"lon":133.766663},"country":"JP","name":"Yobimatsu"},{"_id":1850034,"coord":{"lat":34.5,"lon":135.600006},"country":"JP","name":"Tondabayashi"},{"_id":1861797,"coord":{"lat":34.73333,"lon":137.816666},"country":"JP","name":"Ikeda"},{"_id":1857213,"coord":{"lat":34.716671,"lon":133.649994},"country":"JP","name":"Minagi"},{"_id":7302982,"coord":{"lat":34.724258,"lon":135.252426},"country":"JP","name":"御影"},{"_id":1860293,"coord":{"lat":34.799999,"lon":133.933334},"country":"JP","name":"Kanagawa"},{"_id":1861036,"coord":{"lat":34.783329,"lon":135.533325},"country":"JP","name":"Jinai"},{"_id":1855566,"coord":{"lat":34.783329,"lon":135.666672},"country":"JP","name":"Nashizukuri"},{"_id":1863516,"coord":{"lat":34.833328,"lon":137.316666},"country":"JP","name":"Goyuchō"},{"_id":1855756,"coord":{"lat":34.799999,"lon":137.716675},"country":"JP","name":"Nakatsu"},{"_id":1848899,"coord":{"lat":34.916672,"lon":139},"country":"JP","name":"Warabo"},{"_id":2113014,"coord":{"lat":35.605061,"lon":140.123337},"country":"JP","name":"Chiba-ken"},{"_id":1855512,"coord":{"lat":34.900002,"lon":139.833328},"country":"JP","name":"Nemoto"},{"_id":1862292,"coord":{"lat":34.933331,"lon":134.833328},"country":"JP","name":"Hōjō"},{"_id":1851717,"coord":{"lat":34.97694,"lon":138.383057},"country":"JP","name":"Shizuoka-shi"},{"_id":1851114,"coord":{"lat":34.966671,"lon":138.383331},"country":"JP","name":"Takajōmachi"},{"_id":1851632,"coord":{"lat":34.966671,"lon":138.933334},"country":"JP","name":"Shuzenji"},{"_id":1855416,"coord":{"lat":34.98333,"lon":133.466675},"country":"JP","name":"Niimi"},{"_id":1855947,"coord":{"lat":34.98333,"lon":134.533325},"country":"JP","name":"Nakai"},{"_id":1865404,"coord":{"lat":35.01667,"lon":133.633331},"country":"JP","name":"Akuchi"},{"_id":1854762,"coord":{"lat":35.066669,"lon":136.933334},"country":"JP","name":"Ōdaka"},{"_id":1854902,"coord":{"lat":35.099998,"lon":138.866669},"country":"JP","name":"Numazu"},{"_id":1856057,"coord":{"lat":35.181469,"lon":136.906403},"country":"JP","name":"Nagoya-shi"},{"_id":1850940,"coord":{"lat":35.133331,"lon":136.933334},"country":"JP","name":"Takatachō"},{"_id":6822209,"coord":{"lat":35.165829,"lon":136.963974},"country":"JP","name":"Nisshin"},{"_id":6698269,"coord":{"lat":35.208,"lon":137.029999},"country":"JP","name":"owariasahi"},{"_id":1864263,"coord":{"lat":35.166672,"lon":136.199997},"country":"JP","name":"Echigawa"},{"_id":1857672,"coord":{"lat":35.216671,"lon":138.516663},"country":"JP","name":"Manzawa"},{"_id":1850177,"coord":{"lat":35.23333,"lon":136.583328},"country":"JP","name":"Tokuda"},{"_id":1861602,"coord":{"lat":35.25,"lon":136.783325},"country":"JP","name":"Inazawa"},{"_id":1855380,"coord":{"lat":35.303329,"lon":139.253326},"country":"JP","name":"Ninomiya"},{"_id":1860380,"coord":{"lat":35.316669,"lon":133.116669},"country":"JP","name":"Kami-yamasa"},{"_id":1907243,"coord":{"lat":35.33889,"lon":139.423065},"country":"JP","name":"Takata"},{"_id":1860244,"coord":{"lat":35.349998,"lon":139.633331},"country":"JP","name":"Kanazawa"},{"_id":1849423,"coord":{"lat":35.349998,"lon":139.516663},"country":"JP","name":"Ueki"},{"_id":1849897,"coord":{"lat":35.400002,"lon":139.533325},"country":"JP","name":"Totsukachō"},{"_id":1861449,"coord":{"lat":35.39056,"lon":139.307785},"country":"JP","name":"Isehara"},{"_id":6419789,"coord":{"lat":35.458328,"lon":140.008331},"country":"JP","name":"Kitasode"},{"_id":1907225,"coord":{"lat":35.47361,"lon":139.272781},"country":"JP","name":"Kawara"},{"_id":1859479,"coord":{"lat":35.5,"lon":139.633331},"country":"JP","name":"Kikuna"},{"_id":1855114,"coord":{"lat":35.516472,"lon":135.752304},"country":"JP","name":"Nishizu"},{"_id":1861864,"coord":{"lat":35.51965,"lon":137.82074},"country":"JP","name":"Iida"},{"_id":1907190,"coord":{"lat":35.522781,"lon":139.319443},"country":"JP","name":"Minawa"},{"_id":1859642,"coord":{"lat":35.520561,"lon":139.717224},"country":"JP","name":"Kawasaki"},{"_id":1858480,"coord":{"lat":35.683331,"lon":139.600006},"country":"JP","name":"Kugayama"},{"_id":1862599,"coord":{"lat":35.673061,"lon":139.400284},"country":"JP","name":"Hino"},{"_id":1855730,"coord":{"lat":35.716671,"lon":139.949997},"country":"JP","name":"Nakayama"},{"_id":1855503,"coord":{"lat":35.73333,"lon":139.649994},"country":"JP","name":"Nerima"},{"_id":1852502,"coord":{"lat":35.833328,"lon":139.583328},"country":"JP","name":"Shiki"},{"_id":1851604,"coord":{"lat":35.820278,"lon":139.804443},"country":"JP","name":"Soka"},{"_id":1907125,"coord":{"lat":35.872501,"lon":139.50972},"country":"JP","name":"Kamifukuoka"},{"_id":6822108,"coord":{"lat":35.956329,"lon":140.323563},"country":"JP","name":"Inashiki"},{"_id":6822099,"coord":{"lat":36.090469,"lon":140.210464},"country":"JP","name":"Tsuchiura"},{"_id":1856435,"coord":{"lat":36.166672,"lon":137.966675},"country":"JP","name":"Muraimachi"},{"_id":1860239,"coord":{"lat":36.213261,"lon":136.230804},"country":"JP","name":"Kanazu"},{"_id":2111846,"coord":{"lat":36.183331,"lon":140.550003},"country":"JP","name":"Momiyama"},{"_id":2111756,"coord":{"lat":36.283329,"lon":140.516663},"country":"JP","name":"Nagasu"},{"_id":1852347,"coord":{"lat":36.299999,"lon":139.983337},"country":"JP","name":"Shimodate"},{"_id":2112176,"coord":{"lat":36.349998,"lon":140.366669},"country":"JP","name":"Koibuchi"},{"_id":2110964,"coord":{"lat":36.383331,"lon":140.350006},"country":"JP","name":"Sugisaki"},{"_id":2111862,"coord":{"lat":36.51667,"lon":140.633331},"country":"JP","name":"Mizuki"},{"_id":2111594,"coord":{"lat":36.549999,"lon":140.333328},"country":"JP","name":"Noguchi"},{"_id":2110944,"coord":{"lat":36.566669,"lon":140.633331},"country":"JP","name":"Suwa"},{"_id":1848211,"coord":{"lat":36.666672,"lon":138.216675},"country":"JP","name":"Yoshida"},{"_id":1856845,"coord":{"lat":36.666672,"lon":138.199997},"country":"JP","name":"Miwa"},{"_id":1850837,"coord":{"lat":36.700001,"lon":137.300003},"country":"JP","name":"Takenouchi"},{"_id":2112216,"coord":{"lat":36.73333,"lon":140.716675},"country":"JP","name":"Kitakubo"},{"_id":2112232,"coord":{"lat":36.783329,"lon":140.75},"country":"JP","name":"Kitaibaraki"},{"_id":2112922,"coord":{"lat":37.38158,"lon":140.221985},"country":"JP","name":"Fukushima-ken"},{"_id":2110661,"coord":{"lat":37.033329,"lon":140.850006},"country":"JP","name":"Tsuzura"},{"_id":1850310,"coord":{"lat":36.692589,"lon":139.816132},"country":"JP","name":"Tochigi-ken"},{"_id":1851951,"coord":{"lat":37.066669,"lon":139.933334},"country":"JP","name":"Shiozawa"},{"_id":2110959,"coord":{"lat":37.283329,"lon":140.383331},"country":"JP","name":"Sukagawa"},{"_id":2113136,"coord":{"lat":37.366669,"lon":140.433334},"country":"JP","name":"Akanuma"},{"_id":2111302,"coord":{"lat":37.383331,"lon":140.316666},"country":"JP","name":"Ōtsuki"},{"_id":2111540,"coord":{"lat":37.566669,"lon":140.983337},"country":"JP","name":"Odaka"},{"_id":2111834,"coord":{"lat":39.703609,"lon":141.152496},"country":"JP","name":"Morioka-shi"},{"_id":2111154,"coord":{"lat":39.683331,"lon":141.149994},"country":"JP","name":"Sembokuchō"},{"_id":2129211,"coord":{"lat":40.683609,"lon":141.359726},"country":"JP","name":"Misawa"},{"_id":2128852,"coord":{"lat":42.51667,"lon":143.149994},"country":"JP","name":"Nubinai"},{"_id":2128922,"coord":{"lat":42.599998,"lon":141.483337},"country":"JP","name":"Nishikioka"},{"_id":2130452,"coord":{"lat":42.819439,"lon":141.652222},"country":"JP","name":"Chitose"},{"_id":2129365,"coord":{"lat":42.901112,"lon":140.740555},"country":"JP","name":"Kutchan"},{"_id":2128690,"coord":{"lat":42.968891,"lon":141.473892},"country":"JP","name":"Ōmagari"},{"_id":2129176,"coord":{"lat":43,"lon":141.350006},"country":"JP","name":"Moiwashita"},{"_id":2130209,"coord":{"lat":43.25,"lon":141.366669},"country":"JP","name":"Hachimanchō"},{"_id":2129349,"coord":{"lat":44.084438,"lon":144.053894},"country":"JP","name":"Kyōritsu"},{"_id":2129379,"coord":{"lat":45.400002,"lon":141.683334},"country":"JP","name":"Kusanru"},{"_id":2130557,"coord":{"lat":45.400002,"lon":141.683334},"country":"JP","name":"Bentendōri"},{"_id":1858421,"coord":{"lat":32.789719,"lon":130.741669},"country":"JP","name":"Kumamoto-shi"},{"_id":2130116,"coord":{"lat":42.87278,"lon":142.440567},"country":"JP","name":"Hidaka"},{"_id":2113164,"coord":{"lat":35.866669,"lon":140.016663},"country":"JP","name":"Abiko"},{"_id":1863945,"coord":{"lat":34.75,"lon":137.916672},"country":"JP","name":"Fukuroi"},{"_id":1854383,"coord":{"lat":34.661671,"lon":133.934998},"country":"JP","name":"Okayama-shi"},{"_id":1850147,"coord":{"lat":35.689499,"lon":139.691711},"country":"JP","name":"Tokyo"},{"_id":1854083,"coord":{"lat":33.033329,"lon":130.449997},"country":"JP","name":"Omuta"},{"_id":1847966,"coord":{"lat":34.633331,"lon":134.983337},"country":"JP","name":"Akashi"},{"_id":1860887,"coord":{"lat":35.23333,"lon":136.949997},"country":"JP","name":"Kachikawa"},{"_id":1858756,"coord":{"lat":34.718399,"lon":137.531754},"country":"JP","name":"Kosai-shi"},{"_id":1863834,"coord":{"lat":34.450001,"lon":132.466675},"country":"JP","name":"Furuichi"},{"_id":1863788,"coord":{"lat":34.935551,"lon":135.761322},"country":"JP","name":"Fushimi"},{"_id":2128558,"coord":{"lat":42.991669,"lon":143.200287},"country":"JP","name":"Otofuke"},{"_id":1864815,"coord":{"lat":35.683331,"lon":139.75},"country":"JP","name":"Banchō"},{"_id":1853909,"coord":{"lat":34.693741,"lon":135.502182},"country":"JP","name":"Osaka-shi"},{"_id":1848354,"coord":{"lat":35.447781,"lon":139.642502},"country":"JP","name":"Yokohama-shi"},{"_id":2111749,"coord":{"lat":36.049999,"lon":140.166672},"country":"JP","name":"Naka"},{"_id":1859740,"coord":{"lat":35.908611,"lon":139.485275},"country":"JP","name":"Kawagoe"},{"_id":1859171,"coord":{"lat":34.691299,"lon":135.182999},"country":"JP","name":"Kobe-shi"},{"_id":1863431,"coord":{"lat":35.371109,"lon":139.223618},"country":"JP","name":"Hadano"},{"_id":1863967,"coord":{"lat":33.606392,"lon":130.41806},"country":"JP","name":"Fukuoka-shi"},{"_id":1859924,"coord":{"lat":35.854439,"lon":139.968887},"country":"JP","name":"Kashiwa"},{"_id":2113015,"coord":{"lat":35.604721,"lon":140.123337},"country":"JP","name":"Chiba-shi"},{"_id":1864154,"coord":{"lat":35.666672,"lon":139.483337},"country":"JP","name":"Fuchu"},{"_id":2113077,"coord":{"lat":35.716671,"lon":140.649994},"country":"JP","name":"Asahi"},{"_id":1864624,"coord":{"lat":35.326111,"lon":139.403885},"country":"JP","name":"Chigasaki"},{"_id":1858729,"coord":{"lat":35.883331,"lon":139.783325},"country":"JP","name":"Koshigaya"},{"_id":1848254,"coord":{"lat":35.883331,"lon":139.633331},"country":"JP","name":"Yono"},{"_id":1863289,"coord":{"lat":34.700001,"lon":137.733337},"country":"JP","name":"Hamamatsu"},{"_id":1907300,"coord":{"lat":35.78944,"lon":139.623337},"country":"JP","name":"Wako"},{"_id":1864518,"coord":{"lat":35.65556,"lon":139.552216},"country":"JP","name":"Chofu"},{"_id":1860234,"coord":{"lat":33.783329,"lon":130.983337},"country":"JP","name":"Kanda"},{"_id":1850910,"coord":{"lat":34.848331,"lon":135.616776},"country":"JP","name":"Takatsuki"},{"_id":7303136,"coord":{"lat":31.595791,"lon":130.556717},"country":"JP","name":"kagoshima"},{"_id":1864529,"coord":{"lat":35.694019,"lon":139.753632},"country":"JP","name":"Chiyoda-ku"},{"_id":1857654,"coord":{"lat":35.683331,"lon":139.766663},"country":"JP","name":"Marunouchi"},{"_id":1859129,"coord":{"lat":35.333328,"lon":136.866669},"country":"JP","name":"Kochino"},{"_id":2110891,"coord":{"lat":38.002499,"lon":140.191116},"country":"JP","name":"Takahata"},{"_id":2110556,"coord":{"lat":38.240559,"lon":140.363327},"country":"JP","name":"Yamagata-shi"},{"_id":2112328,"coord":{"lat":38.25,"lon":140.333328},"country":"JP","name":"Kasumichō"},{"_id":7303001,"coord":{"lat":33.83905,"lon":132.756729},"country":"JP","name":"松山市"},{"_id":2110584,"coord":{"lat":39.716671,"lon":140.100006},"country":"JP","name":"Yabase"},{"_id":1864092,"coord":{"lat":35.341942,"lon":139.470001},"country":"JP","name":"Fujisawa"},{"_id":1860437,"coord":{"lat":35.683331,"lon":139.550003},"country":"JP","name":"Kami-renjaku"},{"_id":1859884,"coord":{"lat":35.976391,"lon":139.753616},"country":"JP","name":"Kasukabe"},{"_id":1863905,"coord":{"lat":35.693062,"lon":139.983337},"country":"JP","name":"Funabashi"},{"_id":1850693,"coord":{"lat":35.723888,"lon":139.522217},"country":"JP","name":"Tanashi"},{"_id":1853195,"coord":{"lat":34.583328,"lon":135.466675},"country":"JP","name":"Sakai"},{"_id":1848004,"coord":{"lat":35.488892,"lon":139.388611},"country":"JP","name":"Zama"},{"_id":1849837,"coord":{"lat":34.78244,"lon":135.469315},"country":"JP","name":"Toyonaka"},{"_id":1907299,"coord":{"lat":35.804722,"lon":139.601944},"country":"JP","name":"Asaka"},{"_id":1865387,"coord":{"lat":34.716671,"lon":135.416672},"country":"JP","name":"Amagasaki"},{"_id":1865714,"coord":{"lat":35.969719,"lon":139.588608},"country":"JP","name":"Ageo"},{"_id":1848313,"coord":{"lat":35.283611,"lon":139.667221},"country":"JP","name":"Yokosuka"},{"_id":1860095,"coord":{"lat":33.299999,"lon":130.366669},"country":"JP","name":"Kanzaki"},{"_id":2129376,"coord":{"lat":42.974998,"lon":144.374725},"country":"JP","name":"Kushiro"},{"_id":2129101,"coord":{"lat":42.317219,"lon":140.988068},"country":"JP","name":"Muroran"},{"_id":1849892,"coord":{"lat":35.5,"lon":134.233337},"country":"JP","name":"Tottori"},{"_id":1849563,"coord":{"lat":38.721668,"lon":139.821671},"country":"JP","name":"Tsuruoka"},{"_id":1855580,"coord":{"lat":34.183331,"lon":134.616669},"country":"JP","name":"Naruto"},{"_id":1857276,"coord":{"lat":34.799999,"lon":134.983337},"country":"JP","name":"Miki"},{"_id":1854487,"coord":{"lat":33.23806,"lon":131.612503},"country":"JP","name":"Oita-shi"},{"_id":1859100,"coord":{"lat":35.663891,"lon":138.568329},"country":"JP","name":"Kofu-shi"},{"_id":1848903,"coord":{"lat":35.826389,"lon":139.704437},"country":"JP","name":"Warabi"},{"_id":1865005,"coord":{"lat":36.333328,"lon":139.449997},"country":"JP","name":"Ashikaga"},{"_id":1859730,"coord":{"lat":35.805,"lon":139.720566},"country":"JP","name":"Kawaguchi"},{"_id":1850311,"coord":{"lat":36.383331,"lon":139.733337},"country":"JP","name":"Tochigi"},{"_id":1856586,"coord":{"lat":34.833328,"lon":137.933334},"country":"JP","name":"Mori"},{"_id":1860243,"coord":{"lat":36.59444,"lon":136.625565},"country":"JP","name":"Kanazawa-shi"},{"_id":1848689,"coord":{"lat":34.185829,"lon":131.47139},"country":"JP","name":"Yamaguchi-shi"},{"_id":1857496,"coord":{"lat":34.566669,"lon":136.533325},"country":"JP","name":"Matsuzaka"},{"_id":1860063,"coord":{"lat":33.442501,"lon":129.969727},"country":"JP","name":"Karatsu"},{"_id":1861677,"coord":{"lat":33.26667,"lon":129.883331},"country":"JP","name":"Imari"},{"_id":1849183,"coord":{"lat":33.099998,"lon":129.983337},"country":"JP","name":"Ureshino"},{"_id":1860748,"coord":{"lat":35.965359,"lon":140.644745},"country":"JP","name":"Kashima-shi"},{"_id":1849904,"coord":{"lat":33.366669,"lon":130.516663},"country":"JP","name":"Tosu"},{"_id":1852899,"coord":{"lat":33.159168,"lon":129.722778},"country":"JP","name":"Sasebo"},{"_id":1861464,"coord":{"lat":32.84111,"lon":130.04306},"country":"JP","name":"Isahaya"},{"_id":1852479,"coord":{"lat":32.783329,"lon":130.366669},"country":"JP","name":"Shimabara"},{"_id":1862555,"coord":{"lat":33.359718,"lon":129.553055},"country":"JP","name":"Hirado"},{"_id":1864416,"coord":{"lat":34.700001,"lon":135.616669},"country":"JP","name":"Daito"},{"_id":2130629,"coord":{"lat":43.76778,"lon":142.370285},"country":"JP","name":"Asahikawa"},{"_id":1854665,"coord":{"lat":36.049999,"lon":139.266663},"country":"JP","name":"Ogawa"},{"_id":1861084,"coord":{"lat":35.366669,"lon":132.766663},"country":"JP","name":"Izumo"},{"_id":1861212,"coord":{"lat":34.150002,"lon":132.183334},"country":"JP","name":"Iwakuni"},{"_id":1851348,"coord":{"lat":34.883331,"lon":136.583328},"country":"JP","name":"Suzuka"},{"_id":2111684,"coord":{"lat":35.783329,"lon":140.316666},"country":"JP","name":"Narita"},{"_id":1853190,"coord":{"lat":34.316669,"lon":133.850006},"country":"JP","name":"Sakaide"},{"_id":2127733,"coord":{"lat":42.63694,"lon":141.603333},"country":"JP","name":"Tomakomai"},{"_id":1857968,"coord":{"lat":35.066669,"lon":136.699997},"country":"JP","name":"Kuwana"},{"_id":1848277,"coord":{"lat":35.433331,"lon":133.333328},"country":"JP","name":"Yonago"},{"_id":1860034,"coord":{"lat":34.98333,"lon":136.983337},"country":"JP","name":"Kariya"},{"_id":1856293,"coord":{"lat":34.616669,"lon":136.083328},"country":"JP","name":"Nabari"},{"_id":1861949,"coord":{"lat":35.299999,"lon":136.800003},"country":"JP","name":"Ichinomiya"},{"_id":1850185,"coord":{"lat":34.883331,"lon":136.850006},"country":"JP","name":"Tokoname"},{"_id":1862627,"coord":{"lat":34.816669,"lon":134.699997},"country":"JP","name":"Himeji"},{"_id":1857871,"coord":{"lat":35.540279,"lon":139.450836},"country":"JP","name":"Machida"},{"_id":1859393,"coord":{"lat":35.374722,"lon":139.922501},"country":"JP","name":"Kisarazu"},{"_id":1860098,"coord":{"lat":36.549999,"lon":139.733337},"country":"JP","name":"Kanuma"},{"_id":1856775,"coord":{"lat":31.73333,"lon":131.066666},"country":"JP","name":"Miyakonojo"},{"_id":2112656,"coord":{"lat":38.916672,"lon":141.133331},"country":"JP","name":"Ichinoseki"},{"_id":1850499,"coord":{"lat":34.866669,"lon":134.550003},"country":"JP","name":"Tatsuno"},{"_id":1851032,"coord":{"lat":36.75,"lon":137.016663},"country":"JP","name":"Takaoka"},{"_id":1853483,"coord":{"lat":36.299999,"lon":139.800003},"country":"JP","name":"Oyama"},{"_id":1858311,"coord":{"lat":34.583328,"lon":133.766663},"country":"JP","name":"Kurashiki"},{"_id":1859307,"coord":{"lat":33.833328,"lon":130.833328},"country":"JP","name":"Kitakyushu"},{"_id":1861968,"coord":{"lat":35.719719,"lon":139.924713},"country":"JP","name":"Ichikawa"},{"_id":1858088,"coord":{"lat":33.316669,"lon":130.516663},"country":"JP","name":"Kurume"},{"_id":2112539,"coord":{"lat":37.049999,"lon":140.883331},"country":"JP","name":"Iwaki"},{"_id":1854703,"coord":{"lat":35.349998,"lon":136.616669},"country":"JP","name":"Ogaki"},{"_id":1850091,"coord":{"lat":36.25,"lon":138.899994},"country":"JP","name":"Tomioka"},{"_id":2111781,"coord":{"lat":38.103611,"lon":140.035004},"country":"JP","name":"Nagai"},{"_id":2130534,"coord":{"lat":43.324718,"lon":141.858612},"country":"JP","name":"Bibai"},{"_id":1859175,"coord":{"lat":31.98333,"lon":130.983337},"country":"JP","name":"Kobayashi"},{"_id":1853066,"coord":{"lat":34.5,"lon":135.850006},"country":"JP","name":"Sakurai"},{"_id":1859675,"coord":{"lat":34.816669,"lon":135.416672},"country":"JP","name":"Kawanishi"},{"_id":1848573,"coord":{"lat":33.166672,"lon":130.399994},"country":"JP","name":"Yanagawa"},{"_id":1861107,"coord":{"lat":34.48333,"lon":135.433334},"country":"JP","name":"Izumi"},{"_id":1855078,"coord":{"lat":35.941109,"lon":139.858063},"country":"JP","name":"Noda"},{"_id":1847968,"coord":{"lat":35.291672,"lon":139.585556},"country":"JP","name":"Zushi"},{"_id":1907301,"coord":{"lat":35.809441,"lon":139.692505},"country":"JP","name":"Toda"},{"_id":1859094,"coord":{"lat":33.73333,"lon":130.466675},"country":"JP","name":"Koga"},{"_id":1855189,"coord":{"lat":34.866669,"lon":137.050003},"country":"JP","name":"Nishio"},{"_id":1860871,"coord":{"lat":34.73333,"lon":135.583328},"country":"JP","name":"Kadoma"},{"_id":1861095,"coord":{"lat":34.5,"lon":135.399994},"country":"JP","name":"Izumiotsu"},{"_id":1858926,"coord":{"lat":35.283329,"lon":136.916672},"country":"JP","name":"Komaki"},{"_id":1857519,"coord":{"lat":36.23333,"lon":137.966675},"country":"JP","name":"Matsumoto"},{"_id":1848188,"coord":{"lat":35.885281,"lon":139.839447},"country":"JP","name":"Yoshikawa"},{"_id":2129537,"coord":{"lat":43.803059,"lon":143.890823},"country":"JP","name":"Kitami"},{"_id":1857568,"coord":{"lat":34.566669,"lon":135.550003},"country":"JP","name":"Matsubara"},{"_id":1848439,"coord":{"lat":34.87009,"lon":135.702698},"country":"JP","name":"Yawata"},{"_id":1856367,"coord":{"lat":35.706108,"lon":139.559433},"country":"JP","name":"Musashino"},{"_id":2110498,"coord":{"lat":37.916672,"lon":140.116669},"country":"JP","name":"Yonezawa"},{"_id":1861528,"coord":{"lat":35.379951,"lon":136.942947},"country":"JP","name":"Inuyama"},{"_id":1859765,"coord":{"lat":36.061729,"lon":136.501007},"country":"JP","name":"Katsuyama"},{"_id":2110735,"coord":{"lat":39.316669,"lon":141.533325},"country":"JP","name":"Tono"},{"_id":1856068,"coord":{"lat":26.58806,"lon":127.976112},"country":"JP","name":"Nago"},{"_id":1861400,"coord":{"lat":34.066669,"lon":134.433334},"country":"JP","name":"Ishii"},{"_id":1853140,"coord":{"lat":38.916672,"lon":139.854996},"country":"JP","name":"Sakata"},{"_id":1850600,"coord":{"lat":35.366669,"lon":136.533325},"country":"JP","name":"Tarui"},{"_id":1863611,"coord":{"lat":35.416672,"lon":136.600006},"country":"JP","name":"Godo"},{"_id":1851155,"coord":{"lat":34.916672,"lon":136.983337},"country":"JP","name":"Takahama"},{"_id":1849661,"coord":{"lat":33.07056,"lon":131.857224},"country":"JP","name":"Tsukumi"},{"_id":1861835,"coord":{"lat":33.633331,"lon":130.683334},"country":"JP","name":"Iizuka"},{"_id":1859405,"coord":{"lat":36.400002,"lon":139.333328},"country":"JP","name":"Kiryu"},{"_id":1862540,"coord":{"lat":34.813519,"lon":135.649139},"country":"JP","name":"Hirakata"},{"_id":1850746,"coord":{"lat":36.299999,"lon":139.116669},"country":"JP","name":"Tamamura"},{"_id":1852595,"coord":{"lat":36.48333,"lon":139},"country":"JP","name":"Shibukawa"},{"_id":2129218,"coord":{"lat":43.203892,"lon":140.770279},"country":"JP","name":"Yoichi"},{"_id":1859116,"coord":{"lat":35.726391,"lon":139.483887},"country":"JP","name":"Kodaira"},{"_id":1852964,"coord":{"lat":36.316669,"lon":139.583328},"country":"JP","name":"Sano"},{"_id":1858964,"coord":{"lat":35.702221,"lon":139.475555},"country":"JP","name":"Kokubunji"},{"_id":2110729,"coord":{"lat":35.900002,"lon":140.083328},"country":"JP","name":"Toride"},{"_id":2112444,"coord":{"lat":39.26667,"lon":141.883331},"country":"JP","name":"Kamaishi"},{"_id":1853081,"coord":{"lat":36.216671,"lon":138.483337},"country":"JP","name":"Saku"},{"_id":2110480,"coord":{"lat":35.650002,"lon":140.166672},"country":"JP","name":"Yotsukaido"},{"_id":1851883,"coord":{"lat":36.01667,"lon":139.666672},"country":"JP","name":"Shiraoka"},{"_id":1856977,"coord":{"lat":35.116669,"lon":138.916672},"country":"JP","name":"Mishima"},{"_id":1858445,"coord":{"lat":36.066669,"lon":139.666672},"country":"JP","name":"Kuki"},{"_id":1863082,"coord":{"lat":34.316669,"lon":135.616669},"country":"JP","name":"Hashimoto"},{"_id":1852472,"coord":{"lat":34.816669,"lon":138.183334},"country":"JP","name":"Shimada"},{"_id":1848774,"coord":{"lat":34.866669,"lon":138.333328},"country":"JP","name":"Yaizu"},{"_id":1854747,"coord":{"lat":35.255562,"lon":139.159714},"country":"JP","name":"Odawara"},{"_id":1847963,"coord":{"lat":35.438889,"lon":139.359726},"country":"JP","name":"Atsugi"},{"_id":1851002,"coord":{"lat":36.333328,"lon":139.016663},"country":"JP","name":"Takasaki"},{"_id":1854384,"coord":{"lat":36.056591,"lon":138.045105},"country":"JP","name":"Okaya"},{"_id":1858866,"coord":{"lat":35,"lon":136.516663},"country":"JP","name":"Komono"},{"_id":1849788,"coord":{"lat":37.650002,"lon":138.933334},"country":"JP","name":"Tsubame"},{"_id":1851137,"coord":{"lat":34.783329,"lon":133.616669},"country":"JP","name":"Takahashi"},{"_id":1860341,"coord":{"lat":37.650002,"lon":139.050003},"country":"JP","name":"Kamo"},{"_id":1855095,"coord":{"lat":32.583328,"lon":131.666672},"country":"JP","name":"Nobeoka"},{"_id":1851259,"coord":{"lat":34.666672,"lon":137.266663},"country":"JP","name":"Tahara"},{"_id":2128787,"coord":{"lat":40.268608,"lon":140.568329},"country":"JP","name":"Odate"},{"_id":2110744,"coord":{"lat":38.393059,"lon":140.886108},"country":"JP","name":"Tomiya"},{"_id":1864549,"coord":{"lat":35,"lon":137.033325},"country":"JP","name":"Chiryu"},{"_id":1862636,"coord":{"lat":35.25,"lon":136.25},"country":"JP","name":"Hikone"},{"_id":1857062,"coord":{"lat":35.533329,"lon":136.916672},"country":"JP","name":"Mino"},{"_id":1907165,"coord":{"lat":35.674438,"lon":139.434998},"country":"JP","name":"Kunitachi"},{"_id":2110994,"coord":{"lat":39.683331,"lon":140.983337},"country":"JP","name":"Shizukuishi"},{"_id":2111310,"coord":{"lat":39.366669,"lon":141.899994},"country":"JP","name":"Otsuchi"},{"_id":2112823,"coord":{"lat":39.383331,"lon":141.116669},"country":"JP","name":"Hanamaki"},{"_id":1854626,"coord":{"lat":35.958889,"lon":139.289993},"country":"JP","name":"Ogose"},{"_id":1851125,"coord":{"lat":34.51667,"lon":135.433334},"country":"JP","name":"Takaishi"},{"_id":1852663,"coord":{"lat":35.23333,"lon":137.100006},"country":"JP","name":"Seto"},{"_id":1849782,"coord":{"lat":36.666672,"lon":136.733337},"country":"JP","name":"Tsubata"},{"_id":1850860,"coord":{"lat":34.338329,"lon":132.916672},"country":"JP","name":"Takehara"},{"_id":1849094,"coord":{"lat":33.108059,"lon":131.787781},"country":"JP","name":"Usuki"},{"_id":1860626,"coord":{"lat":34.849998,"lon":136.449997},"country":"JP","name":"Kameyama"},{"_id":2111008,"coord":{"lat":35.716671,"lon":140.266663},"country":"JP","name":"Shisui"},{"_id":1862462,"coord":{"lat":35.323059,"lon":139.342224},"country":"JP","name":"Hiratsuka"},{"_id":1861436,"coord":{"lat":36.316669,"lon":139.199997},"country":"JP","name":"Isesaki"},{"_id":2112758,"coord":{"lat":38.438889,"lon":140.400558},"country":"JP","name":"Higashine"},{"_id":1907307,"coord":{"lat":35.325279,"lon":139.891113},"country":"JP","name":"Kimitsu"},{"_id":1851282,"coord":{"lat":34.275002,"lon":133.75},"country":"JP","name":"Tadotsu"},{"_id":2111827,"coord":{"lat":36.51667,"lon":140.183334},"country":"JP","name":"Motegi"},{"_id":1862010,"coord":{"lat":31.23333,"lon":130.649994},"country":"JP","name":"Ibusuki"},{"_id":1897590,"coord":{"lat":34.366669,"lon":132.550003},"country":"JP","name":"Kaita"},{"_id":1854093,"coord":{"lat":32.921391,"lon":129.953888},"country":"JP","name":"Omura"},{"_id":1865401,"coord":{"lat":32.01667,"lon":130.199997},"country":"JP","name":"Akune"},{"_id":1857208,"coord":{"lat":32.216671,"lon":130.399994},"country":"JP","name":"Minamata"},{"_id":1858041,"coord":{"lat":31.716669,"lon":130.266663},"country":"JP","name":"Kushikino"},{"_id":1854849,"coord":{"lat":35.495762,"lon":135.746033},"country":"JP","name":"Obama"},{"_id":2111016,"coord":{"lat":38.00333,"lon":140.618332},"country":"JP","name":"Shiroishi"},{"_id":1859088,"coord":{"lat":35.691391,"lon":139.501114},"country":"JP","name":"Koganei"},{"_id":1853008,"coord":{"lat":34.883331,"lon":135.233337},"country":"JP","name":"Sanda"},{"_id":1863482,"coord":{"lat":36.133331,"lon":139.449997},"country":"JP","name":"Gyoda"},{"_id":2110460,"coord":{"lat":39.166672,"lon":140.5},"country":"JP","name":"Yuzawa"},{"_id":1854405,"coord":{"lat":33.200001,"lon":130.350006},"country":"JP","name":"Okawa"},{"_id":1862513,"coord":{"lat":33.938332,"lon":132.071671},"country":"JP","name":"Hirao"},{"_id":1848096,"coord":{"lat":36.299999,"lon":139.883331},"country":"JP","name":"Yuki"},{"_id":1856569,"coord":{"lat":35.066669,"lon":135.983337},"country":"JP","name":"Moriyama"},{"_id":1850396,"coord":{"lat":34.583328,"lon":135.833328},"country":"JP","name":"Tenri"},{"_id":1855670,"coord":{"lat":37.049999,"lon":136.966675},"country":"JP","name":"Nanao"},{"_id":2112141,"coord":{"lat":37.400002,"lon":140.383331},"country":"JP","name":"Koriyama"},{"_id":1851383,"coord":{"lat":33.549999,"lon":135.5},"country":"JP","name":"Susami"},{"_id":1858033,"coord":{"lat":33.466671,"lon":135.783325},"country":"JP","name":"Kushimoto"},{"_id":1847947,"coord":{"lat":33.73333,"lon":135.983337},"country":"JP","name":"Shingu"},{"_id":1860785,"coord":{"lat":34.150002,"lon":135.199997},"country":"JP","name":"Kainan"},{"_id":2130337,"coord":{"lat":40.650829,"lon":140.491394},"country":"JP","name":"Fujisaki"},{"_id":1863693,"coord":{"lat":34.833328,"lon":137.233337},"country":"JP","name":"Gamagori"},{"_id":2110629,"coord":{"lat":35.966671,"lon":140.133331},"country":"JP","name":"Ushiku"},{"_id":1855753,"coord":{"lat":35.48333,"lon":137.5},"country":"JP","name":"Nakatsugawa"},{"_id":1860672,"coord":{"lat":35.308891,"lon":139.550278},"country":"JP","name":"Kamakura"},{"_id":1863418,"coord":{"lat":34.400002,"lon":131.416672},"country":"JP","name":"Hagi"},{"_id":1854979,"coord":{"lat":36.533329,"lon":136.616669},"country":"JP","name":"Nonoichi"},{"_id":2129870,"coord":{"lat":43.200279,"lon":141.75972},"country":"JP","name":"Iwamizawa"},{"_id":1851368,"coord":{"lat":36.037991,"lon":138.113083},"country":"JP","name":"Suwa"},{"_id":1849539,"coord":{"lat":35.166672,"lon":136.716675},"country":"JP","name":"Tsushima"},{"_id":2111836,"coord":{"lat":36.433331,"lon":140.016663},"country":"JP","name":"Mooka"},{"_id":1852588,"coord":{"lat":31.466669,"lon":131.104996},"country":"JP","name":"Shibushi"},{"_id":1857712,"coord":{"lat":31.26667,"lon":130.316666},"country":"JP","name":"Makurazaki"},{"_id":2130061,"coord":{"lat":42.28389,"lon":143.319168},"country":"JP","name":"Hiroo"},{"_id":1907116,"coord":{"lat":35.96833,"lon":139.158615},"country":"JP","name":"Nakai"},{"_id":1851273,"coord":{"lat":33.633331,"lon":130.800003},"country":"JP","name":"Tagawa"},{"_id":1855134,"coord":{"lat":34.98333,"lon":134.966675},"country":"JP","name":"Nishiwaki"},{"_id":2111831,"coord":{"lat":35.933331,"lon":140},"country":"JP","name":"Moriya"},{"_id":2127931,"coord":{"lat":42.490559,"lon":143.274719},"country":"JP","name":"Taiki"},{"_id":2112664,"coord":{"lat":35.51667,"lon":140.083328},"country":"JP","name":"Ichihara"},{"_id":1862992,"coord":{"lat":35.26667,"lon":139.583328},"country":"JP","name":"Hayama"},{"_id":2112576,"coord":{"lat":38.416672,"lon":141.300003},"country":"JP","name":"Ishinomaki"},{"_id":2112473,"coord":{"lat":38.416672,"lon":141.300003},"country":"JP","name":"Kadonowaki"},{"_id":2112343,"coord":{"lat":36.383331,"lon":140.266663},"country":"JP","name":"Kasama"},{"_id":2112555,"coord":{"lat":35.933331,"lon":140.550003},"country":"JP","name":"Itako"},{"_id":1856881,"coord":{"lat":36.01667,"lon":139.983337},"country":"JP","name":"Mitsukaido"},{"_id":2112989,"coord":{"lat":36.76667,"lon":140.350006},"country":"JP","name":"Daigo"},{"_id":1863440,"coord":{"lat":35.65583,"lon":139.323883},"country":"JP","name":"Hachioji"},{"_id":1850818,"coord":{"lat":34.849998,"lon":136.916672},"country":"JP","name":"Taketoyo"},{"_id":1863023,"coord":{"lat":35.834171,"lon":139.736389},"country":"JP","name":"Hatogaya"},{"_id":2112802,"coord":{"lat":35.73333,"lon":140.833328},"country":"JP","name":"Hasaki"},{"_id":1851307,"coord":{"lat":35.69278,"lon":139.41806},"country":"JP","name":"Tachikawa"},{"_id":1858428,"coord":{"lat":36.133331,"lon":139.383331},"country":"JP","name":"Kumagaya"},{"_id":1865309,"coord":{"lat":33.916672,"lon":134.649994},"country":"JP","name":"Anan"},{"_id":1853992,"coord":{"lat":34.416672,"lon":133.199997},"country":"JP","name":"Onomichi"},{"_id":1850213,"coord":{"lat":26.192499,"lon":127.358612},"country":"JP","name":"Tokashiki"},{"_id":1862505,"coord":{"lat":24.799999,"lon":125.283333},"country":"JP","name":"Hirara"},{"_id":1850924,"coord":{"lat":34.650002,"lon":135.133331},"country":"JP","name":"Takatorichō"},{"_id":2112551,"coord":{"lat":35.183331,"lon":140.366669},"country":"JP","name":"Iwada"},{"_id":1864873,"coord":{"lat":35.299999,"lon":135.25},"country":"JP","name":"Ayabe"},{"_id":2112144,"coord":{"lat":37.833328,"lon":140.516663},"country":"JP","name":"Koori"},{"_id":1852003,"coord":{"lat":36.099998,"lon":137.966675},"country":"JP","name":"Shiojiri"},{"_id":1862971,"coord":{"lat":34.599998,"lon":133.833328},"country":"JP","name":"Hayashima"},{"_id":2130146,"coord":{"lat":40.183609,"lon":140.787216},"country":"JP","name":"Kazuno"},{"_id":1862198,"coord":{"lat":36.23333,"lon":139.183334},"country":"JP","name":"Honjo"},{"_id":1849592,"coord":{"lat":35.64547,"lon":136.055801},"country":"JP","name":"Tsuruga"},{"_id":1860563,"coord":{"lat":36.700001,"lon":137.366669},"country":"JP","name":"Kamiichi"},{"_id":1851898,"coord":{"lat":35.76667,"lon":139.633331},"country":"JP","name":"Shirako"},{"_id":2127896,"coord":{"lat":43.55278,"lon":141.906387},"country":"JP","name":"Takikawa"},{"_id":1894628,"coord":{"lat":26.184719,"lon":127.722504},"country":"JP","name":"Haebaru"},{"_id":1848281,"coord":{"lat":26.201389,"lon":127.753891},"country":"JP","name":"Yonabaru"},{"_id":6418686,"coord":{"lat":34.450001,"lon":134.001663},"country":"JP","name":"Tsumuura"},{"_id":1864105,"coord":{"lat":35.216671,"lon":138.616669},"country":"JP","name":"Fujinomiya"},{"_id":1854128,"coord":{"lat":35.216671,"lon":138.616669},"country":"JP","name":"Ōmiya"},{"_id":1863209,"coord":{"lat":34.883331,"lon":136.933334},"country":"JP","name":"Handa"},{"_id":2111018,"coord":{"lat":35.799999,"lon":140.066666},"country":"JP","name":"Shiroi"},{"_id":2130057,"coord":{"lat":40.59306,"lon":140.472504},"country":"JP","name":"Hirosaki"},{"_id":1861903,"coord":{"lat":32.51667,"lon":131.666672},"country":"JP","name":"Ifukugata"},{"_id":1858902,"coord":{"lat":34,"lon":134.583328},"country":"JP","name":"Komatsushima"},{"_id":1858972,"coord":{"lat":31.73333,"lon":130.766663},"country":"JP","name":"Kokubu"},{"_id":1858498,"coord":{"lat":34,"lon":131.866669},"country":"JP","name":"Kudamatsu"},{"_id":1851323,"coord":{"lat":33.950001,"lon":132.066666},"country":"JP","name":"Tabuse"},{"_id":1859952,"coord":{"lat":34.583328,"lon":135.616669},"country":"JP","name":"Kashihara"},{"_id":1848550,"coord":{"lat":33.966671,"lon":132.116669},"country":"JP","name":"Yanai"},{"_id":1849274,"coord":{"lat":34.48333,"lon":133.949997},"country":"JP","name":"Uno"},{"_id":1859319,"coord":{"lat":37.650002,"lon":139.866669},"country":"JP","name":"Kitakata"},{"_id":1859234,"coord":{"lat":33.416672,"lon":131.616669},"country":"JP","name":"Kitsuki"},{"_id":1857843,"coord":{"lat":36.391109,"lon":139.060837},"country":"JP","name":"Maebashi-shi"},{"_id":2129984,"coord":{"lat":45.016941,"lon":141.851395},"country":"JP","name":"Horonobe"},{"_id":2127515,"coord":{"lat":45.409439,"lon":141.673889},"country":"JP","name":"Wakkanai"},{"_id":2130603,"coord":{"lat":43.237221,"lon":143.542786},"country":"JP","name":"Ashoro"},{"_id":1849588,"coord":{"lat":34.883331,"lon":136.983337},"country":"JP","name":"Tsurugasaki"},{"_id":1858373,"coord":{"lat":27.41667,"lon":128.683334},"country":"JP","name":"Kunigami"},{"_id":2127635,"coord":{"lat":43.703892,"lon":144.021103},"country":"JP","name":"Tsubetsu"},{"_id":1851483,"coord":{"lat":34.761429,"lon":135.515671},"country":"JP","name":"Suita"},{"_id":1857553,"coord":{"lat":35.783329,"lon":139.899994},"country":"JP","name":"Matsudo"},{"_id":1853564,"coord":{"lat":35.599998,"lon":138.933334},"country":"JP","name":"Otsuki"},{"_id":1854492,"coord":{"lat":35.303059,"lon":139.30278},"country":"JP","name":"Oiso"},{"_id":1862373,"coord":{"lat":33.316669,"lon":130.933334},"country":"JP","name":"Hita"},{"_id":1856667,"coord":{"lat":35.366669,"lon":137.25},"country":"JP","name":"Mizunami"},{"_id":1850207,"coord":{"lat":35.349998,"lon":137.183334},"country":"JP","name":"Toki"},{"_id":1859998,"coord":{"lat":35.366669,"lon":136.766663},"country":"JP","name":"Kasamatsucho"},{"_id":2111687,"coord":{"lat":35.683331,"lon":140.033325},"country":"JP","name":"Narashino"},{"_id":1863183,"coord":{"lat":35.85194,"lon":139.318054},"country":"JP","name":"Hanno"},{"_id":1907123,"coord":{"lat":35.975559,"lon":139.650833},"country":"JP","name":"Hasuda"},{"_id":2127478,"coord":{"lat":42.253891,"lon":140.269165},"country":"JP","name":"Yakumo"},{"_id":1857379,"coord":{"lat":36.416672,"lon":139.800003},"country":"JP","name":"Mibu"},{"_id":1860458,"coord":{"lat":36.433331,"lon":139.916672},"country":"JP","name":"Kaminokawa"},{"_id":2131612,"coord":{"lat":40.80444,"lon":140.441391},"country":"JP","name":"Goshogawara"},{"_id":1852849,"coord":{"lat":36.066669,"lon":139.716675},"country":"JP","name":"Satte"},{"_id":1856184,"coord":{"lat":35.8563,"lon":139.902664},"country":"JP","name":"Nagareyama"},{"_id":2127419,"coord":{"lat":43.037781,"lon":141.957779},"country":"JP","name":"Yūbari"},{"_id":1849186,"coord":{"lat":35.670559,"lon":139.888611},"country":"JP","name":"Urayasu"},{"_id":1862689,"coord":{"lat":33.366669,"lon":131.533325},"country":"JP","name":"Hiji"},{"_id":1848991,"coord":{"lat":35.316669,"lon":134.866669},"country":"JP","name":"Wadayama"},{"_id":2128095,"coord":{"lat":43.074718,"lon":142.834717},"country":"JP","name":"Shintoku"},{"_id":1864637,"coord":{"lat":35.99028,"lon":139.076385},"country":"JP","name":"Chichibu"},{"_id":1851751,"coord":{"lat":35.099998,"lon":137.566666},"country":"JP","name":"Shitara"},{"_id":1853295,"coord":{"lat":35.553059,"lon":139.354446},"country":"JP","name":"Sagamihara"},{"_id":1865294,"coord":{"lat":34.958279,"lon":137.080536},"country":"JP","name":"Anjo"},{"_id":2127878,"coord":{"lat":41.28944,"lon":141.216934},"country":"JP","name":"Mutsu"},{"_id":1864132,"coord":{"lat":34.866669,"lon":138.266663},"country":"JP","name":"Fujieda"},{"_id":1863495,"coord":{"lat":26.354441,"lon":127.868607},"country":"JP","name":"Gushikawa"},{"_id":1854868,"coord":{"lat":36.933331,"lon":137.5},"country":"JP","name":"Nyuzen"},{"_id":1861336,"coord":{"lat":34.79689,"lon":135.355606},"country":"JP","name":"Isoshi"},{"_id":1862352,"coord":{"lat":32.216671,"lon":130.75},"country":"JP","name":"Hitoyoshi"},{"_id":1850559,"coord":{"lat":36.25,"lon":139.533325},"country":"JP","name":"Tatebayashi"},{"_id":1857692,"coord":{"lat":35.153889,"lon":139.135559},"country":"JP","name":"Manazuru"},{"_id":2110812,"coord":{"lat":38.98333,"lon":141.116669},"country":"JP","name":"Tateishi"},{"_id":2112527,"coord":{"lat":38.104721,"lon":140.859436},"country":"JP","name":"Iwanuma"},{"_id":1851842,"coord":{"lat":36.433331,"lon":136.633331},"country":"JP","name":"Shirayama"},{"_id":2129003,"coord":{"lat":41.883331,"lon":140.683334},"country":"JP","name":"Nanae"},{"_id":2128186,"coord":{"lat":43.166672,"lon":143.25},"country":"JP","name":"Shihoro"},{"_id":1864099,"coord":{"lat":36.25,"lon":139.083328},"country":"JP","name":"Fujioka"},{"_id":1856703,"coord":{"lat":35.533329,"lon":135.183334},"country":"JP","name":"Miyazu"},{"_id":1851193,"coord":{"lat":35.316669,"lon":137.133331},"country":"JP","name":"Tajimi"},{"_id":1856878,"coord":{"lat":37.533329,"lon":138.933334},"country":"JP","name":"Mitsuke"},{"_id":1863540,"coord":{"lat":37.73333,"lon":139.166672},"country":"JP","name":"Gosen"},{"_id":1852901,"coord":{"lat":35.066669,"lon":135.216675},"country":"JP","name":"Sasayama"},{"_id":1864338,"coord":{"lat":35.583328,"lon":139.216675},"country":"JP","name":"Dōshi"},{"_id":1854371,"coord":{"lat":36,"lon":139.55722},"country":"JP","name":"Okegawa"},{"_id":1860728,"coord":{"lat":34.76667,"lon":138.016663},"country":"JP","name":"Kakegawa"},{"_id":2111999,"coord":{"lat":36.466671,"lon":140.100006},"country":"JP","name":"Mashiko"},{"_id":2111855,"coord":{"lat":35.416672,"lon":140.300003},"country":"JP","name":"Mobara"},{"_id":1848243,"coord":{"lat":36.116669,"lon":139.199997},"country":"JP","name":"Yorii"},{"_id":2129909,"coord":{"lat":43.239719,"lon":141.353897},"country":"JP","name":"Ishikari"},{"_id":1860735,"coord":{"lat":35.416672,"lon":136.866669},"country":"JP","name":"Kakamigahara"},{"_id":1852831,"coord":{"lat":35,"lon":134.366669},"country":"JP","name":"Sayō"},{"_id":1865290,"coord":{"lat":36.316669,"lon":138.899994},"country":"JP","name":"Annaka"},{"_id":1907306,"coord":{"lat":35.636391,"lon":139.574432},"country":"JP","name":"Komae"},{"_id":1849706,"coord":{"lat":33.26667,"lon":131.149994},"country":"JP","name":"Tsukawaki"},{"_id":1850181,"coord":{"lat":35.79916,"lon":139.469025},"country":"JP","name":"Tokorozawa"},{"_id":2038715,"coord":{"lat":42.451389,"lon":139.851395},"country":"JP","name":"Setana"},{"_id":2127985,"coord":{"lat":42.555828,"lon":140.886108},"country":"JP","name":"Sōbetsu"},{"_id":2130001,"coord":{"lat":44.005829,"lon":142.154434},"country":"JP","name":"Horokanai"},{"_id":2131651,"coord":{"lat":45.133331,"lon":142.383331},"country":"JP","name":"Hamatonbetsu"},{"_id":2127500,"coord":{"lat":44.020828,"lon":142.417786},"country":"JP","name":"Wassamu"},{"_id":2127626,"coord":{"lat":43.335281,"lon":141.669434},"country":"JP","name":"Tsukigata"},{"_id":2130732,"coord":{"lat":42.816669,"lon":141.833328},"country":"JP","name":"Abira"},{"_id":2130723,"coord":{"lat":43.906551,"lon":142.577484},"country":"JP","name":"Aibetsu"},{"_id":2128277,"coord":{"lat":45.256939,"lon":142.200287},"country":"JP","name":"Sarufutsu"},{"_id":2128112,"coord":{"lat":43,"lon":142.416672},"country":"JP","name":"Shimukappu"},{"_id":2111461,"coord":{"lat":38.049999,"lon":140.733612},"country":"JP","name":"Okawara"},{"_id":2130558,"coord":{"lat":43.85194,"lon":141.521393},"country":"JP","name":"Mashike"},{"_id":2110793,"coord":{"lat":38.353611,"lon":140.36972},"country":"JP","name":"Tendo"},{"_id":1856560,"coord":{"lat":35.935558,"lon":139.304443},"country":"JP","name":"Morohongo"},{"_id":1861749,"coord":{"lat":34.683331,"lon":135.699997},"country":"JP","name":"Ikoma"},{"_id":1853174,"coord":{"lat":35.549999,"lon":133.233337},"country":"JP","name":"Sakaiminato"},{"_id":2112008,"coord":{"lat":37.916672,"lon":140.766663},"country":"JP","name":"Marumori"},{"_id":1848988,"coord":{"lat":27.383329,"lon":128.649994},"country":"JP","name":"Wadomari"},{"_id":2111943,"coord":{"lat":37.433331,"lon":140.483337},"country":"JP","name":"Miharu"},{"_id":1863357,"coord":{"lat":35.183331,"lon":139.033325},"country":"JP","name":"Hakone"},{"_id":1863625,"coord":{"lat":26.47611,"lon":127.973061},"country":"JP","name":"Ginoza"},{"_id":1898046,"coord":{"lat":37.98333,"lon":139.255005},"country":"JP","name":"Seirō"},{"_id":1854018,"coord":{"lat":34.001389,"lon":131.183609},"country":"JP","name":"Onoda"},{"_id":2129961,"coord":{"lat":40.20694,"lon":141.301666},"country":"JP","name":"Ichinohe"},{"_id":1864652,"coord":{"lat":26.309441,"lon":127.770279},"country":"JP","name":"Chatan"},{"_id":1894388,"coord":{"lat":26.652781,"lon":127.890282},"country":"JP","name":"Motobu"},{"_id":2110579,"coord":{"lat":35.650002,"lon":140.316666},"country":"JP","name":"Yachimata"},{"_id":2110586,"coord":{"lat":38.035,"lon":140.851105},"country":"JP","name":"Watari"},{"_id":2110596,"coord":{"lat":38.533329,"lon":141.133331},"country":"JP","name":"Wakuya"},{"_id":1848016,"coord":{"lat":39,"lon":139.916672},"country":"JP","name":"Yuza"},{"_id":2129405,"coord":{"lat":43.720558,"lon":143.737213},"country":"JP","name":"Kunneppu"},{"_id":2128730,"coord":{"lat":43.671391,"lon":143.589172},"country":"JP","name":"Oketo"},{"_id":2130404,"coord":{"lat":43.108059,"lon":141.550568},"country":"JP","name":"Ebetsu"},{"_id":1848482,"coord":{"lat":35.433331,"lon":133.25},"country":"JP","name":"Yasugi"},{"_id":1850745,"coord":{"lat":32.916672,"lon":130.566666},"country":"JP","name":"Tamana"},{"_id":1862230,"coord":{"lat":32.450001,"lon":130.199997},"country":"JP","name":"Hondo"},{"_id":2128407,"coord":{"lat":43.466671,"lon":143.738068},"country":"JP","name":"Rikubetsu"},