{"countryCode":"KP","countryName":"North Korea","countryFilePath":"KP.json","countryCityList":[{"_id":1873172,"name":"Ongjin","country":"KP","coord":{"lon":125.361938,"lat":37.934719}},{"_id":1875632,"name":"Kosan","country":"KP","coord":{"lon":127.41806,"lat":38.855831}},{"_id":1877615,"name":"Haeju","country":"KP","coord":{"lon":125.714722,"lat":38.040562}},{"_id":2054927,"name":"Nasŏn-si","country":"KP","coord":{"lon":130.366394,"lat":42.336109}},{"_id":1870413,"name":"Sil-li","country":"KP","coord":{"lon":125.47361,"lat":39.49472}},{"_id":1867927,"name":"Tongchon-up","country":"KP","coord":{"lon":127.89167,"lat":38.953892}},{"_id":1871856,"name":"P’yŏngyang-si","country":"KP","coord":{"lon":125.92778,"lat":38.985279}},{"_id":1868998,"name":"Sungho 1-tong","country":"KP","coord":{"lon":125.977783,"lat":38.99139}},{"_id":1869021,"name":"Sunan","country":"KP","coord":{"lon":125.690002,"lat":39.19833}},{"_id":1869446,"name":"Songnim","country":"KP","coord":{"lon":125.644997,"lat":38.754169}},{"_id":1870434,"name":"Sinmak","country":"KP","coord":{"lon":126.23333,"lat":38.416672}},{"_id":1870883,"name":"Sariwon","country":"KP","coord":{"lon":125.755829,"lat":38.507221}},{"_id":1877450,"name":"Hamgyŏng-namdo","country":"KP","coord":{"lon":127.53083,"lat":40.240002}},{"_id":1873757,"name":"Nampo","country":"KP","coord":{"lon":125.407784,"lat":38.737499}},{"_id":1871954,"name":"P’yŏngan-bukto","country":"KP","coord":{"lon":125.279716,"lat":40.05167}},{"_id":1876153,"name":"Kangdong-up","country":"KP","coord":{"lon":126.096107,"lat":39.142502}},{"_id":1877030,"name":"Hungnam","country":"KP","coord":{"lon":127.618607,"lat":39.831669}},{"_id":1877046,"name":"Hukkyo-ri","country":"KP","coord":{"lon":125.791939,"lat":38.798611}},{"_id":1877148,"name":"Hoeyang","country":"KP","coord":{"lon":127.598328,"lat":38.710281}},{"_id":1879029,"name":"Changyon","country":"KP","coord":{"lon":125.096107,"lat":38.250832}},{"_id":1879487,"name":"Chaeryong-up","country":"KP","coord":{"lon":125.615562,"lat":38.39917}},{"_id":1879544,"name":"Ayang-ni","country":"KP","coord":{"lon":125.779999,"lat":38.243061}},{"_id":1879613,"name":"Anju","country":"KP","coord":{"lon":125.664719,"lat":39.617779}},{"_id":1879682,"name":"Anak","country":"KP","coord":{"lon":125.494171,"lat":38.51083}},{"_id":2039623,"name":"Uiju","country":"KP","coord":{"lon":124.53167,"lat":40.19944}},{"_id":2040674,"name":"Sonbong","country":"KP","coord":{"lon":130.396667,"lat":42.34222}},{"_id":2040893,"name":"Sinuiju","country":"KP","coord":{"lon":124.398064,"lat":40.100559}},{"_id":2044245,"name":"Hamgyŏng-bukto","country":"KP","coord":{"lon":129.408325,"lat":41.903061}},{"_id":2042267,"name":"Onsong","country":"KP","coord":{"lon":129.993332,"lat":42.957218}},{"_id":2043484,"name":"Kilju","country":"KP","coord":{"lon":129.327774,"lat":40.964169}},{"_id":2043531,"name":"Kapsan-up","country":"KP","coord":{"lon":128.293335,"lat":41.090279}},{"_id":2045265,"name":"Chagang-do","country":"KP","coord":{"lon":126.505562,"lat":40.7575}},{"_id":2043572,"name":"Kanggye-si","country":"KP","coord":{"lon":126.585228,"lat":40.96946}},{"_id":2044091,"name":"Hoeryong","country":"KP","coord":{"lon":129.750824,"lat":42.44278}},{"_id":1871859,"name":"Pyongyang","country":"KP","coord":{"lon":125.754318,"lat":39.033852}},{"_id":1879151,"name":"Ch’angjŏn-dong","country":"KP","coord":{"lon":125.75,"lat":39.01667}},{"_id":1876884,"name":"Hwanghae-namdo","country":"KP","coord":{"lon":125.575829,"lat":38.16111}},{"_id":1866569,"name":"Yonan-up","country":"KP","coord":{"lon":126.16111,"lat":37.90889}},{"_id":1876101,"name":"Kangwŏn-do","country":"KP","coord":{"lon":127.440826,"lat":38.701939}},{"_id":1866923,"name":"Wonsan","country":"KP","coord":{"lon":127.443611,"lat":39.152779}},{"_id":1870742,"name":"Sinanju","country":"KP","coord":{"lon":125.609718,"lat":39.598061}},{"_id":1871484,"name":"Samho-rodongjagu","country":"KP","coord":{"lon":127.871109,"lat":39.947498}},{"_id":1875107,"name":"Kusong","country":"KP","coord":{"lon":125.24472,"lat":39.98111}},{"_id":1875506,"name":"Kujang-up","country":"KP","coord":{"lon":126.030281,"lat":39.867222}},{"_id":1875588,"name":"Kowon-up","country":"KP","coord":{"lon":127.243057,"lat":39.438061}},{"_id":1876873,"name":"Hwangju-up","country":"KP","coord":{"lon":125.776108,"lat":38.67028}},{"_id":1877872,"name":"Chunghwa","country":"KP","coord":{"lon":125.800003,"lat":38.863892}},{"_id":1878389,"name":"Chongju","country":"KP","coord":{"lon":125.210281,"lat":39.693329}},{"_id":1879672,"name":"Anbyon-up","country":"KP","coord":{"lon":127.523888,"lat":39.0425}},{"_id":2038854,"name":"Yuktae-dong","country":"KP","coord":{"lon":128.159714,"lat":40.024719}},{"_id":2041533,"name":"Sakchu-up","country":"KP","coord":{"lon":125.046669,"lat":40.389439}},{"_id":2042249,"name":"Yonggwang-up","country":"KP","coord":{"lon":127.45472,"lat":40.01833}},{"_id":2042498,"name":"Nanam","country":"KP","coord":{"lon":129.684433,"lat":41.713612}},{"_id":2042503,"name":"Namyang-dong","country":"KP","coord":{"lon":129.866669,"lat":42.950001}},{"_id":2042645,"name":"Najin","country":"KP","coord":{"lon":130.300278,"lat":42.24889}},{"_id":2042738,"name":"Musan-up","country":"KP","coord":{"lon":129.207764,"lat":42.226089}},{"_id":2042987,"name":"Kyongsong","country":"KP","coord":{"lon":129.60611,"lat":41.58778}},{"_id":2039332,"name":"Yanggang-do","country":"KP","coord":{"lon":128.203613,"lat":41.214169}},{"_id":2043677,"name":"Iwon-up","country":"KP","coord":{"lon":128.655273,"lat":40.323059}},{"_id":2043835,"name":"Hyesan-dong","country":"KP","coord":{"lon":128.178726,"lat":41.39756}},{"_id":2044050,"name":"Hongwon","country":"KP","coord":{"lon":127.955833,"lat":40.02528}},{"_id":2045311,"name":"Aoji-ri","country":"KP","coord":{"lon":130.395279,"lat":42.520561}},{"_id":1873107,"name":"Democratic People’s Republic of Korea","country":"KP","coord":{"lon":127.0,"lat":40.0}},{"_id":1876888,"name":"Hwanghae-bukto","country":"KP","coord":{"lon":126.300003,"lat":38.562778}},{"_id":1875069,"name":"Kuyŏl-li","country":"KP","coord":{"lon":126.037216,"lat":38.471668}},{"_id":1871952,"name":"P’yŏngan-namdo","country":"KP","coord":{"lon":126.18,"lat":39.511108}},{"_id":1889484,"name":"Punam-ni","country":"KP","coord":{"lon":125.660828,"lat":39.23}},{"_id":1876373,"name":"Kaesong","country":"KP","coord":{"lon":126.554443,"lat":37.970829}},{"_id":1877449,"name":"Hamhung","country":"KP","coord":{"lon":127.536392,"lat":39.918331}},{"_id":2044757,"name":"Chongjin","country":"KP","coord":{"lon":129.775833,"lat":41.795559}},{"_id":1866362,"name":"Yonggang-up","country":"KP","coord":{"lon":125.424438,"lat":38.85611}},{"_id":1866453,"name":"Yongbyon","country":"KP","coord":{"lon":125.804169,"lat":39.813332}},{"_id":1866587,"name":"Yomju-up","country":"KP","coord":{"lon":124.598061,"lat":39.89333}},{"_id":1871028,"name":"Sangsong-ni","country":"KP","coord":{"lon":126.885559,"lat":39.169441}},{"_id":1871871,"name":"Pyongsong","country":"KP","coord":{"lon":125.871941,"lat":39.246391}},{"_id":1871967,"name":"Pyoksong-up","country":"KP","coord":{"lon":125.556671,"lat":38.047501}},{"_id":1872726,"name":"Panghyon-dong","country":"KP","coord":{"lon":125.241386,"lat":39.887218}},{"_id":1875054,"name":"Kwaksan","country":"KP","coord":{"lon":125.082779,"lat":39.6875}},{"_id":1875790,"name":"Koksan","country":"KP","coord":{"lon":126.666389,"lat":38.78194}},{"_id":1932058,"name":"Sinsang-ni","country":"KP","coord":{"lon":127.40583,"lat":39.65028}},{"_id":2039557,"name":"Ungsang-nodongjagu","country":"KP","coord":{"lon":130.462219,"lat":42.35778}},{"_id":2039625,"name":"Uijin-dong","country":"KP","coord":{"lon":126.495842,"lat":40.975182}},{"_id":2040316,"name":"Sungam-nodongjagu","country":"KP","coord":{"lon":129.668884,"lat":41.66972}},{"_id":2041702,"name":"Puryong","country":"KP","coord":{"lon":129.71167,"lat":42.060558}},{"_id":2041817,"name":"Pukchil-lodongjagu","country":"KP","coord":{"lon":125.748329,"lat":40.201939}},{"_id":2042985,"name":"Kyongwon","country":"KP","coord":{"lon":130.152786,"lat":42.81361}},{"_id":2043837,"name":"Hyesan-si","country":"KP","coord":{"lon":128.17778,"lat":41.401669}},{"_id":2043983,"name":"Hungju-dong","country":"KP","coord":{"lon":126.547562,"lat":40.996288}},{"_id":2044104,"name":"Hoemul-li","country":"KP","coord":{"lon":129.669998,"lat":41.433891}},{"_id":2044149,"name":"Hau-ri","country":"KP","coord":{"lon":129.470276,"lat":41.200562}},{"_id":2045005,"name":"Chasong","country":"KP","coord":{"lon":126.641388,"lat":41.460831}},{"_id":2049653,"name":"Sungjibaegam","country":"KP","coord":{"lon":128.798889,"lat":41.242779}},{"_id":2050500,"name":"Komusan 1-tong","country":"KP","coord":{"lon":129.699997,"lat":42.109169}}]}
