{"countryCityList":[{"_id":1873172,"coord":{"lat":37.934719,"lon":125.361938},"country":"KP","name":"Ongjin"},{"_id":1875632,"coord":{"lat":38.855831,"lon":127.41806},"country":"KP","name":"Kosan"},{"_id":1877615,"coord":{"lat":38.040562,"lon":125.714722},"country":"KP","name":"Haeju"},{"_id":2054927,"coord":{"lat":42.336109,"lon":130.366394},"country":"KP","name":"Nasŏn-si"},{"_id":1870413,"coord":{"lat":39.49472,"lon":125.47361},"country":"KP","name":"Sil-li"},{"_id":1867927,"coord":{"lat":38.953892,"lon":127.89167},"country":"KP","name":"Tongchon-up"},{"_id":1871856,"coord":{"lat":38.985279,"lon":125.92778},"country":"KP","name":"P’yŏngyang-si"},{"_id":1868998,"coord":{"lat":38.99139,"lon":125.977783},"country":"KP","name":"Sungho 1-tong"},{"_id":1869021,"coord":{"lat":39.19833,"lon":125.690002},"country":"KP","name":"Sunan"},{"_id":1869446,"coord":{"lat":38.754169,"lon":125.644997},"country":"KP","name":"Songnim"},{"_id":1870434,"coord":{"lat":38.416672,"lon":126.23333},"country":"KP","name":"Sinmak"},{"_id":1870883,"coord":{"lat":38.507221,"lon":125.755829},"country":"KP","name":"Sariwon"},{"_id":1877450,"coord":{"lat":40.240002,"lon":127.53083},"country":"KP","name":"Hamgyŏng-namdo"},{"_id":1873757,"coord":{"lat":38.737499,"lon":125.407784},"country":"KP","name":"Nampo"},{"_id":1871954,"coord":{"lat":40.05167,"lon":125.279716},"country":"KP","name":"P’yŏngan-bukto"},{"_id":1876153,"coord":{"lat":39.142502,"lon":126.096107},"country":"KP","name":"Kangdong-up"},{"_id":1877030,"coord":{"lat":39.831669,"lon":127.618607},"country":"KP","name":"Hungnam"},{"_id":1877046,"coord":{"lat":38.798611,"lon":125.791939},"country":"KP","name":"Hukkyo-ri"},{"_id":1877148,"coord":{"lat":38.710281,"lon":127.598328},"country":"KP","name":"Hoeyang"},{"_id":1879029,"coord":{"lat":38.250832,"lon":125.096107},"country":"KP","name":"Changyon"},{"_id":1879487,"coord":{"lat":38.39917,"lon":125.615562},"country":"KP","name":"Chaeryong-up"},{"_id":1879544,"coord":{"lat":38.243061,"lon":125.779999},"country":"KP","name":"Ayang-ni"},{"_id":1879613,"coord":{"lat":39.617779,"lon":125.664719},"country":"KP","name":"Anju"},{"_id":1879682,"coord":{"lat":38.51083,"lon":125.494171},"country":"KP","name":"Anak"},{"_id":2039623,"coord":{"lat":40.19944,"lon":124.53167},"country":"KP","name":"Uiju"},{"_id":2040674,"coord":{"lat":42.34222,"lon":130.396667},"country":"KP","name":"Sonbong"},{"_id":2040893,"coord":{"lat":40.100559,"lon":124.398064},"country":"KP","name":"Sinuiju"},{"_id":2044245,"coord":{"lat":41.903061,"lon":129.408325},"country":"KP","name":"Hamgyŏng-bukto"},{"_id":2042267,"coord":{"lat":42.957218,"lon":129.993332},"country":"KP","name":"Onsong"},{"_id":2043484,"coord":{"lat":40.964169,"lon":129.327774},"country":"KP","name":"Kilju"},{"_id":2043531,"coord":{"lat":41.090279,"lon":128.293335},"country":"KP","name":"Kapsan-up"},{"_id":2045265,"coord":{"lat":40.7575,"lon":126.505562},"country":"KP","name":"Chagang-do"},{"_id":2043572,"coord":{"lat":40.96946,"lon":126.585228},"country":"KP","name":"Kanggye-si"},{"_id":2044091,"coord":{"lat":42.44278,"lon":129.750824},"country":"KP","name":"Hoeryong"},{"_id":1871859,"coord":{"lat":39.033852,"lon":125.754318},"country":"KP","name":"Pyongyang"},{"_id":1879151,"coord":{"lat":39.01667,"lon":125.75},"country":"KP","name":"Ch’angjŏn-dong"},{"_id":1876884,"coord":{"lat":38.16111,"lon":125.575829},"country":"KP","name":"Hwanghae-namdo"},{"_id":1866569,"coord":{"lat":37.90889,"lon":126.16111},"country":"KP","name":"Yonan-up"},{"_id":1876101,"coord":{"lat":38.701939,"lon":127.440826},"country":"KP","name":"Kangwŏn-do"},{"_id":1866923,"coord":{"lat":39.152779,"lon":127.443611},"country":"KP","name":"Wonsan"},{"_id":1870742,"coord":{"lat":39.598061,"lon":125.609718},"country":"KP","name":"Sinanju"},{"_id":1871484,"coord":{"lat":39.947498,"lon":127.871109},"country":"KP","name":"Samho-rodongjagu"},{"_id":1875107,"coord":{"lat":39.98111,"lon":125.24472},"country":"KP","name":"Kusong"},{"_id":1875506,"coord":{"lat":39.867222,"lon":126.030281},"country":"KP","name":"Kujang-up"},{"_id":1875588,"coord":{"lat":39.438061,"lon":127.243057},"country":"KP","name":"Kowon-up"},{"_id":1876873,"coord":{"lat":38.67028,"lon":125.776108},"country":"KP","name":"Hwangju-up"},{"_id":1877872,"coord":{"lat":38.863892,"lon":125.800003},"country":"KP","name":"Chunghwa"},{"_id":1878389,"coord":{"lat":39.693329,"lon":125.210281},"country":"KP","name":"Chongju"},{"_id":1879672,"coord":{"lat":39.0425,"lon":127.523888},"country":"KP","name":"Anbyon-up"},{"_id":2038854,"coord":{"lat":40.024719,"lon":128.159714},"country":"KP","name":"Yuktae-dong"},{"_id":2041533,"coord":{"lat":40.389439,"lon":125.046669},"country":"KP","name":"Sakchu-up"},{"_id":2042249,"coord":{"lat":40.01833,"lon":127.45472},"country":"KP","name":"Yonggwang-up"},{"_id":2042498,"coord":{"lat":41.713612,"lon":129.684433},"country":"KP","name":"Nanam"},{"_id":2042503,"coord":{"lat":42.950001,"lon":129.866669},"country":"KP","name":"Namyang-dong"},{"_id":2042645,"coord":{"lat":42.24889,"lon":130.300278},"country":"KP","name":"Najin"},{"_id":2042738,"coord":{"lat":42.226089,"lon":129.207764},"country":"KP","name":"Musan-up"},{"_id":2042987,"coord":{"lat":41.58778,"lon":129.60611},"country":"KP","name":"Kyongsong"},{"_id":2039332,"coord":{"lat":41.214169,"lon":128.203613},"country":"KP","name":"Yanggang-do"},{"_id":2043677,"coord":{"lat":40.323059,"lon":128.655273},"country":"KP","name":"Iwon-up"},{"_id":2043835,"coord":{"lat":41.39756,"lon":128.178726},"country":"KP","name":"Hyesan-dong"},{"_id":2044050,"coord":{"lat":40.02528,"lon":127.955833},"country":"KP","name":"Hongwon"},{"_id":2045311,"coord":{"lat":42.520561,"lon":130.395279},"country":"KP","name":"Aoji-ri"},{"_id":1873107,"coord":{"lat":40,"lon":127},"country":"KP","name":"Democratic People’s Republic of Korea"},{"_id":1876888,"coord":{"lat":38.562778,"lon":126.300003},"country":"KP","name":"Hwanghae-bukto"},{"_id":1875069,"coord":{"lat":38.471668,"lon":126.037216},"country":"KP","name":"Kuyŏl-li"},{"_id":1871952,"coord":{"lat":39.511108,"lon":126.18},"country":"KP","name":"P’yŏngan-namdo"},{"_id":1889484,"coord":{"lat":39.23,"lon":125.660828},"country":"KP","name":"Punam-ni"},{"_id":1876373,"coord":{"lat":37.970829,"lon":126.554443},"country":"KP","name":"Kaesong"},{"_id":1877449,"coord":{"lat":39.918331,"lon":127.536392},"country":"KP","name":"Hamhung"},{"_id":2044757,"coord":{"lat":41.795559,"lon":129.775833},"country":"KP","name":"Chongjin"},{"_id":1866362,"coord":{"lat":38.85611,"lon":125.424438},"country":"KP","name":"Yonggang-up"},{"_id":1866453,"coord":{"lat":39.813332,"lon":125.804169},"country":"KP","name":"Yongbyon"},{"_id":1866587,"coord":{"lat":39.89333,"lon":124.598061},"country":"KP","name":"Yomju-up"},{"_id":1871028,"coord":{"lat":39.169441,"lon":126.885559},"country":"KP","name":"Sangsong-ni"},{"_id":1871871,"coord":{"lat":39.246391,"lon":125.871941},"country":"KP","name":"Pyongsong"},{"_id":1871967,"coord":{"lat":38.047501,"lon":125.556671},"country":"KP","name":"Pyoksong-up"},{"_id":1872726,"coord":{"lat":39.887218,"lon":125.241386},"country":"KP","name":"Panghyon-dong"},{"_id":1875054,"coord":{"lat":39.6875,"lon":125.082779},"country":"KP","name":"Kwaksan"},{"_id":1875790,"coord":{"lat":38.78194,"lon":126.666389},"country":"KP","name":"Koksan"},{"_id":1932058,"coord":{"lat":39.65028,"lon":127.40583},"country":"KP","name":"Sinsang-ni"},{"_id":2039557,"coord":{"lat":42.35778,"lon":130.462219},"country":"KP","name":"Ungsang-nodongjagu"},{"_id":2039625,"coord":{"lat":40.975182,"lon":126.495842},"country":"KP","name":"Uijin-dong"},{"_id":2040316,"coord":{"lat":41.66972,"lon":129.668884},"country":"KP","name":"Sungam-nodongjagu"},{"_id":2041702,"coord":{"lat":42.060558,"lon":129.71167},"country":"KP","name":"Puryong"},{"_id":2041817,"coord":{"lat":40.201939,"lon":125.748329},"country":"KP","name":"Pukchil-lodongjagu"},{"_id":2042985,"coord":{"lat":42.81361,"lon":130.152786},"country":"KP","name":"Kyongwon"},{"_id":2043837,"coord":{"lat":41.401669,"lon":128.17778},"country":"KP","name":"Hyesan-si"},{"_id":2043983,"coord":{"lat":40.996288,"lon":126.547562},"country":"KP","name":"Hungju-dong"},{"_id":2044104,"coord":{"lat