{"countryCityList":[{"_id":3580529,"coord":{"lat":19.26667,"lon":-81.300003},"country":"KY","name":"Savannah"},{"_id":3580718,"coord":{"lat":19.5,"lon":-80.666672},"country":"KY","name":"Cayman Islands"},{"_id":3580601,"coord":{"lat":19.283331,"lon":-81.283333},"country":"KY","name":"Lower Valley"},{"_id":3580619,"coord":{"lat":19.26667,"lon":-81.400002},"country":"KY","name":"Lambert House"},{"_id":3580661,"coord":{"lat":19.286921,"lon":-81.367058},"country":"KY","name":"George Town"},{"_id":3580686,"coord":{"lat":19.299999,"lon":-81.383331},"country":"KY","name":"Dog City"},{"_id":3580678,"coord":{"lat":19.299999,"lon":-81.116669},"country":"KY","name":"East End"},{"_id":3580575,"coord":{"lat":19.35,"lon":-81.199997},"country":"KY","name":"North Side"},{"_id":3580572,"coord":{"lat":19.299999,"lon":-81.300003},"country":"KY","name":"North Sound Estates"},{"_id":3580477,"coord":{"lat":19.366671,"lon":-81.416672},"country":"KY","name":"West Bay"},{"_id":3580733,"coord":{"lat":19.283331,"lon":-81.25},"country":