{"countryCode":"LU","countryName":"Luxembourg","countryFilePath":"LU.json","countryCityList":[{"_id":2960313,"name":"Grand Duchy of Luxembourg","country":"LU","coord":{"lon":6.16667,"lat":49.75}},{"_id":2960629,"name":"Canton d'Echternach","country":"LU","coord":{"lon":6.36667,"lat":49.76667}},{"_id":2959975,"name":"Canton de Wiltz","country":"LU","coord":{"lon":5.93333,"lat":49.966671}},{"_id":2960590,"name":"Ettelbruck","country":"LU","coord":{"lon":6.08333,"lat":49.833328}},{"_id":2960631,"name":"Echternach","country":"LU","coord":{"lon":6.42185,"lat":49.813068}},{"_id":2960003,"name":"Wecker","country":"LU","coord":{"lon":6.38833,"lat":49.691391}},{"_id":2960656,"name":"Canton de Diekirch","country":"LU","coord":{"lon":6.16667,"lat":49.866669}},{"_id":2960314,"name":"District de Luxembourg","country":"LU","coord":{"lon":6.16667,"lat":49.583328}},{"_id":2960801,"name":"Belval","country":"LU","coord":{"lon":5.94361,"lat":49.510281}},{"_id":2960655,"name":"District de Diekirch","country":"LU","coord":{"lon":6.0,"lat":49.916672}},{"_id":2960161,"name":"Canton de Redange","country":"LU","coord":{"lon":5.9,"lat":49.799999}},{"_id":6693320,"name":"Vichten","country":"LU","coord":{"lon":6.0,"lat":49.803059}},{"_id":2960019,"name":"Vichten","country":"LU","coord":{"lon":6.0,"lat":49.803059}},{"_id":2960696,"name":"Canton de Capellen","country":"LU","coord":{"lon":6.0,"lat":49.633331}},{"_id":6693317,"name":"Redange-sur-Attert","country":"LU","coord":{"lon":5.89083,"lat":49.76556}},{"_id":2960183,"name":"Pettingen","country":"LU","coord":{"lon":6.10917,"lat":49.770279}},{"_id":2960823,"name":"Aspelt","country":"LU","coord":{"lon":6.22472,"lat":49.522781}},{"_id":6693265,"name":"Kopstal","country":"LU","coord":{"lon":6.07306,"lat":49.66444}},{"_id":2960363,"name":"Kopstal","country":"LU","coord":{"lon":6.07306,"lat":49.66444}},{"_id":2960189,"name":"Perlé","country":"LU","coord":{"lon":5.76583,"lat":49.811668}},{"_id":2960288,"name":"Massen","country":"LU","coord":{"lon":5.99278,"lat":50.1175}},{"_id":2960513,"name":"District de Grevenmacher","country":"LU","coord":{"lon":6.41667,"lat":49.666672}},{"_id":2959966,"name":"Wollefsmillen","country":"LU","coord":{"lon":6.49,"lat":49.716389}},{"_id":6696267,"name":"Bollendorf-Pont","country":"LU","coord":{"lon":6.35787,"lat":49.848469}},{"_id":2960739,"name":"Born","country":"LU","coord":{"lon":6.51389,"lat":49.754169}},{"_id":2960316,"name":"Luxembourg","country":"LU","coord":{"lon":6.13,"lat":49.611671}},{"_id":2960630,"name":"Echternach","country":"LU","coord":{"lon":6.42222,"lat":49.805561}},{"_id":2960599,"name":"Canton d'Esch-sur-Alzette","country":"LU","coord":{"lon":6.03333,"lat":49.5}},{"_id":2960635,"name":"Dudelange","country":"LU","coord":{"lon":6.08333,"lat":49.5}},{"_id":2960634,"name":"Dudelange","country":"LU","coord":{"lon":6.0875,"lat":49.48056}},{"_id":6693323,"name":"Esch-sur-Sûre","country":"LU","coord":{"lon":5.93639,"lat":49.911388}},{"_id":2960595,"name":"Esch-sur-Sûre","country":"LU","coord":{"lon":5.93639,"lat":49.911388}},{"_id":6693258,"name":"Bascharage","country":"LU","coord":{"lon":5.91028,"lat":49.567501}},{"_id":2960815,"name":"Bascharage","country":"LU","coord":{"lon":5.91028,"lat":49.567501}},{"_id":2960565,"name":"Foetz","country":"LU","coord":{"lon":6.01083,"lat":49.529442}},{"_id":2960315,"name":"Canton de Luxembourg","country":"LU","coord":{"lon":6.13333,"lat":49.599998}},{"_id":6693279,"name":"Sandweiler","country":"LU","coord":{"lon":6.21889,"lat":49.613331}},{"_id":2960117,"name":"Sandweiler","country":"LU","coord":{"lon":6.21889,"lat":49.613331}},{"_id":2960697,"name":"Capellen","country":"LU","coord":{"lon":5.99083,"lat":49.645}},{"_id":6693281,"name":"Steinsel","country":"LU","coord":{"lon":6.12389,"lat":49.676941}},{"_id":2960058,"name":"Steinsel","country":"LU","coord":{"lon":6.12389,"lat":49.676941}},{"_id":2960143,"name":"Rodange","country":"LU","coord":{"lon":5.84083,"lat":49.546391}},{"_id":6693282,"name":"Strassen","country":"LU","coord":{"lon":6.07333,"lat":49.62056}},{"_id":2960054,"name":"Strassen","country":"LU","coord":{"lon":6.07333,"lat":49.62056}},{"_id":2960275,"name":"Canton de Mersch","country":"LU","coord":{"lon":6.1,"lat":49.75}},{"_id":6693286,"name":"Bissen","country":"LU","coord":{"lon":6.06944,"lat":49.787498}},{"_id":2960759,"name":"Bissen","country":"LU","coord":{"lon":6.06944,"lat":49.787498}},{"_id":2960778,"name":"Bettembourg","country":"LU","coord":{"lon":6.08333,"lat":49.5}},{"_id":2960777,"name":"Bettembourg","country":"LU","coord":{"lon":6.10278,"lat":49.518608}},{"_id":6693293,"name":"Mersch","country":"LU","coord":{"lon":6.10611,"lat":49.74889}},{"_id":2960276,"name":"Mersch","country":"LU","coord":{"lon":6.10611,"lat":49.74889}},{"_id":6693276,"name":"Contern","country":"LU","coord":{"lon":6.22667,"lat":49.58194}},{"_id":2960673,"name":"Contern","country":"LU","coord":{"lon":6.22667,"lat":49.58194}},{"_id":2960514,"name":"Canton de Grevenmacher","country":"LU","coord":{"lon":6.33333,"lat":49.666672}},{"_id":6693347,"name":"Wormeldange","country":"LU","coord":{"lon":6.40583,"lat":49.60833}},{"_id":2959959,"name":"Wormeldange","country":"LU","coord":{"lon":6.40583,"lat":49.60833}},{"_id":2960795,"name":"Bereldange","country":"LU","coord":{"lon":6.1275,"lat":49.65694}},{"_id":6693275,"name":"Bertrange","country":"LU","coord":{"lon":6.05,"lat":49.611111}},{"_id":2960782,"name":"Bertrange","country":"LU","coord":{"lon":6.05,"lat":49.611111}},{"_id":2960800,"name":"Belvaux","country":"LU","coord":{"lon":5.92944,"lat":49.512779}},{"_id":6693341,"name":"Betzdorf","country":"LU","coord":{"lon":6.35,"lat":49.683331}},{"_id":2960774,"name":"Betzdorf","country":"LU","coord":{"lon":6.35,"lat":49.683331}},{"_id":2960152,"name":"Canton de Remich","country":"LU","coord":{"lon":6.33333,"lat":49.533329}},{"_id":6693352,"name":"Mondorf-les-Bains","country":"LU","coord":{"lon":6.28111,"lat":49.505001}},{"_id":2960257,"name":"Mondorf-les-Bains","country":"LU","coord":{"lon":6.28111,"lat":49.505001}},{"_id":2960326,"name":"Livange","country":"LU","coord":{"lon":6.12028,"lat":49.530281}},{"_id":6693288,"name":"Fischbach","country":"LU","coord":{"lon":6.18722,"lat":49.739719}},{"_id":2960571,"name":"Fischbach","country":"LU","coord":{"lon":6.18722,"lat":49.739719}},{"_id":6693263,"name":"Kehlen","country":"LU","coord":{"lon":6.03583,"lat":49.668331}},{"_id":2960389,"name":"Kehlen","country":"LU","coord":{"lon":6.03583,"lat":49.668331}},{"_id":6693291,"name":"Lintgen","country":"LU","coord":{"lon":6.13361,"lat":49.715832}},{"_id":2960328,"name":"Lintgen","country":"LU","coord":{"lon":6.13361,"lat":49.715832}},{"_id":6693278,"name":"Niederanven","country":"LU","coord":{"lon":6.26,"lat":49.647499}},{"_id":2960231,"name":"Niederanven","country":"LU","coord":{"lon":6.26,"lat":49.647499}},{"_id":6693266,"name":"Mamer","country":"LU","coord":{"lon":6.02333,"lat":49.627499}},{"_id":2960299,"name":"Mamer","country":"LU","coord":{"lon":6.02333,"lat":49.627499}},{"_id":6693269,"name":"Esch-sur-Alzette","country":"LU","coord":{"lon":5.98056,"lat":49.495831}},{"_id":2960596,"name":"Esch-sur-Alzette","country":"LU","coord":{"lon":5.98056,"lat":49.495831}},{"_id":2960589,"name":"Ettelbruck","country":"LU","coord":{"lon":6.10417,"lat":49.8475}},{"_id":2960392,"name":"Kayl","country":"LU","coord":{"lon":6.0,"lat":49.5}},{"_id":2960391,"name":"Kayl","country":"LU","coord":{"lon":6.03972,"lat":49.48917}},{"_id":2960067,"name":"Soleuvre","country":"LU","coord":{"lon":5.94056,"lat":49.525558}},{"_id":6693280,"name":"Schuttrange","country":"LU","coord":{"lon":6.26861,"lat":49.62056}},{"_id":2960082,"name":"Schuttrange","country":"LU","coord":{"lon":6.26861,"lat":49.62056}},{"_id":6693271,"name":"Leudelange","country":"LU","coord":{"lon":6.06528,"lat":49.568329}},{"_id":2960335,"name":"Leudelange","country":"LU","coord":{"lon":6.06528,"lat":49.568329}},{"_id":2960618,"name":"Eischen","country":"LU","coord":{"lon":5.87861,"lat":49.685558}},{"_id":2960683,"name":"Canton de Clervaux","country":"LU","coord":{"lon":6.0,"lat":50.083328}},{"_id":6693297,"name":"Clervaux","country":"LU","coord":{"lon":6.03139,"lat":50.054722}},{"_id":2960684,"name":"Clervaux","country":"LU","coord":{"lon":6.03139,"lat":50.054722}},{"_id":2960103,"name":"Schifflange","country":"LU","coord":{"lon":6.0,"lat":49.5}},{"_id":2960102,"name":"Schifflange","country":"LU","coord":{"lon":6.01278,"lat":49.50639}},{"_id":2960160,"name":"Redange-sur-Attert","country":"LU","coord":{"lon":5.89083,"lat":49.76556}},{"_id":6693354,"name":"Remich","country":"LU","coord":{"lon":6.36694,"lat":49.544998}},{"_id":2960154,"name":"Remich","country":"LU","coord":{"lon":6.36694,"lat":49.544998}},{"_id":2960130,"name":"Roodt-lès-Ell","country":"LU","coord":{"lon":5.82167,"lat":49.794441}},{"_id":6693274,"name":"Roeser","country":"LU","coord":{"lon":6.15,"lat":49.542221}},{"_id":2960135,"name":"Roeser","country":"LU","coord":{"lon":6.15,"lat":49.542221}},{"_id":2959978,"name":"Wiltz","country":"LU","coord":{"lon":5.91667,"lat":49.916672}},{"_id":2959977,"name":"Wiltz","country":"LU","coord":{"lon":5.93194,"lat":49.968891}},{"_id":2960627,"name":"Ehlerange","country":"LU","coord":{"lon":5.96611,"lat":49.52417}},{"_id":2960644,"name":"Doncols","country":"LU","coord":{"lon":5.83722,"lat":49.970001}},{"_id":6693292,"name":"Lorentzweiler","country":"LU","coord":{"lon":6.1425,"lat":49.694721}},{"_id":2960322,"name":"Lorentzweiler","country":"LU","coord":{"lon":6.1425,"lat":49.694721}},{"_id":6693300,"name":"Hosingen","country":"LU","coord":{"lon":6.09333,"lat":50.01778}},{"_id":2960429,"name":"Hosingen","country":"LU","coord":{"lon":6.09333,"lat":50.01778}},{"_id":6693309,"name":"Medernach","country":"LU","coord":{"lon":6.21833,"lat":49.801941}},{"_id":2960283,"name":"Medernach","country":"LU","coord":{"lon":6.21833,"lat":49.801941}},{"_id":2960472,"name":"Heisdorf-sur-Alzette","country":"LU","coord":{"lon":6.14222,"lat":49.66861}},{"_id":6693308,"name":"Hoscheid","country":"LU","coord":{"lon":6.08167,"lat":49.94722}},{"_id":2960432,"name":"Hoscheid","country":"LU","coord":{"lon":6.08167,"lat":49.94722}},{"_id":2960765,"name":"Binsfeld","country":"LU","coord":{"lon":6.03861,"lat":50.118889}},{"_id":2960468,"name":"Helmsange","country":"LU","coord":{"lon":6.14139,"lat":49.652779}},{"_id":6693277,"name":"Hesperange","country":"LU","coord":{"lon":6.15139,"lat":49.568062}},{"_id":2960457,"name":"Hesperange","country":"LU","coord":{"lon":6.15139,"lat":49.568062}},{"_id":6693264,"name":"Koerich","country":"LU","coord":{"lon":5.95,"lat":49.669998}},{"_id":2960367,"name":"Koerich","country":"LU","coord":{"lon":5.95,"lat":49.669998}},{"_id":2960720,"name":"Bridel","country":"LU","coord":{"lon":6.08222,"lat":49.658329}},{"_id":2960124,"name":"Rumelange","country":"LU","coord":{"lon":6.0,"lat":49.5}},{"_id":2960123,"name":"Rumelange","country":"LU","coord":{"lon":6.03306,"lat":49.460831}},{"_id":2960652,"name":"Differdange","country":"LU","coord":{"lon":5.88333,"lat":49.51667}},{"_id":2960651,"name":"Differdange","country":"LU","coord":{"lon":5.89139,"lat":49.52417}},{"_id":2960575,"name":"Findel","country":"LU","coord":{"lon":6.20278,"lat":49.62389}},{"_id":6693272,"name":"Mondercange","country":"LU","coord":{"lon":5.98833,"lat":49.533058}},{"_id":2960258,"name":"Mondercange","country":"LU","coord":{"lon":5.98833,"lat":49.533058}},{"_id":2960031,"name":"Troisvierges","country":"LU","coord":{"lon":6.0,"lat":50.133331}},{"_id":2960030,"name":"Troisvierges","country":"LU","coord":{"lon":6.00028,"lat":50.121109}},{"_id":2960781,"name":"Bettange-sur-Mess","country":"LU","coord":{"lon":5.98389,"lat":49.575829}},{"_id":6693346,"name":"Mertert","country":"LU","coord":{"lon":6.48139,"lat":49.69611}},{"_id":2960271,"name":"Mertert","country":"LU","coord":{"lon":6.48139,"lat":49.69611}},{"_id":2960592,"name":"Eselborn","country":"LU","coord":{"lon":6.00361,"lat":50.062778}},{"_id":2960437,"name":"Holzem","country":"LU","coord":{"lon":5.99028,"lat":49.61639}},{"_id":2960584,"name":"Fentange","country":"LU","coord":{"lon":6.15389,"lat":49.562778}},{"_id":6693344,"name":"Junglinster","country":"LU","coord":{"lon":6.25306,"lat":49.707218}},{"_id":2960400,"name":"Junglinster","country":"LU","coord":{"lon":6.25306,"lat":49.707218}},{"_id":2960020,"name":"Canton de Vianden","country":"LU","coord":{"lon":6.16667,"lat":49.933331}},{"_id":6693333,"name":"Vianden","country":"LU","coord":{"lon":6.20889,"lat":49.935001}},{"_id":2960021,"name":"Vianden","country":"LU","coord":{"lon":6.20889,"lat":49.935001}},{"_id":2959993,"name":"Weimershof","country":"LU","coord":{"lon":6.15,"lat":49.599998}},{"_id":2960741,"name":"Bonnevoie","country":"LU","coord":{"lon":6.15,"lat":49.59444}},{"_id":2960188,"name":"Pétange","country":"LU","coord":{"lon":5.88333,"lat":49.549999}},{"_id":2960187,"name":"Petange","country":"LU","coord":{"lon":5.88056,"lat":49.558331}},{"_id":2959973,"name":"Wilwerdange","country":"LU","coord":{"lon":6.02389,"lat":50.14056}},{"_id":2960280,"name":"Mensdorf","country":"LU","coord":{"lon":6.30361,"lat":49.650829}},{"_id":6693296,"name":"Wincrange","country":"LU","coord":{"lon":5.91917,"lat":50.053329}},{"_id":2959971,"name":"Wincrange","country":"LU","coord":{"lon":5.91917,"lat":50.053329}},{"_id":2960293,"name":"Marnach","country":"LU","coord":{"lon":6.06194,"lat":50.053329}},{"_id":2960691,"name":"Christnach","country":"LU","coord":{"lon":6.27361,"lat":49.781109}},{"_id":2960107,"name":"Schengen","country":"LU","coord":{"lon":6.36583,"lat":49.471668}},{"_id":2960829,"name":"Angelsberg","country":"LU","coord":{"lon":6.16083,"lat":49.75639}},{"_id":2960133,"name":"Rollingen","country":"LU","coord":{"lon":6.11444,"lat":49.741669}},{"_id":2960387,"name":"Keispelt","country":"LU","coord":{"lon":6.06944,"lat":49.694439}},{"_id":2960282,"name":"Medingen","country":"LU","coord":{"lon":6.24861,"lat":49.572781}},{"_id":2960370,"name":"Kockelscheuer","country":"LU","coord":{"lon":6.11222,"lat":49.561111}},{"_id":2960531,"name":"Gosseldange","country":"LU","coord":{"lon":6.11694,"lat":49.726391}},{"_id":2960586,"name":"Fennange","country":"LU","coord":{"lon":6.07833,"lat":49.519718}},{"_id":6693283,"name":"Walferdange","country":"LU","coord":{"lon":6.13722,"lat":49.658329}},{"_id":2960010,"name":"Walferdange","country":"LU","coord":{"lon":6.13722,"lat":49.658329}},{"_id":3285197,"name":"Feulen","country":"LU","coord":{"lon":6.01667,"lat":49.849998}},{"_id":2960577,"name":"Niederfeulen","country":"LU","coord":{"lon":6.04722,"lat":49.85556}},{"_id":2960537,"name":"Goeblange","country":"LU","coord":{"lon":5.96528,"lat":49.66972}},{"_id":2960820,"name":"Asselborn","country":"LU","coord":{"lon":5.97306,"lat":50.097221}},{"_id":2960042,"name":"Tetange","country":"LU","coord":{"lon":6.04222,"lat":49.47583}},{"_id":2960533,"name":"Goetzingen","country":"LU","coord":{"lon":5.98167,"lat":49.660278}},{"_id":2960212,"name":"Oberanven","country":"LU","coord":{"lon":6.24111,"lat":49.65361}},{"_id":2960754,"name":"Blaschette","country":"LU","coord":{"lon":6.17056,"lat":49.69722}},{"_id":2960410,"name":"Itzig","country":"LU","coord":{"lon":6.17361,"lat":49.584171}},{"_id":2960672,"name":"Crauthem","country":"LU","coord":{"lon":6.14694,"lat":49.535561}},{"_id":2960200,"name":"Oetrange","country":"LU","coord":{"lon":6.26,"lat":49.59639}},{"_id":2960084,"name":"Schrassig","country":"LU","coord":{"lon":6.25889,"lat":49.605831}},{"_id":2960144,"name":"Rippweiler","country":"LU","coord":{"lon":5.9575,"lat":49.751671}},{"_id":2960214,"name":"Nospelt","country":"LU","coord":{"lon":6.00889,"lat":49.675282}},{"_id":6693350,"name":"Dalheim","country":"LU","coord":{"lon":6.25972,"lat":49.540829}},{"_id":2960665,"name":"Dalheim","country":"LU","coord":{"lon":6.25972,"lat":49.540829}},{"_id":6693259,"name":"Clemency","country":"LU","coord":{"lon":5.87583,"lat":49.596668}},{"_id":2960687,"name":"Clemency","country":"LU","coord":{"lon":5.87583,"lat":49.596668}},{"_id":2960267,"name":"Michelau","country":"LU","coord":{"lon":6.09194,"lat":49.900002}},{"_id":2960668,"name":"Cruchten","country":"LU","coord":{"lon":6.13278,"lat":49.791939}},{"_id":2959985,"name":"Welscheid","country":"LU","coord":{"lon":6.06778,"lat":49.888062}},{"_id":6693289,"name":"Heffingen","country":"LU","coord":{"lon":6.24139,"lat":49.762501}},{"_id":2960481,"name":"Heffingen","country":"LU","coord":{"lon":6.24139,"lat":49.762501}},{"_id":2960252,"name":"Moutfort","country":"LU","coord":{"lon":6.25556,"lat":49.585281}},{"_id":2960605,"name":"Ernzen","country":"LU","coord":{"lon":6.22194,"lat":49.765831}},{"_id":2960089,"name":"Schoenfels","country":"LU","coord":{"lon":6.09222,"lat":49.718891}},{"_id":2960165,"name":"Reckange-lès-Mersch","country":"LU","coord":{"lon":6.08306,"lat":49.749722}},{"_id":6693316,"name":"Grosbous","country":"LU","coord":{"lon":5.96722,"lat":49.827782}},{"_id":2960510,"name":"Grosbous","country":"LU","coord":{"lon":5.96722,"lat":49.827782}},{"_id":2960628,"name":"Ehlange","country":"LU","coord":{"lon":6.01694,"lat":49.548889}},{"_id":6693290,"name":"Larochette","country":"LU","coord":{"lon":6.22111,"lat":49.776939}},{"_id":2960350,"name":"Larochette","country":"LU","coord":{"lon":6.22111,"lat":49.776939}},{"_id":2960266,"name":"Michelbouch","country":"LU","coord":{"lon":6.02028,"lat":49.818611}},{"_id":2960748,"name":"Boevange-Clervaux","country":"LU","coord":{"lon":5.93417,"lat":50.046391}},{"_id":2960718,"name":"Brouch","country":"LU","coord":{"lon":6.02306,"lat":49.736111}},{"_id":2960209,"name":"Oberfeulen","country":"LU","coord":{"lon":6.03556,"lat":49.848061}},{"_id":2960703,"name":"Buschdorf","country":"LU","coord":{"lon":6.00833,"lat":49.750832}},{"_id":2960008,"name":"Warken","country":"LU","coord":{"lon":6.095,"lat":49.854439}},{"_id":2960532,"name":"Gonderange","country":"LU","coord":{"lon":6.24833,"lat":49.688889}},{"_id":2960088,"name":"Schoos","country":"LU","coord":{"lon":6.17083,"lat":49.744171}},{"_id":2960420,"name":"Huncherange","country":"LU","coord":{"lon":6.065,"lat":49.516941}},{"_id":2960331,"name":"Limpach","country":"LU","coord":{"lon":5.98056,"lat":49.558891}},{"_id":2960174,"name":"Pontpierre","country":"LU","coord":{"lon":6.02944,"lat":49.536388}},{"_id":2960294,"name":"Marienthal","country":"LU","coord":{"lon":6.06167,"lat":49.709999}},{"_id":2960281,"name":"Meispelt","country":"LU","coord":{"lon":6.05917,"lat":49.691109}},{"_id":2960415,"name":"Imbringen","country":"LU","coord":{"lon":6.1975,"lat":49.697498}},{"_id":2960111,"name":"Schandel","country":"LU","coord":{"lon":5.97583,"lat":49.792221}},{"_id":2960524,"name":"Greisch","country":"LU","coord":{"lon":5.98833,"lat":49.709721}},{"_id":2960607,"name":"Ernster","country":"LU","coord":{"lon":6.24722,"lat":49.67556}},{"_id":6693273,"name":"Reckange-sur-Mess","country":"LU","coord":{"lon":6.00889,"lat":49.5625}},{"_id":2960164,"name":"Reckange-sur-Mess","country":"LU","coord":{"lon":6.00889,"lat":49.5625}},{"_id":6693261,"name":"Garnich","country":"LU","coord":{"lon":5.9525,"lat":49.616669}},{"_id":2960549,"name":"Garnich","country":"LU","coord":{"lon":5.9525,"lat":49.616669}},{"_id":2960441,"name":"Hollenfels","country":"LU","coord":{"lon":6.05083,"lat":49.713058}},{"_id":2960470,"name":"Hellange","country":"LU","coord":{"lon":6.15056,"lat":49.506672}},{"_id":2960803,"name":"Beidweiler","country":"LU","coord":{"lon":6.3025,"lat":49.723331}},{"_id":2960617,"name":"Eisenborn","country":"LU","coord":{"lon":6.18528,"lat":49.686668}},{"_id":2960083,"name":"Schrondweiler","country":"LU","coord":{"lon":6.15917,"lat":49.797779}},{"_id":2960378,"name":"Kleinbettingen","country":"LU","coord":{"lon":5.91639,"lat":49.646389}},{"_id":2960699,"name":"Canach","country":"LU","coord":{"lon":6.32583,"lat":49.606941}},{"_id":6693343,"name":"Flaxweiler","country":"LU","coord":{"lon":6.34361,"lat":49.661671}},{"_id":2960568,"name":"Flaxweiler","country":"LU","coord":{"lon":6.34361,"lat":49.661671}},{"_id":2960312,"name":"Machtum","country":"LU","coord":{"lon":6.43444,"lat":49.65556}},{"_id":6693312,"name":"Schieren","country":"LU","coord":{"lon":6.09861,"lat":49.830559}},{"_id":2960104,"name":"Schieren","country":"LU","coord":{"lon":6.09861,"lat":49.830559}},{"_id":2960166,"name":"Rameldange","country":"LU","coord":{"lon":6.23361,"lat":49.65694}},{"_id":6693294,"name":"Nommern","country":"LU","coord":{"lon":6.17472,"lat":49.786942}},{"_id":2960216,"name":"Nommern","country":"LU","coord":{"lon":6.17472,"lat":49.786942}},{"_id":2960150,"name":"Reuland","country":"LU","coord":{"lon":6.26028,"lat":49.74667}},{"_id":6693260,"name":"Dippach","country":"LU","coord":{"lon":5.98333,"lat":49.588329}},{"_id":2960648,"name":"Dippach","country":"LU","coord":{"lon":5.98333,"lat":49.588329}},{"_id":2960137,"name":"Roedgen","country":"LU","coord":{"lon":6.03472,"lat":49.574718}},{"_id":2960764,"name":"Bivange","country":"LU","coord":{"lon":6.13778,"lat":49.544441}},{"_id":2960832,"name":"Alzingen","country":"LU","coord":{"lon":6.16361,"lat":49.564999}},{"_id":2960047,"name":"Syren","country":"LU","coord":{"lon":6.22167,"lat":49.561939}},{"_id":2960519,"name":"Grevels","country":"LU","coord":{"lon":5.91583,"lat":49.853062}},{"_id":2960735,"name":"Bourglinster","country":"LU","coord":{"lon":6.21972,"lat":49.697781}},{"_id":2960588,"name":"Everlange","country":"LU","coord":{"lon":5.95556,"lat":49.77417}},{"_id":2960217,"name":"Noertzange","country":"LU","coord":{"lon":6.05611,"lat":49.509171}},{"_id":2960062,"name":"Stegen","country":"LU","coord":{"lon":6.17194,"lat":49.830002}},{"_id":2960649,"name":"Dillingen","country":"LU","coord":{"lon":6.31917,"lat":49.853611}},{"_id":2960799,"name":"Berbourg","country":"LU","coord":{"lon":6.39389,"lat":49.727219}},{"_id":2960816,"name":"Basbellain","country":"LU","coord":{"lon":5.98389,"lat":50.145828}},{"_id":2960501,"name":"Hachiville","country":"LU","coord":{"lon":5.92333,"lat":50.108059}},{"_id":6693267,"name":"Septfontaines","country":"LU","coord":{"lon":5.96722,"lat":49.701111}},{"_id":2960070,"name":"Septfontaines","country":"LU","coord":{"lon":5.96722,"lat":49.701111}},{"_id":2960702,"name":"Buschrodt","country":"LU","coord":{"lon":5.93583,"lat":49.827221}},{"_id":6693349,"name":"Burmerange","country":"LU","coord":{"lon":6.32306,"lat":49.485279}},{"_id":2960704,"name":"Burmerange","country":"LU","coord":{"lon":6.32306,"lat":49.485279}},{"_id":6693295,"name":"Tuntange","country":"LU","coord":{"lon":6.01028,"lat":49.717781}},{"_id":2960027,"name":"Tuntange","country":"LU","coord":{"lon":6.01028,"lat":49.717781}},{"_id":2960226,"name":"Niederpallen","country":"LU","coord":{"lon":5.91222,"lat":49.75528}},{"_id":6693326,"name":"Heiderscheid","country":"LU","coord":{"lon":5.97889,"lat":49.888889}},{"_id":2960478,"name":"Heiderscheid","country":"LU","coord":{"lon":5.97889,"lat":49.888889}},{"_id":2960427,"name":"Hostert","country":"LU","coord":{"lon":6.235,"lat":49.650829}},{"_id":2960094,"name":"Schlindermanderscheid","country":"LU","coord":{"lon":6.06361,"lat":49.93306}},{"_id":6693319,"name":"Useldange","country":"LU","coord":{"lon":5.98222,"lat":49.769718}},{"_id":2960022,"name":"Useldange","country":"LU","coord":{"lon":5.98222,"lat":49.769718}},{"_id":6693268,"name":"Steinfort","country":"LU","coord":{"lon":5.91917,"lat":49.661388}},{"_id":2960061,"name":"Steinfort","country":"LU","coord":{"lon":5.91917,"lat":49.661388}},{"_id":2960358,"name":"Lamadelaine","country":"LU","coord":{"lon":5.85639,"lat":49.546391}},{"_id":2960797,"name":"Berchem","country":"LU","coord":{"lon":6.12917,"lat":49.540279}},{"_id":6693331,"name":"Tandel","country":"LU","coord":{"lon":6.19611,"lat":49.915562}},{"_id":2960561,"name":"Fouhren","country":"LU","coord":{"lon":6.19611,"lat":49.915562}},{"_id":6693270,"name":"Frisange","country":"LU","coord":{"lon":6.19167,"lat":49.514999}},{"_id":2960556,"name":"Frisange","country":"LU","coord":{"lon":6.19167,"lat":49.514999}},{"_id":2960171,"name":"Pratz","country":"LU","coord":{"lon":5.93917,"lat":49.80167}},{"_id":6693357,"name":"Wellenstein","country":"LU","coord":{"lon":6.34222,"lat":49.523891}},{"_id":2959987,"name":"Wellenstein","country":"LU","coord":{"lon":6.34222,"lat":49.523891}},{"_id":2960843,"name":"Aciérie","country":"LU","coord":{"lon":5.9,"lat":49.533329}},{"_id":2960228,"name":"Niedercorn","country":"LU","coord":{"lon":5.89306,"lat":49.53611}},{"_id":2960085,"name":"Schouweiler","country":"LU","coord":{"lon":5.95639,"lat":49.5825}},{"_id":6693353,"name":"Remerschen","country":"LU","coord":{"lon":6.35167,"lat":49.488609}},{"_id":2960155,"name":"Remerschen","country":"LU","coord":{"lon":6.35167,"lat":49.488609}},{"_id":2960201,"name":"Oberwampach","country":"LU","coord":{"lon":5.86083,"lat":50.01667}},{"_id":6693356,"name":"Waldbredimus","country":"LU","coord":{"lon":6.2875,"lat":49.555}},{"_id":2960013,"name":"Waldbredimus","country":"LU","coord":{"lon":6.2875,"lat":49.555}},{"_id":2960261,"name":"Moesdorf","country":"LU","coord":{"lon":6.11667,"lat":49.768059}},{"_id":2960250,"name":"Mullendorf","country":"LU","coord":{"lon":6.13,"lat":49.680279}},{"_id":2960469,"name":"Helmdange","country":"LU","coord":{"lon":6.14361,"lat":49.687222}},{"_id":2960576,"name":"Filsdorf","country":"LU","coord":{"lon":6.24833,"lat":49.532501}},{"_id":2960072,"name":"Senningen","country":"LU","coord":{"lon":6.23944,"lat":49.641941}},{"_id":2960746,"name":"Bofferdange","country":"LU","coord":{"lon":6.14167,"lat":49.68306}},{"_id":2960141,"name":"Rodenbourg","country":"LU","coord":{"lon":6.28917,"lat":49.682499}},{"_id":6693340,"name":"Waldbillig","country":"LU","coord":{"lon":6.28667,"lat":49.788891}},{"_id":2960014,"name":"Waldbillig","country":"LU","coord":{"lon":6.28667,"lat":49.788891}},{"_id":2959980,"name":"Wickrange","country":"LU","coord":{"lon":6.02167,"lat":49.541389}},{"_id":6693307,"name":"Erpeldange","country":"LU","coord":{"lon":6.11472,"lat":49.864719}},{"_id":2960601,"name":"Erpeldange-sur-Sûre","country":"LU","coord":{"lon":6.11472,"lat":49.864719}},{"_id":6693318,"name":"Saeul","country":"LU","coord":{"lon":5.98639,"lat":49.727219}},{"_id":2960120,"name":"Saeul","country":"LU","coord":{"lon":5.98639,"lat":49.727219}},{"_id":6693262,"name":"Hobscheid","country":"LU","coord":{"lon":5.91472,"lat":49.68861}},{"_id":2960453,"name":"Hobscheid","country":"LU","coord":{"lon":5.91472,"lat":49.68861}},{"_id":2960539,"name":"Godbrange","country":"LU","coord":{"lon":6.23194,"lat":49.728889}},{"_id":2960833,"name":"Altwies","country":"LU","coord":{"lon":6.25722,"lat":49.510559}},{"_id":6693348,"name":"Bous","country":"LU","coord":{"lon":6.32917,"lat":49.55389}},{"_id":2960732,"name":"Bous","country":"LU","coord":{"lon":6.32917,"lat":49.55389}},{"_id":6693298,"name":"Consthum","country":"LU","coord":{"lon":6.05417,"lat":49.97472}},{"_id":2960674,"name":"Consthum","country":"LU","coord":{"lon":6.05417,"lat":49.97472}},{"_id":2960273,"name":"Merscheid-lès-Putscheid","country":"LU","coord":{"lon":6.10694,"lat":49.95472}},{"_id":2960598,"name":"Eschdorf","country":"LU","coord":{"lon":5.93667,"lat":49.886108}},{"_id":2960491,"name":"Harlange","country":"LU","coord":{"lon":5.79,"lat":49.931389}},{"_id":2960676,"name":"Colpach-Haut","country":"LU","coord":{"lon":5.82,"lat":49.768608}},{"_id":2960523,"name":"Greiveldange","country":"LU","coord":{"lon":6.35917,"lat":49.583889}},{"_id":2960145,"name":"Rippig","country":"LU","coord":{"lon":6.31944,"lat":49.734169}},{"_id":2960497,"name":"Haller","country":"LU","coord":{"lon":6.2825,"lat":49.8125}},{"_id":6693305,"name":"Bourscheid","country":"LU","coord":{"lon":6.06722,"lat":49.91}},{"_id":2960734,"name":"Bourscheid","country":"LU","coord":{"lon":6.06722,"lat":49.91}},{"_id":6693321,"name":"Wahl","country":"LU","coord":{"lon":5.90639,"lat":49.83667}},{"_id":2960017,"name":"Wahl","country":"LU","coord":{"lon":5.90639,"lat":49.83667}},{"_id":2960414,"name":"Ingeldorf","country":"LU","coord":{"lon":6.13472,"lat":49.85194}},{"_id":2960485,"name":"Hautcharage","country":"LU","coord":{"lon":5.91083,"lat":49.577499}},{"_id":2960399,"name":"Kahler","country":"LU","coord":{"lon":5.91778,"lat":49.63139}},{"_id":2960157,"name":"Reimberg","country":"LU","coord":{"lon":5.95389,"lat":49.797218}},{"_id":2960190,"name":"Peppange","country":"LU","coord":{"lon":6.12972,"lat":49.524441}},{"_id":6693306,"name":"Ermsdorf","country":"LU","coord":{"lon":6.22278,"lat":49.829441}},{"_id":2960608,"name":"Ermsdorf","country":"LU","coord":{"lon":6.22278,"lat":49.829441}},{"_id":6693313,"name":"Beckerich","country":"LU","coord":{"lon":5.88722,"lat":49.73056}},{"_id":2960806,"name":"Beckerich","country":"LU","coord":{"lon":5.88722,"lat":49.73056}},{"_id":2960766,"name":"Bilsdorf","country":"LU","coord":{"lon":5.825,"lat":49.857498}},{"_id":6693284,"name":"Weiler-la-Tour","country":"LU","coord":{"lon":6.20083,"lat":49.540829}},{"_id":2959996,"name":"Weiler-la-Tour","country":"LU","coord":{"lon":6.20083,"lat":49.540829}},{"_id":2960219,"name":"Noerdange","country":"LU","coord":{"lon":5.92611,"lat":49.742222}},{"_id":2960543,"name":"Gilsdorf","country":"LU","coord":{"lon":6.1825,"lat":49.86694}},{"_id":2960573,"name":"Fingig","country":"LU","coord":{"lon":5.90083,"lat":49.603611}},{"_id":6693335,"name":"Bech","country":"LU","coord":{"lon":6.36361,"lat":49.746109}},{"_id":2960807,"name":"Bech","country":"LU","coord":{"lon":6.36361,"lat":49.746109}},{"_id":2960034,"name":"Trintange","country":"LU","coord":{"lon":6.28056,"lat":49.570831}},{"_id":6693334,"name":"Beaufort","country":"LU","coord":{"lon":6.29167,"lat":49.835831}},{"_id":2960809,"name":"Beaufort","country":"LU","coord":{"lon":6.29167,"lat":49.835831}},{"_id":2960486,"name":"Hautbellain","country":"LU","coord":{"lon":5.97861,"lat":50.15667}},{"_id":2959961,"name":"Wolwelange","country":"LU","coord":{"lon":5.76472,"lat":49.828609}},{"_id":2960195,"name":"Ospern","country":"LU","coord":{"lon":5.90444,"lat":49.78389}},{"_id":2960643,"name":"Doennange","country":"LU","coord":{"lon":5.95583,"lat":50.062222}},{"_id":2960454,"name":"Hivange","country":"LU","coord":{"lon":5.93222,"lat":49.60722}},{"_id":2960327,"name":"Lipperscheid","country":"LU","coord":{"lon":6.08667,"lat":49.91861}},{"_id":2960421,"name":"Huldange","country":"LU","coord":{"lon":6.015,"lat":50.164719}},{"_id":2960667,"name":"Dahl","country":"LU","coord":{"lon":5.97583,"lat":49.93528}},{"_id":2960583,"name":"Roudenhaff","country":"LU","coord":{"lon":5.84722,"lat":49.531109}},{"_id":6693322,"name":"Boulaide","country":"LU","coord":{"lon":5.81639,"lat":49.887779}},{"_id":2960737,"name":"Boulaide","country":"LU","coord":{"lon":5.81639,"lat":49.887779}},{"_id":2960424,"name":"Hovelange","country":"LU","coord":{"lon":5.90722,"lat":49.7225}},{"_id":6693355,"name":"Stadtbredimus","country":"LU","coord":{"lon":6.36444,"lat":49.562778}},{"_id":2960063,"name":"Stadtbredimus","country":"LU","coord":{"lon":6.36444,"lat":49.562778}},{"_id":2960176,"name":"Platen","country":"LU","coord":{"lon":5.93472,"lat":49.791111}},{"_id":2960780,"name":"Bettborn","country":"LU","coord":{"lon":5.94111,"lat":49.79528}},{"_id":6693330,"name":"Winseler","country":"LU","coord":{"lon":5.89028,"lat":49.967781}},{"_id":2959968,"name":"Winseler","country":"LU","coord":{"lon":5.89028,"lat":49.967781}},{"_id":2960205,"name":"Oberpallen","country":"LU","coord":{"lon":5.84389,"lat":49.730282}},{"_id":2960488,"name":"Hassel","country":"LU","coord":{"lon":6.20917,"lat":49.548611}},{"_id":2960026,"name":"Uebersyren","country":"LU","coord":{"lon":6.27806,"lat":49.628609}},{"_id":2960319,"name":"Lullange","country":"LU","coord":{"lon":5.94194,"lat":50.060001}},{"_id":2960158,"name":"Reichlange","country":"LU","coord":{"lon":5.92806,"lat":49.773609}},{"_id":6693339,"name":"Rosport","country":"LU","coord":{"lon":6.50417,"lat":49.797779}},{"_id":2960127,"name":"Rosport","country":"LU","coord":{"lon":6.50417,"lat":49.797779}},{"_id":6693336,"name":"Berdorf","country":"LU","coord":{"lon":6.35028,"lat":49.81361}},{"_id":2960796,"name":"Berdorf","country":"LU","coord":{"lon":6.35028,"lat":49.81361}},{"_id":3283390,"name":"Bech-Kleinmacher","country":"LU","coord":{"lon":6.355,"lat":49.53083}},{"_id":2960779,"name":"Bettel","country":"LU","coord":{"lon":6.22778,"lat":49.917221}},{"_id":6693337,"name":"Consdorf","country":"LU","coord":{"lon":6.33833,"lat":49.77306}},{"_id":2960675,"name":"Consdorf","country":"LU","coord":{"lon":6.33833,"lat":49.77306}},{"_id":2959988,"name":"Welfrange","country":"LU","coord":{"lon":6.28417,"lat":49.538059}},{"_id":2960329,"name":"Linger","country":"LU","coord":{"lon":5.88667,"lat":49.56583}},{"_id":6693327,"name":"Kautenbach","country":"LU","coord":{"lon":6.02,"lat":49.952782}},{"_id":2960393,"name":"Kautenbach","country":"LU","coord":{"lon":6.02,"lat":49.952782}},{"_id":6693299,"name":"Heinerscheid","country":"LU","coord":{"lon":6.08806,"lat":50.096111}},{"_id":2960475,"name":"Heinerscheid","country":"LU","coord":{"lon":6.08806,"lat":50.096111}},{"_id":2960366,"name":"Koetschette","country":"LU","coord":{"lon":5.84028,"lat":49.838058}},{"_id":2960771,"name":"Beyren","country":"LU","coord":{"lon":6.33694,"lat":49.626389}},{"_id":6693302,"name":"Weiswampach","country":"LU","coord":{"lon":6.075,"lat":50.137218}},{"_id":2959989,"name":"Weiswampach","country":"LU","coord":{"lon":6.075,"lat":50.137218}},{"_id":6693351,"name":"Lenningen","country":"LU","coord":{"lon":6.36806,"lat":49.59861}},{"_id":2960337,"name":"Lenningen","country":"LU","coord":{"lon":6.36806,"lat":49.59861}},{"_id":2960706,"name":"Burden","country":"LU","coord":{"lon":6.09889,"lat":49.88306}},{"_id":2960055,"name":"Stolzembourg","country":"LU","coord":{"lon":6.16778,"lat":49.96722}},{"_id":2960108,"name":"Scheidgen","country":"LU","coord":{"lon":6.36056,"lat":49.775002}},{"_id":2960044,"name":"Tarchamps","country":"LU","coord":{"lon":5.79611,"lat":49.950562}},{"_id":2959995,"name":"Weiler-lès-Putscheid","country":"LU","coord":{"lon":6.12417,"lat":49.963612}},{"_id":2960221,"name":"Nocher","country":"LU","coord":{"lon":5.97917,"lat":49.947498}},{"_id":2960813,"name":"Bastendorf","country":"LU","coord":{"lon":6.16528,"lat":49.891941}},{"_id":6693315,"name":"Rambrouch","country":"LU","coord":{"lon":5.845,"lat":49.83083}},{"_id":2960167,"name":"Rambrouch","country":"LU","coord":{"lon":5.845,"lat":49.83083}},{"_id":6693311,"name":"Reisdorf","country":"LU","coord":{"lon":6.26778,"lat":49.86861}},{"_id":2960156,"name":"Reisdorf","country":"LU","coord":{"lon":6.26778,"lat":49.86861}},{"_id":2960731,"name":"Boxhorn","country":"LU","coord":{"lon":5.9925,"lat":50.083889}},{"_id":2960822,"name":"Assel","country":"LU","coord":{"lon":6.31583,"lat":49.55278}},{"_id":6693345,"name":"Manternach","country":"LU","coord":{"lon":6.42639,"lat":49.702782}},{"_id":2960296,"name":"Manternach","country":"LU","coord":{"lon":6.42639,"lat":49.702782}},{"_id":2960262,"name":"Moersdorf","country":"LU","coord":{"lon":6.5,"lat":49.738331}},{"_id":2960563,"name":"Folschette","country":"LU","coord":{"lon":5.87472,"lat":49.814171}},{"_id":2960769,"name":"Bigonville","country":"LU","coord":{"lon":5.79333,"lat":49.851669}},{"_id":2960180,"name":"Pintsch","country":"LU","coord":{"lon":6.01306,"lat":49.994438}},{"_id":2960613,"name":"Elvange-lès-Burmerange","country":"LU","coord":{"lon":6.31639,"lat":49.50528}},{"_id":2960373,"name":"Knaphoscheid","country":"LU","coord":{"lon":5.96472,"lat":50.013329}},{"_id":2960436,"name":"Holzthum","country":"LU","coord":{"lon":6.07333,"lat":49.985001}},{"_id":2960834,"name":"Altrier","country":"LU","coord":{"lon":6.32656,"lat":49.750092}},{"_id":2959983,"name":"Wemperhardt","country":"LU","coord":{"lon":6.05333,"lat":50.15556}},{"_id":6693287,"name":"Boevange-sur-Attert","country":"LU","coord":{"lon":6.01556,"lat":49.77528}},{"_id":2960747,"name":"Boevange-sur-Attert","country":"LU","coord":{"lon":6.01556,"lat":49.77528}},{"_id":2959967,"name":"Wintrange","country":"LU","coord":{"lon":6.35278,"lat":49.501389}},{"_id":2960736,"name":"Bour","country":"LU","coord":{"lon":6.01889,"lat":49.701389}},{"_id":2960413,"name":"Insenborn","country":"LU","coord":{"lon":5.88472,"lat":49.901669}},{"_id":2960149,"name":"Reuler","country":"LU","coord":{"lon":6.0375,"lat":50.057781}},{"_id":2960109,"name":"Scheidel","country":"LU","coord":{"lon":6.04472,"lat":49.893608}},{"_id":2960011,"name":"Walsdorf","country":"LU","coord":{"lon":6.17361,"lat":49.92667}},{"_id":2960638,"name":"Drauffelt","country":"LU","coord":{"lon":6.00611,"lat":50.01778}},{"_id":2960625,"name":"Ehnen","country":"LU","coord":{"lon":6.38778,"lat":49.59972}},{"_id":2960213,"name":"Nothum","country":"LU","coord":{"lon":5.88278,"lat":49.941391}},{"_id":2960814,"name":"Baschleiden","country":"LU","coord":{"lon":5.82028,"lat":49.898331}},{"_id":2960056,"name":"Stockem","country":"LU","coord":{"lon":5.95806,"lat":50.078892}},{"_id":2960660,"name":"Derenbach","country":"LU","coord":{"lon":5.88972,"lat":50.014999}},{"_id":2960194,"name":"Osweiler","country":"LU","coord":{"lon":6.44139,"lat":49.778889}},{"_id":2960641,"name":"Dorscheid","country":"LU","coord":{"lon":6.07139,"lat":50.03611}},{"_id":2960694,"name":"Cessange","country":"LU","coord":{"lon":6.10694,"lat":49.589439}},{"_id":2960016,"name":"Wahlhausen","country":"LU","coord":{"lon":6.12667,"lat":49.985279}},{"_id":2960750,"name":"Bockholz-lès-Hosingen","country":"LU","coord":{"lon":6.05278,"lat":50.012218}},{"_id":6693301,"name":"Munshausen","country":"LU","coord":{"lon":6.03861,"lat":50.033611}},{"_id":2960247,"name":"Munshausen","country":"LU","coord":{"lon":6.03861,"lat":50.033611}},{"_id":2960730,"name":"Brachtenbach","country":"LU","coord":{"lon":5.91139,"lat":50.021389}},{"_id":6693328,"name":"Neunhausen","country":"LU","coord":{"lon":5.88722,"lat":49.877499}},{"_id":2960234,"name":"Neunhausen","country":"LU","coord":{"lon":5.88722,"lat":49.877499}},{"_id":2960139,"name":"Rodershausen","country":"LU","coord":{"lon":6.13111,"lat":50.036671}},{"_id":2960244,"name":"Nagem","country":"LU","coord":{"lon":5.85778,"lat":49.789169}},{"_id":2960136,"name":"Roedt","country":"LU","coord":{"lon":6.285,"lat":49.56778}},{"_id":2960068,"name":"Siebenaler","country":"LU","coord":{"lon":6.02667,"lat":50.010559}},{"_id":2960318,"name":"Lultzhausen","country":"LU","coord":{"lon":5.89083,"lat":49.909439}},{"_id":6693332,"name":"Putscheid","country":"LU","coord":{"lon":6.14306,"lat":49.960831}},{"_id":2960168,"name":"Putscheid","country":"LU","coord":{"lon":6.14306,"lat":49.960831}},{"_id":2960542,"name":"Girst","country":"LU","coord":{"lon":6.49889,"lat":49.76722}},{"_id":2960784,"name":"Berschbach","country":"LU","coord":{"lon":6.115,"lat":49.743889}},{"_id":2960844,"name":"Abweiler","country":"LU","coord":{"lon":6.08083,"lat":49.533611}},{"_id":2960045,"name":"Tandel","country":"LU","coord":{"lon":6.18333,"lat":49.897499}},{"_id":2960050,"name":"Surré","country":"LU","coord":{"lon":5.78,"lat":49.903061}},{"_id":2960140,"name":"Roder","country":"LU","coord":{"lon":6.08361,"lat":50.055828}},{"_id":2960758,"name":"Bivels","country":"LU","coord":{"lon":6.19222,"lat":49.960281}},{"_id":6693329,"name":"Wilwerwiltz","country":"LU","coord":{"lon":5.99917,"lat":49.988892}},{"_id":2959972,"name":"Wilwerwiltz","country":"LU","coord":{"lon":5.99917,"lat":49.988892}},{"_id":2960359,"name":"Kuborn","country":"LU","coord":{"lon":5.90306,"lat":49.87056}},{"_id":2960128,"name":"Roodt-sur-Syre","country":"LU","coord":{"lon":6.30278,"lat":49.662498}},{"_id":2959997,"name":"Weilerbach","country":"LU","coord":{"lon":6.38278,"lat":49.833328}},{"_id":2960343,"name":"Leithum","country":"LU","coord":{"lon":6.10889,"lat":50.160831}},{"_id":2960752,"name":"Blumenthal","country":"LU","coord":{"lon":6.26722,"lat":49.738331}},{"_id":2960278,"name":"Merkholz","country":"LU","coord":{"lon":5.98167,"lat":49.962502}},{"_id":2960600,"name":"Ersange","country":"LU","coord":{"lon":6.27556,"lat":49.57444}},{"_id":2960609,"name":"Eppeldorf","country":"LU","coord":{"lon":6.24972,"lat":49.84444}},{"_id":2960467,"name":"Hemstal","country":"LU","coord":{"lon":6.33611,"lat":49.73444}},{"_id":2960340,"name":"Lellingen","country":"LU","coord":{"lon":6.01444,"lat":49.983608}},{"_id":2960211,"name":"Oberdonven","country":"LU","coord":{"lon":6.40056,"lat":49.646671}},{"_id":6693314,"name":"Ell","country":"LU","coord":{"lon":5.85722,"lat":49.763889}},{"_id":2960616,"name":"Ell","country":"LU","coord":{"lon":5.85722,"lat":49.763889}},{"_id":2960333,"name":"Liefrange","country":"LU","coord":{"lon":5.8775,"lat":49.91}},{"_id":2960615,"name":"Ellange","country":"LU","coord":{"lon":6.29833,"lat":49.52}},{"_id":2960700,"name":"Calmus","country":"LU","coord":{"lon":5.96444,"lat":49.725559}},{"_id":2960770,"name":"Bigelbach","country":"LU","coord":{"lon":6.28806,"lat":49.860279}},{"_id":2960324,"name":"Longsdorf","country":"LU","coord":{"lon":6.20528,"lat":49.898891}},{"_id":2960342,"name":"Lellig","country":"LU","coord":{"lon":6.43639,"lat":49.71611}},{"_id":2960504,"name":"Grundhof","country":"LU","coord":{"lon":6.33139,"lat":49.834999}},{"_id":2960000,"name":"Weidingen","country":"LU","coord":{"lon":5.94194,"lat":49.972778}},{"_id":2960517,"name":"Grevenknapp","country":"LU","coord":{"lon":6.03389,"lat":49.762501}},{"_id":2960336,"name":"Lentzweiler","country":"LU","coord":{"lon":5.97806,"lat":50.07}},{"_id":2960178,"name":"Pissange","country":"LU","coord":{"lon":6.00028,"lat":49.549438}},{"_id":2960112,"name":"Savelborn","country":"LU","coord":{"lon":6.25389,"lat":49.804169}},{"_id":2960114,"name":"Sassel","country":"LU","coord":{"lon":5.9975,"lat":50.099442}},{"_id":2960827,"name":"Arsdorf","country":"LU","coord":{"lon":5.84389,"lat":49.861389}},{"_id":2960243,"name":"Neidhausen","country":"LU","coord":{"lon":6.06667,"lat":50.028889}},{"_id":2960033,"name":"Troine","country":"LU","coord":{"lon":5.88306,"lat":50.064442}},{"_id":2960525,"name":"Graulinster","country":"LU","coord":{"lon":6.28722,"lat":49.734718}},{"_id":2960636,"name":"Drinklange","country":"LU","coord":{"lon":6.01917,"lat":50.13361}},{"_id":2960372,"name":"Kobenbour","country":"LU","coord":{"lon":6.30611,"lat":49.750278}},{"_id":2960450,"name":"Hoesdorf","country":"LU","coord":{"lon":6.25806,"lat":49.883888}},{"_id":2960126,"name":"Roost","country":"LU","coord":{"lon":6.09611,"lat":49.786671}},{"_id":2960614,"name":"Eltz","country":"LU","coord":{"lon":5.895,"lat":49.778332}},{"_id":2960545,"name":"Geyershaff","country":"LU","coord":{"lon":6.38778,"lat":49.759171}},{"_id":2960564,"name":"Folkendange","country":"LU","coord":{"lon":6.20417,"lat":49.84306}},{"_id":2960611,"name":"Emerange","country":"LU","coord":{"lon":6.29167,"lat":49.486938}},{"_id":2960023,"name":"Urspelt","country":"LU","coord":{"lon":6.04667,"lat":50.075562}},{"_id":2960417,"name":"Huttange","country":"LU","coord":{"lon":5.89861,"lat":49.736111}},{"_id":2960285,"name":"Mecher","country":"LU","coord":{"lon":5.87222,"lat":49.923328}},{"_id":2960738,"name":"Boudler","country":"LU","coord":{"lon":6.355,"lat":49.717781}},{"_id":2960471,"name":"Heispelt-lès-Wahl","country":"LU","coord":{"lon":5.88056,"lat":49.85722}},{"_id":2960692,"name":"Château Faubourg","country":"LU","coord":{"lon":6.21667,"lat":49.933331}},{"_id":2960418,"name":"Hupperdange","country":"LU","coord":{"lon":6.05917,"lat":50.096111}},{"_id":2960438,"name":"Holtz","country":"LU","coord":{"lon":5.79167,"lat":49.80722}},{"_id":2960597,"name":"Eschette","country":"LU","coord":{"lon":5.88833,"lat":49.823059}},{"_id":2960002,"name":"Weicherdange","country":"LU","coord":{"lon":5.98944,"lat":50.03833}},{"_id":2960035,"name":"Pommerloch","country":"LU","coord":{"lon":5.86083,"lat":49.960281}},{"_id":2960499,"name":"Hagelsdorf","country":"LU","coord":{"lon":6.36556,"lat":49.687778}},{"_id":2960223,"name":"Niederwampach","country":"LU","coord":{"lon":5.84361,"lat":50.011669}},{"_id":2960659,"name":"Dickweiler","country":"LU","coord":{"lon":6.47222,"lat":49.7775}},{"_id":2960722,"name":"Breidweiler","country":"LU","coord":{"lon":6.30417,"lat":49.770828}},{"_id":6693338,"name":"Mompach","country":"LU","coord":{"lon":6.465,"lat":49.746109}},{"_id":2960259,"name":"Mompach","country":"LU","coord":{"lon":6.465,"lat":49.746109}},{"_id":2960755,"name":"Biwisch","country":"LU","coord":{"lon":5.97917,"lat":50.118061}},{"_id":2960245,"name":"Nachtmanderscheid","country":"LU","coord":{"lon":6.12944,"lat":49.94833}},{"_id":2960828,"name":"Ansembourg","country":"LU","coord":{"lon":6.04333,"lat":49.702499}},{"_id":2960332,"name":"Lieler","country":"LU","coord":{"lon":6.11,"lat":50.124439}},{"_id":2960260,"name":"Moestroff","country":"LU","coord":{"lon":6.23944,"lat":49.867779}},{"_id":2960046,"name":"Tadler","country":"LU","coord":{"lon":5.99556,"lat":49.911388}},{"_id":2960006,"name":"Watrange","country":"LU","coord":{"lon":5.78583,"lat":49.944172}},{"_id":2960394,"name":"Kaundorf","country":"LU","coord":{"lon":5.90306,"lat":49.921391}},{"_id":2960610,"name":"Enscherange","country":"LU","coord":{"lon":5.99278,"lat":49.999439}},{"_id":2960494,"name":"Hamiville","country":"LU","coord":{"lon":5.90417,"lat":50.046108}},{"_id":2960447,"name":"Hoffelt","country":"LU","coord":{"lon":5.92333,"lat":50.09972}},{"_id":2959982,"name":"Weyer","country":"LU","coord":{"lon":6.2,"lat":49.719719}},{"_id":2960506,"name":"Grumelscheid","country":"LU","coord":{"lon":5.8725,"lat":49.98444}},{"_id":2960721,"name":"Breinert","country":"LU","coord":{"lon":6.34056,"lat":49.706669}},{"_id":2960185,"name":"Petit-Nobressart","country":"LU","coord":{"lon":5.80944,"lat":49.77972}},{"_id":2960811,"name":"Bavigne","country":"LU","coord":{"lon":5.84944,"lat":49.92194}},{"_id":2960352,"name":"Lannen","country":"LU","coord":{"lon":5.83972,"lat":49.78944}},{"_id":2959984,"name":"Welsdorf","country":"LU","coord":{"lon":6.08806,"lat":49.81694}},{"_id":2959964,"name":"Wolpert","country":"LU","coord":{"lon":6.35333,"lat":49.757778}},{"_id":2960647,"name":"Dirbach","country":"LU","coord":{"lon":6.03833,"lat":49.921108}},{"_id":2960007,"name":"Wasserbillig","country":"LU","coord":{"lon":6.50028,"lat":49.709999}},{"_id":2960115,"name":"Sanem","country":"LU","coord":{"lon":5.92889,"lat":49.548061}},{"_id":2960197,"name":"Olm","country":"LU","coord":{"lon":6.00028,"lat":49.657219}},{"_id":2960207,"name":"Obercorn","country":"LU","coord":{"lon":5.89611,"lat":49.513611}},{"_id":2960270,"name":"Mertzig","country":"LU","coord":{"lon":6.0075,"lat":49.833889}},{"_id":2960515,"name":"Grevenmacher","country":"LU","coord":{"lon":6.44194,"lat":49.674721}},{"_id":2960657,"name":"Diekirch","country":"LU","coord":{"lon":6.15583,"lat":49.867779}},{"_id":2960680,"name":"Colmar","country":"LU","coord":{"lon":6.09722,"lat":49.81028}},{"_id":2960775,"name":"Bettendorf","country":"LU","coord":{"lon":6.21806,"lat":49.876671}},{"_id":2960791,"name":"Bergem","country":"LU","coord":{"lon":6.04222,"lat":49.525002}}]}
