{"countryCityList":[{"_id":2960313,"coord":{"lat":49.75,"lon":6.16667},"country":"LU","name":"Grand Duchy of Luxembourg"},{"_id":2960629,"coord":{"lat":49.76667,"lon":6.36667},"country":"LU","name":"Canton d'Echternach"},{"_id":2959975,"coord":{"lat":49.966671,"lon":5.93333},"country":"LU","name":"Canton de Wiltz"},{"_id":2960590,"coord":{"lat":49.833328,"lon":6.08333},"country":"LU","name":"Ettelbruck"},{"_id":2960631,"coord":{"lat":49.813068,"lon":6.42185},"country":"LU","name":"Echternach"},{"_id":2960003,"coord":{"lat":49.691391,"lon":6.38833},"country":"LU","name":"Wecker"},{"_id":2960656,"coord":{"lat":49.866669,"lon":6.16667},"country":"LU","name":"Canton de Diekirch"},{"_id":2960314,"coord":{"lat":49.583328,"lon":6.16667},"country":"LU","name":"District de Luxembourg"},{"_id":2960801,"coord":{"lat":49.510281,"lon":5.94361},"country":"LU","name":"Belval"},{"_id":2960655,"coord":{"lat":49.916672,"lon":6},"country":"LU","name":"District de Diekirch"},{"_id":2960161,"coord":{"lat":49.799999,"lon":5.9},"country":"LU","name":"Canton de Redange"},{"_id":6693320,"coord":{"lat":49.803059,"lon":6},"country":"LU","name":"Vichten"},{"_id":2960019,"coord":{"lat":49.803059,"lon":6},"country":"LU","name":"Vichten"},{"_id":2960696,"coord":{"lat":49.633331,"lon":6},"country":"LU","name":"Canton de Capellen"},{"_id":6693317,"coord":{"lat":49.76556,"lon":5.89083},"country":"LU","name":"Redange-sur-Attert"},{"_id":2960183,"coord":{"lat":49.770279,"lon":6.10917},"country":"LU","name":"Pettingen"},{"_id":2960823,"coord":{"lat":49.522781,"lon":6.22472},"country":"LU","name":"Aspelt"},{"_id":6693265,"coord":{"lat":49.66444,"lon":6.07306},"country":"LU","name":"Kopstal"},{"_id":2960363,"coord":{"lat":49.66444,"lon":6.07306},"country":"LU","name":"Kopstal"},{"_id":2960189,"coord":{"lat":49.811668,"lon":5.76583},"country":"LU","name":"Perlé"},{"_id":2960288,"coord":{"lat":50.1175,"lon":5.99278},"country":"LU","name":"Massen"},{"_id":2960513,"coord":{"lat":49.666672,"lon":6.41667},"country":"LU","name":"District de Grevenmacher"},{"_id":2959966,"coord":{"lat":49.716389,"lon":6.49},"country":"LU","name":"Wollefsmillen"},{"_id":6696267,"coord":{"lat":49.848469,"lon":6.35787},"country":"LU","name":"Bollendorf-Pont"},{"_id":2960739,"coord":{"lat":49.754169,"lon":6.51389},"country":"LU","name":"Born"},{"_id":2960316,"coord":{"lat":49.611671,"lon":6.13},"country":"LU","name":"Luxembourg"},{"_id":2960630,"coord":{"lat":49.805561,"lon":6.42222},"country":"LU","name":"Echternach"},{"_id":2960599,"coord":{"lat":49.5,"lon":6.03333},"country":"LU","name":"Canton d'Esch-sur-Alzette"},{"_id":2960635,"coord":{"lat":49.5,"lon":6.08333},"country":"LU","name":"Dudelange"},{"_id":2960634,"coord":{"lat":49.48056,"lon":6.0875},"country":"LU","name":"Dudelange"},{"_id":6693323,"coord":{"lat":49.911388,"lon":5.93639},"country":"LU","name":"Esch-sur-Sûre"},{"_id":2960595,"coord":{"lat":49.911388,"lon":5.93639},"country":"LU","name":"Esch-sur-Sûre"},{"_id":6693258,"coord":{"lat":49.567501,"lon":5.91028},"country":"LU","name":"Bascharage"},{"_id":2960815,"coord":{"lat":49.567501,"lon":5.91028},"country":"LU","name":"Bascharage"},{"_id":2960565,"coord":{"lat":49.529442,"lon":6.01083},"country":"LU","name":"Foetz"},{"_id":2960315,"coord":{"lat":49.599998,"lon":6.13333},"country":"LU","name":"Canton de Luxembourg"},{"_id":6693279,"coord":{"lat":49.613331,"lon":6.21889},"country":"LU","name":"Sandweiler"},{"_id":2960117,"coord":{"lat":49.613331,"lon":6.21889},"country":"LU","name":"Sandweiler"},{"_id":2960697,"coord":{"lat":49.645,"lon":5.99083},"country":"LU","name":"Capellen"},{"_id":6693281,"coord":{"lat":49.676941,"lon":6.12389},"country":"LU","name":"Steinsel"},{"_id":2960058,"coord":{"lat":49.676941,"lon":6.12389},"country":"LU","name":"Steinsel"},{"_id":2960143,"coord":{"lat":49.546391,"lon":5.84083},"country":"LU","name":"Rodange"},{"_id":6693282,"coord":{"lat":49.62056,"lon":6.07333},"country":"LU","name":"Strassen"},{"_id":2960054,"coord":{"lat":49.62056,"lon":6.07333},"country":"LU","name":"Strassen"},{"_id":2960275,"coord":{"lat":49.75,"lon":6.1},"country":"LU","name":"Canton de Mersch"},{"_id":6693286,"coord":{"lat":49.787498,"lon":6.06944},"country":"LU","name":"Bissen"},{"_id":2960759,"coord":{"lat":49.787498,"lon":6.06944},"country":"LU","name":"Bissen"},{"_id":2960778,"coord":{"lat":49.5,"lon":6.08333},"country":"LU","name":"Bettembourg"},{"_id":2960777,"coord":{"lat":49.518608,"lon":6.10278},"country":"LU","name":"Bettembourg"},{"_id":6693293,"coord":{"lat":49.74889,"lon":6.10611},"country":"LU","name":"Mersch"},{"_id":2960276,"coord":{"lat":49.74889,"lon":6.10611},"country":"LU","name":"Mersch"},{"_id":6693276,"coord":{"lat":49.58194,"lon":6.22667},"country":"LU","name":"Contern"},{"_id":2960673,"coord":{"lat":49.58194,"lon":6.22667},"country":"LU","name":"Contern"},{"_id":2960514,"coord":{"lat":49.666672,"lon":6.33333},"country":"LU","name":"Canton de Grevenmacher"},{"_id":6693347,"coord":{"lat":49.60833,"lon":6.40583},"country":"LU","name":"Wormeldange"},{"_id":2959959,"coord":{"lat":49.60833,"lon":6.40583},"country":"LU","name":"Wormeldange"},{"_id":2960795,"coord":{"lat":49.65694,"lon":6.1275},"country":"LU","name":"Bereldange"},{"_id":6693275,"coord":{"lat":49.611111,"lon":6.05},"country":"LU","name":"Bertrange"},{"_id":2960782,"coord":{"lat":49.611111,"lon":6.05},"country":"LU","name":"Bertrange"},{"_id":2960800,"coord":{"lat":49.512779,"lon":5.92944},"country":"LU","name":"Belvaux"},{"_id":6693341,"coord":{"lat":49.683331,"lon":6.35},"country":"LU","name":"Betzdorf"},{"_id":2960774,"coord":{"lat":49.683331,"lon":6.35},"country":"LU","name":"Betzdorf"},{"_id":2960152,"coord":{"lat":49.533329,"lon":6.33333},"country":"LU","name":"Canton de Remich"},{"_id":6693352,"coord":{"lat":49.505001,"lon":6.28111},"country":"LU","name":"Mondorf-les-Bains"},{"_id":2960257,"coord":{"lat":49.505001,"lon":6.28111},"country":"LU","name":"Mondorf-les-Bains"},{"_id":2960326,"coord":{"lat":49.530281,"lon":6.12028},"country":"LU","name":"Livange"},{"_id":6693288,"coord":{"lat":49.739719,"lon":6.18722},"country":"LU","name":"Fischbach"},{"_id":2960571,"coord":{"lat":49.739719,"lon":6.18722},"country":"LU","name":"Fischbach"},{"_id":6693263,"coord":{"lat":49.668331,"lon":6.03583},"country":"LU","name":"Kehlen"},{"_id":2960389,"coord":{"lat":49.668331,"lon":6.03583},"country":"LU","name":"Kehlen"},{"_id":6693291,"coord":{"lat":49.715832,"lon":6.13361},"country":"LU","name":"Lintgen"},{"_id":2960328,"coord":{"lat":49.715832,"lon":6.13361},"country":"LU","name":"Lintgen"},{"_id":6693278,"coord":{"lat":49.647499,"lon":6.26},"country":"LU","name":"Niederanven"},{"_id":2960231,"coord":{"lat":49.647499,"lon":6.26},"country":"LU","name":"Niederanven"},{"_id":6693266,"coord":{"lat":49.627499,"lon":6.02333},"country":"LU","name":"Mamer"},{"_id":2960299,"coord":{"lat":49.627499,"lon":6.02333},"country":"LU","name":"Mamer"},{"_id":6693269,"coord":{"lat":49.495831,"lon":5.98056},"country":"LU","name":"Esch-sur-Alzette"},{"_id":2960596,"coord":{"lat":49.495831,"lon":5.98056},"country":"LU","name":"Esch-sur-Alzette"},{"_id":2960589,"coord":{"lat":49.8475,"lon":6.10417},"country":"LU","name":"Ettelbruck"},{"_id":2960392,"coord":{"lat":49.5,"lon":6},"country":"LU","name":"Kayl"},{"_id":2960391,"coord":{"lat":49.48917,"lon":6.03972},"country":"LU","name":"Kayl"},{"_id":2960067,"coord":{"lat":49.525558,"lon":5.94056},"country":"LU","name":"Soleuvre"},{"_id":6693280,"coord":{"lat":49.62056,"lon":6.26861},"country":"LU","name":"Schuttrange"},{"_id":2960082,"coord":{"lat":49.62056,"lon":6.26861},"country":"LU","name":"Schuttrange"},{"_id":6693271,"coord":{"lat":49.568329,"lon":6.06528},"country":"LU","name":"Leudelange"},{"_id":2960335,"coord":{"lat":49.568329,"lon":6.06528},"country":"LU","name":"Leudelange"},{"_id":2960618,"coord":{"lat":49.685558,"lon":5.87861},"country":"LU","name":"Eischen"},{"_id":2960683,"coord":{"lat":50.083328,"lon":6},"country":"LU","name":"Canton de Clervaux"},{"_id":6693297,"coord":{"lat":50.054722,"lon":6.03139},"country":"LU","name":"Clervaux"},{"_id":2960684,"coord":{"lat":50.054722,"lon":6.03139},"country":"LU","name":"Clervaux"},{"_id":2960103,"coord":{"lat":49.5,"lon":6},"country":"LU","name":"Schifflange"},{"_id":2960102,"coord":{"lat":49.50639,"lon":6.01278},"country":"LU","name":"Schifflange"},{"_id":2960160,"coord":{"lat":49.76556,"lon":5.89083},"country":"LU","name":"Redange-sur-Attert"},{"_id":6693354,"coord":{"lat":49.544998,"lon":6.36694},"country":"LU","name":"Remich"},{"_id":2960154,"coord":{"lat":49.544998,"lon":6.36694},"country":"LU","name":"Remich"},{"_id":2960130,"coord":{"lat":49.794441,"lon":5.82167},"country":"LU","name":"Roodt-lès-Ell"},{"_id":6693274,"coord":{"lat":49.542221,"lon":6.15},"country":"LU","name":"Roeser"},{"_id":2960135,"coord":{"lat":49.542221,"lon":6.15},"country":"LU","name":"Roeser"},{"_id":2959978,"coord":{"lat":49.916672,"lon":5.91667},"country":"LU","name":"Wiltz"},{"_id":2959977,"coord":{"lat":49.968891,"lon":5.93194},"country":"LU","name":"Wiltz"},{"_id":2960627,"coord":{"lat":49.52417,"lon":5.96611},"country":"LU","name":"Ehlerange"},{"_id":2960644,"coord":{"lat":49.970001,"lon":5.83722},"country":"LU","name":"Doncols"},{"_id":6693292,"coord":{"lat":49.694721,"lon":6.1425},"country":"LU","name":"Lorentzweiler"},{"_id":2960322,"coord":{"lat":49.694721,"lon":6.1425},"country":"LU","name":"Lorentzweiler"},{"_id":6693300,"coord":{"lat":50.01778,"lon":6.09333},"country":"LU","name":"Hosingen"},{"_id":2960429,"coord":{"lat":50.01778,"lon":6.09333},"country":"LU","name":"Hosingen"},{"_id":6693309,"coord":{"lat":49.801941,"lon":6.21833},"country":"LU","name":"Medernach"},{"_id":2960283,"coord":{"lat":49.801941,"lon":6.21833},"country":"LU","name":"Medernach"},{"_id":2960472,"coord":{"lat":49.66861,"lon":6.14222},"country":"LU","name":"Heisdorf-sur-Alzette"},{"_id":6693308,"coord":{"lat":49.94722,"lon":6.08167},"country":"LU","name":"Hoscheid"},{"_id":2960432,"coord":{"lat":49.94722,"lon":6.08167},"country":"LU","name":"Hoscheid"},{"_id":2960765,"coord":{"lat":50.118889,"lon":6.03861},"country":"LU","name":"Binsfeld"},{"_id":2960468,"coord":{"lat":49.652779,"lon":6.14139},"country":"LU","name":"Helmsange"},{"_id":6693277,"coord":{"lat":49.568062,"lon":6.15139},"country":"LU","name":"Hesperange"},{"_id":2960457,"coord":{"lat":49.568062,"lon":6.15139},"country":"LU","name":"Hesperange"},{"_id":6693264,"coord":{"lat":49.669998,"lon":5.95},"country":"LU","name":"Koerich"},{"_id":2960367,"coord":{"lat":49.669998,"lon":5.95},"country":"LU","name":"Koerich"},{"_id":2960720,"coord":{"lat":49.658329,"lon":6.08222},"country":"LU","name":"Bridel"},{"_id":2960124,"coord":{"lat":49.5,"lon":6},"country":"LU","name":"Rumelange"},{"_id":2960123,"coord":{"lat":49.460831,"lon":6.03306},"country":"LU","name":"Rumelange"},{"_id":2960652,"coord":{"lat":49.51667,"lon":5.88333},"country":"LU","name":"Differdange"},{"_id":2960651,"coord":{"lat":49.52417,"lon":5.89139},"country":"LU","name":"Differdange"},{"_id":2960575,"coord":{"lat":49.62389,"lon":6.20278},"country":"LU","name":"Findel"},{"_id":6693272,"coord":{"lat":49.533058,"lon":5.98833},"country":"LU","name":"Mondercange"},{"_id":2960258,"coord":{"lat":49.533058,"lon":5.98833},"country":"LU","name":"Mondercange"},{"_id":2960031,"coord":{"lat":50.133331,"lon":6},"country":"LU","name":"Troisvierges"},{"_id":2960030,"coord":{"lat":50.121109,"lon":6.00028},"country":"LU","name":"Troisvierges"},{"_id":2960781,"coord":{"lat":49.575829,"lon":5.98389},"country":"LU","name":"Bettange-sur-Mess"},{"_id":6693346,"coord":{"lat":49.69611,"lon":6.48139},"country":"LU","name":"Mertert"},{"_id":2960271,"coord":{"lat":49.69611,"lon":6.48139},"country":"LU","name":"Mertert"},{"_id":2960592,"coord":{"lat":50.062778,"lon":6.00361},"country":"LU","name":"Eselborn"},{"_id":2960437,"coord":{"lat":49.61639,"lon":5.99028},"country":"LU","name":"Holzem"},{"_id":2960584,"coord":{"lat":49.562778,"lon":6.15389},"country":"LU","name":"Fentange"},{"_id":6693344,"coord":{"lat":49.707218,"lon":6.25306},"country":"LU","name":"Junglinster"},{"_id":2960400,"coord":{"lat":49.707218,"lon":6.25306},"country":"LU","name":"Junglinster"},{"_id":2960020,"coord":{"lat":49.933331,"lon":6.16667},"country":"LU","name":"Canton de Vianden"},{"_id":6693333,"coord":{"lat":49.935001,"lon":6.20889},"country":"LU","name":"Vianden"},{"_id":2960021,"coord":{"lat":49.935001,"lon":6.20889},"country":"LU","name":"Vianden"},{"_id":2959993,"coord":{"lat":49.599998,"lon":6.15},"country":"LU","name":"Weimershof"},{"_id":2960741,"coord":{"lat":49.59444,"lon":6.15},"country":"LU","name":"Bonnevoie"},{"_id":2960188,"coord":{"lat":49.549999,"lon":5.88333},"country":"LU","name":"Pétange"},{"_id":2960187,"coord":{"lat":49.558331,"lon":5.88056},"country":"LU","name":"Petange"},{"_id":2959973,"coord":{"lat":50.14056,"lon":6.02389},"country":"LU","name":"Wilwerdange"},{"_id":2960280,"coord":{"lat":49.650829,"lon":6.30361},"country":"LU","name":"Mensdorf"},{"_id":6693296,"coord":{"lat":50.053329,"lon":5.91917},"country":"LU","name":"Wincrange"},{"_id":2959971,"coord":{"lat":50.053329,"lon":5.91917},"country":"LU","name":"Wincrange"},{"_id":2960293,"coord":{"lat":50.053329,"lon":6.06194},"country":"LU","name":"Marnach"},{"_id":2960691,"coord":{"lat":49.781109,"lon":6.27361},"country":"LU","name":"Christnach"},{"_id":2960107,"coord":{"lat":49.471668,"lon":6.36583},"country":"LU","name":"Schengen"},{"_id":2960829,"coord":{"lat":49.75639,"lon":6.16083},"country":"LU","name":"Angelsberg"},{"_id":2960133,"coord":{"lat":49.741669,"lon":6.11444},"country":"LU","name":"Rollingen"},{"_id":2960387,"coord":{"lat":49.694439,"lon":6.06944},"country":"LU","name":"Keispelt"},{"_id":2960282,"coord":{"lat":49.572781,"lon":6.24861},"country":"LU","name":"Medingen"},{"_id":2960370,"coord":{"lat":49.561111,"lon":6.11222},"country":"LU","name":"Kockelscheuer"},{"_id":2960531,"coord":{"lat":49.726391,"lon":6.11694},"country":"LU","name":"Gosseldange"},{"_id":2960586,"coord":{"lat":49.519718,"lon":6.07833},"country":"LU","name":"Fennange"},{"_id":6693283,"coord":{"lat":49.658329,"lon":6.13722},"country":"LU","name":"Walferdange"},{"_id":2960010,"coord":{"lat":49.658329,"lon":6.13722},"country":"LU","name":"Walferdange"},{"_id":3285197,"coord":{"lat":49.849998,"lon":6.01667},"country":"LU","name":"Feulen"},{"_id":2960577,"coord":{"lat":49.85556,"lon":6.04722},"country":"LU","name":"Niederfeulen"},{"_id":2960537,"coord":{"lat":49.66972,"lon":5.96528},"country":"LU","name":"Goeblange"},{"_id":2960820,"coord":{"lat":50.097221,"lon":5.97306},"country":"LU","name":"Asselborn"},{"_id":2960042,"coord":{"lat":49.47583,"lon":6.04222},"country":"LU","name":"Tetange"},{"_id":2960533,"coord":{"lat":49.660278,"lon":5.98167},"country":"LU","name":"Goetzingen"},{"_id":2960212,"coord":{"lat":49.65361,"lon":6.24111},"country":"LU","name":"Oberanven"},{"_id":2960754,"coord":{"lat":49.69722,"lon":6.17056},"country":"LU","name":"Blaschette"},{"_id":2960410,"coord":{"lat":49.584171,"lon":6.17361},"country":"LU","name":"Itzig"},{"_id":2960672,"coord":{"lat":49.535561,"lon":6.14694},"country":"LU","name":"Crauthem"},{"_id":2960200,"coord":{"lat":49.59639,"lon":6.26},"country":"LU","name":"Oetrange"},{"_id":2960084,"coord":{"lat":49.605831,"lon":6.25889},"country":"LU","name":"Schrassig"},{"_id":2960144,"coord":{"lat":49.751671,"lon":5.9575},"country":"LU","name":"Rippweiler"},{"_id":2960214,"coord":{"lat":49.675282,"lon":6.00889},"country":"LU","name":"Nospelt"},{"_id":6693350,"coord":{"lat":49.540829,"lon":6.25972},"country":"LU","name":"Dalheim"},{"_id":2960665,"coord":{"lat":49.540829,"lon":6.25972},"country":"LU","name":"Dalheim"},{"_id":6693259,"coord":{"lat":49.596668,"lon":5.87583},"country":"LU","name":"Clemency"},{"_id":2960687,"coord":{"lat":49.596668,"lon":5.87583},"country":"LU","name":"Clemency"},{"_id":2960267,"coord":{"lat":49.900002,"lon":6.09194},"country":"LU","name":"Michelau"},{"_id":2960668,"coord":{"lat":49.791939,"lon":6.13278},"country":"LU","name":"Cruchten"},{"_id":2959985,"coord":{"lat":49.888062,"lon":6.06778},"country":"LU","name":"Welscheid"},{"_id":6693289,"coord":{"lat":49.762501,"lon":6.24139},"country":"LU","name":"Heffingen"},{"_id":2960481,"coord":{"lat":49.762501,"lon":6.24139},"country":"LU","name":"Heffingen"},{"_id":2960252,"coord":{"lat":49.585281,"lon":6.25556},"country":"LU","name":"Moutfort"},{"_id":2960605,"coord":{"lat":49.765831,"lon":6.22194},"country":"LU","name":"Ernzen"},{"_id":2960089,"coord":{"lat":49.718891,"lon":6.09222},"country":"LU","name":"Schoenfels"},{"_id":2960165,"coord":{"lat":49.749722,"lon":6.08306},"country":"LU","name":"Reckange-lès-Mersch"},{"_id":6693316,"coord":{"lat":49.827782,"lon":5.96722},"country":"LU","name":"Grosbous"},{"_id":2960510,"coord":{"lat":49.827782,"lon":5.96722},"country":"LU","name":"Grosbous"},{"_id":2960628,"coord":{"lat":49.548889,"lon":6.01694},"country":"LU","name":"Ehlange"},{"_id":6693290,"coord":{"lat":49.776939,"lon":6.22111},"country":"LU","name":"Larochette"},{"_id":2960350,"coord":{"lat":49.776939,"lon":6.22111},"country":"LU","name":"Larochette"},{"_id":2960266,"coord":{"lat":49.818611,"lon":6.02028},"country":"LU","name":"Michelbouch"},{"_id":2960748,"coord":{"lat":50.046391,"lon":5.93417},"country":"LU","name":"Boevange-Clervaux"},{"_id":2960718,"coord":{"lat":49.736111,"lon":6.02306},"country":"LU","name":"Brouch"},{"_id":2960209,"coord":{"lat":49.848061,"lon":6.03556},"country":"LU","name":"Oberfeulen"},{"_id":2960703,"coord":{"lat":49.750832,"lon":6.00833},"country":"LU","name":"Buschdorf"},{"_id":2960008,"coord":{"lat":49.854439,"lon":6.095},"country":"LU","name":"Warken"},{"_id":2960532,"coord":{"lat":49.688889,"lon":6.24833},"country":"LU","name":"Gonderange"},{"_id":2960088,"coord":{"lat":49.744171,"lon":6.17083},"country":"LU","name":"Schoos"},{"_id":2960420,"coord":{"lat":49.516941,"lon":6.065},"country":"LU","name":"Huncherange"},{"_id":2960331,"coord":{"lat":49.558891,"lon":5.98056},"country":"LU","name":"Limpach"},{"_id":2960174,"coord":{"lat":49.536388,"lon":6.02944},"country":"LU","name":"Pontpierre"},{"_id":2960294,"coord":{"lat":49.709999,"lon":6.06167},"country":"LU","name":"Marienthal"},{"_id":2960281,"coord":{"lat":49.691109,"lon":6.05917},"country":"LU","name":"Meispelt"},{"_id":2960415,"coord":{"lat":49.697498,"lon":6.1975},"country":"LU","name":"Imbringen"},{"_id":2960111,"coord":{"lat":49.792221,"lon":5.97583},"country":"LU","name":"Schandel"},{"_id":2960524,"coord":{"lat":49.709721,"lon":5.98833},"country":"LU","name":"Greisch"},{"_id":2960607,"coord":{"lat":49.67556,"lon":6.24722},"country":"LU","name":"Ernster"},{"_id":6693273,"coord":{"lat":49.5625,"lon":6.00889},"country":"LU","name":"Reckange-sur-Mess"},{"_id":2960164,"coord":{"lat":49.5625,"lon":6.00889},"country":"LU","name":"Reckange-sur-Mess"},{"_id":6693261,"coord":{"lat":49.616669,"lon":5.9525},"country":"LU","name":"Garnich"},{"_id":2960549,"coord":{"lat":49.616669,"lon":5.9525},"country":"LU","name":"Garnich"},{"_id":2960441,"coord":{"lat":49.713058,"lon":6.05083},"country":"LU","name":"Hollenfels"},{"_id":2960470,"coord":{"lat":49.506672,"lon":6.15056},"country":"LU","name":"Hellange"},{"_id":2960803,"coord":{"lat":49.723331,"lon":6.3025},"country":"LU","name":"Beidweiler"},{"_id":2960617,"coord":{"lat":49.686668,"lon":6.18528},"country":"LU","name":"Eisenborn"},{"_id":2960083,"coord":{"lat":49.797779,"lon":6.15917},"country":"LU","name":"Schrondweiler"},{"_id":2960378,"coord":{"lat":49.646389,"lon":5.91639},"country":"LU","name":"Kleinbettingen"},{"_id":2960699,"coord":{"lat":49.606941,"lon":6.32583},"country":"LU","name":"Canach"},{"_id":6693343,"coord":{"lat":49.661671,"lon":6.34361},"country":"LU","name":"Flaxweiler"},{"_id":2960568,"coord":{"lat":49.661671,"lon":6.34361},"country":"LU","name":"Flaxweiler"},{"_id":2960312,"coord":{"lat":49.65556,"lon":6.43444},"country":"LU","name":"Machtum"},{"_id":6693312,"coord":{"lat":49.830559,"lon":6.09861},"country":"LU","name":"Schieren"},{"_id":2960104,"coord":{"lat":49.830559,"lon":6.09861},"country":"LU","name":"Schieren"},{"_id":2960166,"coord":{"lat":49.65694,"lon":6.23361},"country":"LU","name":"Rameldange"},{"_id":6693294,"coord":{"lat":49.786942,"lon":6.17472},"country":"LU","name":"Nommern"},{"_id":2960216,"coord":{"lat":49.786942,"lon":6.17472},"country":"LU","name":"Nommern"},{"_id":2960150,"coord":{"lat":49.74667,"lon":6.26028},"country":"LU","name":"Reuland"},{"_id":6693260,"coord":{"lat":49.588329,"lon":5.98333},"country":"LU","name":"Dippach"},{"_id":2960648,"coord":{"lat":49.588329,"lon":5.98333},"country":"LU","name":"Dippach"},{"_id":2960137,"coord":{"lat":49.574718,"lon":6.03472},"country":"LU","name":"Roedgen"},{"_id":2960764,"coord":{"lat":49.544441,"lon":6.13778},"country":"LU","name":"Bivange"},{"_id":2960832,"coord":{"lat":49.564999,"lon":6.16361},"country":"LU","name":"Alzingen"},{"_id":2960047,"coord":{"lat":49.561939,"lon":6.22167},"country":"LU","name":"Syren"},{"_id":2960519,"coord":{"lat":49.853062,"lon":5.91583},"country":"LU","name":"Grevels"},{"_id":2960735,"coord":{"lat":49.697781,"lon":6.21972},"country":"LU","name":"Bourglinster"},{"_id":2960588,"coord":{"lat":49.77417,"lon":5.95556},"country":"LU","name":"Everlange"},{"_id":2960217,"coord":{"lat":49.509171,"lon":6.05611},"country":"LU","name":"Noertzange"},{"_id":2960062,"coord":{"lat":49.830002,"lon":6.17194},"country":"LU","name":"Stegen"},{"_id":2960649,"coord":{"lat":49.853611,"lon":6.31917},"country":"LU","name":"Dillingen"},{"_id":2960799,"coord":{"lat":49.727219,"lon":6.39389},"country":"LU","name":"Berbourg"},{"_id":2960816,"coord":{"lat":50.145828,"lon":5.98389},"country":"LU","name":"Basbellain"},{"_id":2960501,"coord":{"lat":50.108059,"lon":5.92333},"country":"LU","name":"Hachiville"},{"_id":6693267,"coord":{"lat":49.701111,"lon":5.96722},"country":"LU","name":"Septfontaines"},{"_id":2960070,"coord":{"lat":49.701111,"lon":5.96722},"country":"LU","name":"Septfontaines"},{"_id":2960702,"coord":{"lat":49.827221,"lon":5.93583},"country":"LU","name":"Buschrodt"},{"_id":6693349,"coord":{"lat":49.485279,"lon":6.32306},"country":"LU","name":"Burmerange"},{"_id":2960704,"coord":{"lat":49.485279,"lon":6.32306},"country":"LU","name":"Burmerange"},{"_id":6693295,"coord":{"lat":49.717781,"lon":6.01028},"country":"LU","name":"Tuntange"},{"_id":2960027,"coord":{"lat":49.717781,"lon":6.01028},"country":"LU","name":"Tuntange"},{"_id":2960226,"coord":{"lat":49.75528,"lon":5.91222},"country":"LU","name":"Niederpallen"},{"_id":6693326,"coord":{"lat":49.888889,"lon":5.97889},"country":"LU","name":"Heiderscheid"},{"_id":2960478,"coord":{"lat":49.888889,"lon":5.97889},"country":"LU","name":"Heiderscheid"},{"_id":2960427,"coord":{"lat":49.650829,"lon":6.235},"country":"LU","name":"Hostert"},{"_id":2960094,"coord":{"lat":49.93306,"lon":6.06361},"country":"LU","name":"Schlindermanderscheid"},{"_id":6693319,"coord":{"lat":49.769718,"lon":5.98222},"country":"LU","name":"Useldange"},{"_id":2960022,"coord":{"lat":49.769718,"lon":5.98222},"country":"LU","name":"Useldange"},{"_id":6693268,"coord":{"lat":49.661388,"lon":5.91917},"country":"LU","name":"Steinfort"},{"_id":2960061,"coord":{"lat":49.661388,"lon":5.91917},"country":"LU","name":"Steinfort"},{"_id":2960358,"coord":{"lat":49.546391,"lon":5.85639},"country":"LU","name":"Lamadelaine"},{"_id":2960797,"coord":{"lat":49.540279,"lon":6.12917},"country":"LU","name":"Berchem"},{"_id":6693331,"coord":{"lat":49.915562,"lon":6.19611},"country":"LU","name":"Tandel"},{"_id":2960561,"coord":{"lat":49.915562,"lon":6.19611},"country":"LU","name":"Fouhren"},{"_id":6693270,"coord":{"lat":49.514999,"lon":6.19167},"country":"LU","name":"Frisange"},{"_id":2960556,"coord":{"lat":49.514999,"lon":6.19167},"country":"LU","name":"Frisange"},{"_id":2960171,"coord":{"lat":49.80167,"lon":5.93917},"country":"LU","name":"Pratz"},{"_id":6693357,"coord":{"lat":49.523891,"lon":6.34222},"country":"LU","name":"Wellenstein"},{"_id":2959987,"coord":{"lat":49.523891,"lon":6.34222},"country":"LU","name":"Wellenstein"},{"_id":2960843,"coord":{"lat":49.533329,"lon":5.9},"country":"LU","name":"Aciérie"},{"_id":2960228,"coord":{"lat":49.53611,"lon":5.89306},"country":"LU","name":"Niedercorn"},{"_id":2960085,"coord":{"lat":49.5825,"lon":5.95639},"country":"LU","name":"Schouweiler"},{"_id":6693353,"coord":{"lat":49.488609,"lon":6.35167},"country":"LU","name":"Remerschen"},{"_id":2960155,"coord":{"lat":49.488609,"lon":6.35167},"country":"LU","name":"Remerschen"},{"_id":2960201,"coord":{"lat":50.01667,"lon":5.86083},"country":"LU","name":"Oberwampach"},{"_id":6693356,"coord":{"lat":49.555,"lon":6.2875},"country":"LU","name":"Waldbredimus"},{"_id":2960013,"coord":{"lat":49.555,"lon":6.2875},"country":"LU","name":"Waldbredimus"},{"_id":2960261,"coord":{"lat":49.768059,"lon":6.11667},"country":"LU","name":"Moesdorf"},{"_id":2960250,"coord":{"lat":49.680279,"lon":6.13},"country":"LU","name":"Mullendorf"},{"_id":2960469,"coord":{"lat":49.687222,"lon":6.14361},"country":"LU","name":"Helmdange"},{"_id":2960576,"coord":{"lat":49.532501,"lon":6.24833},"country":"LU","name":"Filsdorf"},{"_id":2960072,"coord":{"lat":49.641941,"lon":6.23944},"country":"LU","name":"Senningen"},{"_id":2960746,"coord":{"lat":49.68306,"lon":6.14167},"country":"LU","name":"Bofferdange"},{"_id":2960141,"coord":{"lat":49.682499,"lon":6.28917},"country":"LU","name":"Rodenbourg"},{"_id":6693340,"coord":{"lat":49.788891,"lon":6.28667},"country":"LU","name":"Waldbillig"},{"_id":2960014,"coord":{"lat":49.788891,"lon":6.28667},"country":"LU","name":"Waldbillig"},{"_id":2959980,"coord":{"lat":49.541389,"lon":6.02167},"country":"LU","name":"Wickrange"},{"_id":6693307,"coord":{"lat":49.864719,"lon":6.11472},"country":"LU","name":"Erpeldange"},{"_id":2960601,"coord":{"lat":49.864719,"lon":6.11472},"country":"LU","name":"Erpeldange-sur-Sûre"},{"_id":6693318,"coord":{"lat":49.727219,"lon":5.98639},"country":"LU","name":"Saeul"},{"_id":2960120,"coord":{"lat":49.727219,"lon":5.98639},"country":"LU","name":"Saeul"},{"_id":6693262,"coord":{"lat":49.68861,"lon":5.91472},"country":"LU","name":"Hobscheid"},{"_id":2960453,"coord":{"lat":49.68861,"lon":5.91472},"country":"LU","name":"Hobscheid"},{"_id":2960539,"coord":{"lat":49.728889,"lon":6.23194},"country":"LU","name":"Godbrange"},{"_id":2960833,"coord":{"lat":49.510559,"lon":6.25722},"country":"LU","name":"Altwies"},{"_id":6693348,"coord":{"lat":49.55389,"lon":6.32917},"country":"LU","name":"Bous"},{"_id":2960732,"coord":{"lat":49.55389,"lon":6.32917},"country":"LU","name":"Bous"},{"_id":6693298,"coord":{"lat":49.97472,"lon":6.05417},"country":"LU","name":"Consthum"},{"_id":2960674,"coord":{"lat":49.97472,"lon":6.05417},"country":"LU","name":"Consthum"},{"_id":2960273,"coord":{"lat":49.95472,"lon":6.10694},"country":"LU","name":"Merscheid-lès-Putscheid"},{"_id":2960598,"coord":{"lat":49.886108,"lon":5.93667},"country":"LU","name":"Eschdorf"},{"_id":2960491,"coord":{"lat":49.931389,"lon":5.79},"country":"LU","name":"Harlange"},{"_id":2960676,"coord":{"lat":49.768608,"lon":5.82},"country":"LU","name":"Colpach-Haut"},{"_id":2960523,"coord":{"lat":49.583889,"lon":6.35917},"country":"LU","name":"Greiveldange"},{"_id":2960145,"coord":{"lat":49.734169,"lon":6.31944},"country":"LU","name":"Rippig"},{"_id":2960497,"coord":{"lat":49.8125,"lon":6.2825},"country":"LU","name":"Haller"},{"_id":6693305,"coord":{"lat":49.91,"lon":6.06722},"country":"LU","name":"Bourscheid"},{"_id":2960734,"coord":{"lat":49.91,"lon":6.06722},"country":"LU","name":"Bourscheid"},{"_id":6693321,"coord":{"lat":49.83667,"lon":5.90639},"country":"LU","name":"Wahl"},{"_id":2960017,"coord":{"lat":49.83667,"lon":5.90639},"country":"LU","name":"Wahl"},{"_id":2960414,"coord":{"lat":49.85194,"lon":6.13472},"country":"LU","name":"Ingeldorf"},{"_id":2960485,"coord":{"lat":49.577499,"lon":5.91083},"country":"LU","name":"Hautcharage"},{"_id":2960399,"coord":{"lat":49.63139,"lon":5.91778},"country":"LU","name":"Kahler"},{"_id":2960157,"coord":{"lat":49.797218,"lon":5.95389},"country":"LU","name":"Reimberg"},{"_id":2960190,"coord":{"lat":49.524441,"lon":6.12972},"country":"LU","name":"Peppange"},{"_id":6693306,"coord":{"lat":49.829441,"lon":6.22278},"country":"LU","name":"Ermsdorf"},{"_id":2960608,"coord":{"lat":49.829441,"lon":6.22278},"country":"LU","name":"Ermsdorf"},{"_id":6693313,"coord":{"lat":49.73056,"lon":5.88722},"country":"LU","name":"Beckerich"},{"_id":2960806,"coord":{"lat":49.73056,"lon":5.88722},"country":"LU","name":"Beckerich"},{"_id":2960766,"coord":{"lat":49.857498,"lon":5.825},"country":"LU","name":"Bilsdorf"},{"_id":6693284,"coord":{"lat":49.540829,"lon":6.20083},"country":"LU","name":"Weiler-la-Tour"},{"_id":2959996,"coord":{"lat":49.540829,"lon":6.20083},"country":"LU","name":"Weiler-la-Tour"},{"_id":2960219,"coord":{"lat":49.742222,"lon":5.92611},"country":"LU","name":"Noerdange"},{"_id":2960543,"coord":{"lat":49.86694,"lon":6.1825},"country":"LU","name":"Gilsdorf"},{"_id":2960573,"coord":{"lat":49.603611,"lon":5.90083},"country":"LU","name":"Fingig"},{"_id":6693335,"coord":{"lat":49.746109,"lon":6.36361},"country":"LU","name":"Bech"},{"_id":2960807,"coord":{"lat":49.746109,"lon":6.36361},"country":"LU","name":"Bech"},{"_id":2960034,"coord":{"lat":49.570831,"lon":6.28056},"country":"LU","name":"Trintange"},{"_id":6693334,"coord":{"lat":49.835831,"lon":6.29167},"country":"LU","name":"Beaufort"},{"_id":2960809,"coord":{"lat":49.835831,"lon":6.29167},"country":"LU","name":"Beaufort"},{"_id":2960486,"coord":{"lat":50.15667,"lon":5.97861},"country":"LU","name":"Hautbellain"},{"_id":2959961,"coord":{"lat":49.828609,"lon":5.76472},"country":"LU","name":"Wolwelange"},{"_id":2960195,"coord":{"lat":49.78389,"lon":5.90444},"country":"LU","name":"Ospern"},{"_id":2960643,"coord":{"lat":50.062222,"lon":5.95583},"country":"LU","name":"Doennange"},{"_id":2960454,"coord":{"lat":49.60722,"lon":5.93222},"country":"LU","name":"Hivange"},{"_id":2960327,"coord":{"lat":49.91861,"lon":6.08667},"country":"LU","name":"Lipperscheid"},{"_id":2960421,"coord":{"lat":50.164719,"lon":6.015},"country":"LU","name":"Huldange"},{"_id":2960667,"coord":{"lat":49.93528,"lon":5.97583},"country":"LU","name":"Dahl"},{"_id":2960583,"coord":{"lat":49.531109,"lon":5.84722},"country":"LU","name":"Roudenhaff"},{"_id":6693322,"coord":{"lat":49.887779,"lon":5.81639},"country":"LU","name":"Boulaide"},{"_id":2960737,"coord":{"lat":49.887779,"lon":5.81639},"country":"LU","name":"Boulaide"},{"_id":2960424,"coord":{"lat":49.7225,"lon":5.90722},"country":"LU","name":"Hovelange"},{"_id":6693355,"coord":{"lat":49.562778,"lon":6.36444},"country":"LU","name":"Stadtbredimus"},{"_id":2960063,"coord":{"lat":49.562778,"lon":6.36444},"country":"LU","name":"Stadtbredimus"},{"_id":2960176,"coord":{"lat":49.791111,"lon":5.93472},"country":"LU","name":"Platen"},{"_id":2960780,"coord":{"lat":49.79528,"lon":5.94111},"country":"LU","name":"Bettborn"},{"_id":6693330,"coord":{"lat":49.967781,"lon":5.89028},"country":"LU","name":"Winseler"},{"_id":2959968,"coord":{"lat":49.967781,"lon":5.89028},"country":"LU","name":"Winseler"},{"_id":2960205,"coord":{"lat":49.730282,"lon":5.84389},"country":"LU","name":"Oberpallen"},{"_id":2960488,"coord":{"lat":49.548611,"lon":6.20917},"country":"LU","name":"Hassel"},{"_id":2960026,"coord":{"lat":49.628609,"lon":6.27806},"country":"LU","name":"Uebersyren"},{"_id":2960319,"coord":{"lat":50.060001,"lon":5.94194},"country":"LU","name":"Lullange"},{"_id":2960158,"coord":{"lat":49.773609,"lon":5.92806},"country":"LU","name":"Reichlange"},{"_id":6693339,"coord":{"lat":49.797779,"lon":6.50417},"country":"LU","name":"Rosport"},{"_id":2960127,"coord":{"lat":49.797779,"lon":6.50417},"country":"LU","name":"Rosport"},{"_id":6693336,"coord":{"lat":49.81361,"lon":6.35028},"country":"LU","name":"Berdorf"},{"_id":2960796,"coord":{"lat":49.81361,"lon":6.35028},"country":"LU","name":"Berdorf"},{"_id":3283390,"coord":{"lat":49.53083,"lon":6.355},"country":"LU","name":"Bech-Kleinmacher"},{"_id":2960779,"coord":{"lat":49.917221,"lon":6.22778},"country":"LU","name":"Bettel"},{"_id":6693337,"coord":{"lat":49.77306,"lon":6.33833},"country":"LU","name":"Consdorf"},{"_id":2960675,"coord":{"lat":49.77306,"lon":6.33833},"country":"LU","name":"Consdorf"},{"_id":2959988,"coord":{"lat":49.538059,"lon":6.28417},"country":"LU","name":"Welfrange"},{"_id":2960329,"coord":{"lat":49.56583,"lon":5.88667},"country":"LU","name":"Linger"},{"_id":6693327,"coord":{"lat":49.952782,"lon":6.02},"country":"LU","name":"Kautenbach"},{"_id":2960393,"coord":{"lat":49.952782,"lon":6.02},"country":"LU","name":"Kautenbach"},{"_id":6693299,"coord":{"lat":50.096111,"lon":6.08806},"country":"LU","name":"Heinerscheid"},{"_id":2960475,"coord":{"lat":50.096111,"lon":6.08806},"country":"LU","name":"Heinerscheid"},{"_id":2960366,"coord":{"lat":49.838058,"lon":5.84028},"country":"LU","name":"Koetschette"},{"_id":2960771,"coord":{"lat":49.626389,"lon":6.33694},"country":"LU","name":"Beyren"},{"_id":6693302,"coord":{"lat":50.137218,"lon":6.075},"country":"LU","name":"Weiswampach"},{"_id":2959989,"coord":{"lat":50.137218,"lon":6.075},"country":"LU","name":"Weiswampach"},{"_id":6693351,"coord":{"lat":49.59861,"lon":6.36806},"country":"LU","name":"Lenningen"},{"_id":2960337,"coord":{"lat":49.59861,"lon":6.36806},"country":"LU","name":"Lenningen"},{"_id":2960706,"coord":{"lat":49.88306,"lon":6.09889},"country":"LU","name":"Burden"},{"_id":2960055,"coord":{"lat":49.96722,"lon":6.16778},"country":"LU","name":"Stolzembourg"},{"_id":2960108,"coord":{"lat":49.775002,"lon":6.36056},"country":"LU","name":"Scheidgen"},{"_id":2960044,"coord":{"lat":49.950562,"lon":5.79611},"country":"LU","name":"Tarchamps"},{"_id":2959995,"coord":{"lat":49.963612,"lon":6.12417},"country":"LU","name":"Weiler-lès-Putscheid"},{"_id":2960221,"coord":{"lat":49.947498,"lon":5.97917},"country":"LU","name":"Nocher"},{"_id":2960813,"coord":{"lat":49.891941,"lon":6.16528},"country":"LU","name":"Bastendorf"},{"_id":6693315,"coord":{"lat":49.83083,"lon":5.845},"country":"LU","name":"Rambrouch"},{"_id":2960167,"coord":{"lat":49.83083,"lon":5.845},"country":"LU","name":"Rambrouch"},{"_id":6693311,"coord":{"lat":49.86861,"lon":6.26778},"country":"LU","name":"Reisdorf"},{"_id":2960156,"coord":{"lat":49.86861,"lon":6.26778},"country":"LU","name":"Reisdorf"},{"_id":2960731,"coord":{"lat":50.083889,"lon":5.9925},"country":"LU","name":"Boxhorn"},{"_id":2960822,"coord":{"lat":49.55278,"lon":6.31583},"country":"LU","name":"Assel"},{"_id":6693345,"coord":{"lat":49.702782,"lon":6.42639},"country":"LU","name":"Manternach"},{"_id":2960296,"coord":{"lat":49.702782,"lon":6.42639},"country":"LU","name":"Manternach"},{"_id":2960262,"coord":{"lat":49.738331,"lon":6.5},"country":"LU","name":"Moersdorf"},{"_id":2960563,"coord":{"lat":49.814171,"lon":5.87472},"country":"LU","name":"Folschette"},{"_id":2960769,"coord":{"lat":49.851669,"lon":5.79333},"country":"LU","name":"Bigonville"},{"_id":2960180,"coord":{"lat":49.994438,"lon":6.01306},"country":"LU","name":"Pintsch"},{"_id":2960613,"coord":{"lat":49.50528,"lon":6.31639},"country":"LU","name":"Elvange-lès-Burmerange"},{"_id":2960373,"coord":{"lat":50.013329,"lon":5.96472},"country":"LU","name":"Knaphoscheid"},{"_id":2960436,"coord":{"lat":49.985001,"lon":6.07333},"country":"LU","name":"Holzthum"},{"_id":2960834,"coord":{"lat":49.750092,"lon":6.32656},"country":"LU","name":"Altrier"},{"_id":2959983,"coord":{"lat":50.15556,"lon":6.05333},"country":"LU","name":"Wemperhardt"},{"_id":6693287,"coord":{"lat":49.77528,"lon":6.01556},"country":"LU","name":"Boevange-sur-Attert"},{"_id":2960747,"coord":{"lat":49.77528,"lon":6.01556},"country":"LU","name":"Boevange-sur-Attert"},{"_id":2959967,"coord":{"lat":49.501389,"lon":6.35278},"country":"LU","name":"Wintrange"},{"_id":2960736,"coord":{"lat":49.701389,"lon":6.01889},"country":"LU","name":"Bour"},{"_id":2960413,"coord":{"lat":49.901669,"lon":5.88472},"country":"LU","name":"Insenborn"},{"_id":2960149,"coord":{"lat":50.057781,"lon":6.0375},"country":"LU","name":"Reuler"},{"_id":2960109,"coord":{"lat":49.893608,"lon":6.04472},"country":"LU","name":"Scheidel"},{"_id":2960011,"coord":{"lat":49.92667,"lon":6.17361},"country":"LU","name":"Walsdorf"},{"_id":2960638,"coord":{"lat":50.01778,"lon":6.00611},"country":"LU","name":"Drauffelt"},{"_id":2960625,"coord":{"lat":49.59972,"lon":6.38778},"country":"LU","name":"Ehnen"},{"_id":2960213,"coord":{"lat":49.941391,"lon":5.88278},"country":"LU","name":"Nothum"},{"_id":2960814,"coord":{"lat":49.898331,"lon":5.82028},"country":"LU","name":"Baschleiden"},{"_id":2960056,"coord":{"lat":50.078892,"lon":5.95806},"country":"LU","name":"Stockem"},{"_id":2960660,"coord":{"lat":50.014999,"lon":5.88972},"country":"LU","name":"Derenbach"},{"_id":2960194,"coord":{"lat":49.778889,"lon":6.44139},"country":"LU","name":"Osweiler"},{"_id":2960641,"coord":{"lat":50.03611,"lon":6.07139},"country":"LU","name":"Dorscheid"},{"_id":2960694,"coord":{"lat":49.589439,"lon":6.10694},"country":"LU","name":"Cessange"},{"_id":2960016,"coord":{"lat":49.985279,"lon":6.12667},"country":"LU","name":"Wahlhausen"},{"_id":2960750,"coord":{"lat":50.012218,"lon":6.05278},"country":"LU","name":"Bockholz-lès-Hosingen"},{"_id":6693301,"coord":{"lat":50.033611,"lon":6.03861},"country":"LU","name":"Munshausen"},{"_id":2960247,"coord":{"lat":50.033611,"lon":6.03861},"country":"LU","name":"Munshausen"},{"_id":2960730,"coord":{"lat":50.021389,"lon":5.91139},"country":"LU","name":"Brachtenbach"},{"_id":6693328,"coord":{"lat":49.877499,"lon":5.88722},"country":"LU","name":"Neunhausen"},{"_id":2960234,"coord":{"lat":49.877499,"lon":5.88722},"country":"LU","name":"Neunhausen"},{"_id":2960139,"coord":{"lat":50.036671,"lon":6.13111},"country":"LU","name":"Rodershausen"},{"_id":2960244,"coord":{"lat":49.789169,"lon":5.85778},"country":"LU","name":"Nagem"},{"_id":2960136,"coord":{"lat":49.56778,"lon":6.285},"country":"LU","name":"Roedt"},{"_id":2960068,"coord":{"lat":50.010559,"lon":6.02667},"country":"LU","name":"Siebenaler"},{"_id":2960318,"coord":{"lat":49.909439,"lon":5.89083},"country":"LU","name":"Lultzhausen"},{"_id":6693332,"coord":{"lat":49.960831,"lon":6.14306},"country":"LU","name":"Putscheid"},{"_id":2960168,"coord":{"lat":49.960831,"lon":6.14306},"country":"LU","name":"Putscheid"},{"_id":2960542,"coord":{"lat":49.76722,"lon":6.49889},"country":"LU","name":"Girst"},{"_id":2960784,"coord":{"lat":49.743889,"lon":6.115},"country":"LU","name":"Berschbach"},{"_id":2960844,"coord":{"lat":49.533611,"lon":6.08083},"country":"LU","name":"Abweiler"},{"_id":2960045,"coord":{"lat":49.897499,"lon":6.18333},"country":"LU","name":"Tandel"},{"_id":2960050,"coord":{"lat":49.903061,"lon":5.78},"country":"LU","name":"Surré"},{"_id":2960140,"coord":{"lat":50.055828,"lon":6.08361},"country":"LU","name":"Roder"},{"_id":2960758,"coord":{"lat":49.960281,"lon":6.19222},"country":"LU","name":"Bivels"},{"_id":6693329,"coord":{"lat":49.988892,"lon":5.99917},"country":"LU","name":"Wilwerwiltz"},{"_id":2959972,"coord":{"lat":49.988892,"lon":5.99917},"country":"LU","name":"Wilwerwiltz"},{"_id":2960359,"coord":{"lat":49.87056,"lon":5.90306},"country":"LU","name":"Kuborn"},{"_id":2960128,"coord":{"lat":49.662498,"lon":6.30278},"country":"LU","name":"Roodt-sur-Syre"},{"_id":2959997,"coord":{"lat":49.833328,"lon":6.38278},"country":"LU","name":"Weilerbach"},{"_id":2960343,"coord":{"lat":50.160831,"lon":6.10889},"country":"LU","name":"Leithum"},{"_id":2960752,"coord":{"lat":49.738331,"lon":6.26722},"country":"LU","name":"Blumenthal"},{"_id":2960278,"coord":{"lat":49.962502,"lon":5.98167},"country":"LU","name":"Merkholz"},{"_id":2960600,"coord":{"lat":49.57444,"lon":6.27556},"country":"LU","name":"Ersange"},{"_id":2960609,"coord":{"lat":49.84444,"lon":6.24972},"country":"LU","name":"Eppeldorf"},{"_id":2960467,"coord":{"lat":49.73444,"lon":6.33611},"country":"LU","name":"Hemstal"},{"_id":2960340,"coord":{"lat":49.983608,"lon":6.01444},"country":"LU","name":"Lellingen"},{"_id":2960211,"coord":{"lat":49.646671,"lon":6.40056},"country":"LU","name":"Oberdonven"},{"_id":6693314,"coord":{"lat":49.763889,"lon":5.85722},"country":"LU","name":"Ell"},{"_id":2960616,"coord":{"lat":49.763889,"lon":5.85722},"country":"LU","name":"Ell"},{"_id":2960333,"coord":{"lat":49.91,"lon":5.8775},"country":"LU","name":"Liefrange"},{"_id":2960615,"coord":{"lat":49.52,"lon":6.29833},"country":"LU","name":"Ellange"},{"_id":2960700,"coord":{"lat":49.725559,"lon":5.96444},"country":"LU","name":"Calmus"},{"_id":2960770,"coord":{"lat":49.860279,"lon":6.28806},"country":"LU","name":"Bigelbach"},{"_id":2960324,"coord":{"lat":49.898891,"lon":6.20528},"country":"LU","name":"Longsdorf"},{"_id":2960342,"coord":{"lat":49.71611,"lon":6.43639},"country":"LU","name":"Lellig"},{"_id":2960504,"coord":{"lat":49.834999,"lon":6.33139},"country":"LU","name":"Grundhof"},{"_id":2960000,"coord":{"lat":49.972778,"lon":5.94194},"country":"LU","name":"Weidingen"},{"_id":2960517,"coord":{"lat":49.762501,"lon":6.03389},"country":"LU","name":"Grevenknapp"},{"_id":2960336,"coord":{"lat":50.07,"lon":5.97806},"country":"LU","name":"Lentzweiler"},{"_id":2960178,"coord":{"lat":49.549438,"lon":6.00028},"country":"LU","name":"Pissange"},{"_id":2960112,"coord":{"lat":49.804169,"lon":6.25389},"country":"LU","name":"Savelborn"},{"_id":2960114,"coord":{"lat":50.099442,"lon":5.9975},"country":"LU","name":"Sassel"},{"_id":2960827,"coord":{"lat":49.861389,"lon":5.84389},"country":"LU","name":"Arsdorf"},{"_id":2960243,"coord":{"lat":50.028889,"lon":6.06667},"country":"LU","name":"Neidhausen"},{"_id":2960033,"coord":{"lat":50.064442,"lon":5.88306},"country":"LU","name":"Troine"},{"_id":2960525,"coord":{"lat":49.734718,"lon":6.28722},"country":"LU","name":"Graulinster"},{"_id":2960636,"coord":{"lat":50.13361,"lon":6.01917},"country":"LU","name":"Drinklange"},{"_id":2960372,"coord":{"lat":49.750278,"lon":6.30611},"country":"LU","name":"Kobenbour"},{"_id":2960450,"coord":{"lat":49.883888,"lon":6.25806},"country":"LU","name":"Hoesdorf"},{"_id":2960126,"coord":{"lat":49.786671,"lon":6.09611},"country":"LU","name":"Roost"},{"_id":2960614,"coord":{"lat":49.778332,"lon":5.895},"country":"LU","name":"Eltz"},{"_id":2960545,"coord":{"lat":49.759171,"lon":6.38778},"country":"LU","name":"Geyershaff"},{"_id":2960564,"coord":{"lat":49.84306,"lon":6.20417},"country":"LU","name":"Folkendange"},{"_id":2960611,"coord":{"lat":49.486938,"lon":6.29167},"country":"LU","name":"Emerange"},{"_id":2960023,"coord":{"lat":50.075562,"lon":6.04667},"country":"LU","name":"Urspelt"},{"_id":2960417,"coord":{"lat":49.736111,"lon":5.89861},"country":"LU","name":"Huttange"},{"_id":2960285,"coord":{"lat":49.923328,"lon":5.87222},"country":"LU","name":"Mecher"},{"_id":2960738,"coord":{"lat":49.717781,"lon":6.355},"country":"LU","name":"Boudler"},{"_id":2960471,"coord":{"lat":49.85722,"lon":5.88056},"country":"LU","name":"Heispelt-lès-Wahl"},{"_id":2960692,"coord":{"lat":49.933331,"lon":6.21667},"country":"LU","name":"Château Faubourg"},{"_id":2960418,"coord":{"lat":50.096111,"lon":6.05917},"country":"LU","name":"Hupperdange"},{"_id":2960438,"coord":{"lat":49.80722,"lon":5.79167},"country":"LU","name":"Holtz"},{"_id":2960597,"coord":{"lat":49.823059,"lon":5.88833},"country":"LU","name":"Eschette"},{"_id":2960002,"coord":{"lat":50.03833,"lon":5.98944},"country":"LU","name":"Weicherdange"},{"_id":2960035,"coord":{"lat":49.960281,"lon":5.86083},"country":"LU","name":"Pommerloch"},{"_id":2960499,"coord":{"lat":49.687778,"lon":6.36556},"country":"LU","name":"Hagelsdorf"},{"_id":2960223,"coord":{"lat":50.011669,"lon":5.84361},"country":"LU","name":"Niederwampach"},{"_id":2960659,"coord":{"lat":49.7775,"lon":6.47222},"country":"LU","name":"Dickweiler"},{"_id":2960722,"coord":{"lat":49.770828,"lon":6.30417},"country":"LU","name":"Breidweiler"},{"_id":6693338,"coord":{"lat":49.746109,"lon":6.465},"country":"LU","name":"Mompach"},{"_id":2960259,"coord":{"lat":49.746109,"lon":6.465},"country":"LU","name":"Mompach"},{"_id":2960755,"coord":{"lat":50.118061,"lon":5.97917},"country":"LU","name":"Biwisch"},{"_id":2960245,"coord":{"lat":49.94833,"lon":6.12944},"country":"LU","name":"Nachtmanderscheid"},{"_id":2960828,"coord":{"lat":49.702499,"lon":6.04333},"country":"LU","name":"Ansembourg"},{"_id":2960332,"coord":{"lat":50.124439,"lon":6.11},"country":"LU","name":"Lieler"},{"_id":2960260,"coord":{"lat":49.867779,"lon":6.23944},"country":"LU","name":"Moestroff"},{"_id":2960046,"coord":{"lat":49.911388,"lon":5.99556},"country":"LU","name":"Tadler"},{"_id":2960006,"coord":{"lat":49.944172,"lon":5.78583},"country":"LU","name":"Watrange"},{"_id":2960394,"coord":{"lat":49.921391,"lon":5.90306},"country":"LU","name":"Kaundorf"},{"_id":2960610,"coord":{"lat":49.999439,"lon":5.99278},"country":"LU","name":"Enscherange"},{"_id":2960494,"coord":{"lat":50.046108,"lon":5.90417},"country":"LU","name":"Hamiville"},{"_id":2960447,"coord":{"lat":50.09972,"lon":5.92333},"country":"LU","name":"Hoffelt"},{"_id":2959982,"coord":{"lat":49.719719,"lon":6.2},"country":"LU","name":"Weyer"},{"_id":2960506,"coord":{"lat":49.98444,"lon":5.8725},"country":"LU","name":"Grumelscheid"},{"_id":2960721,"coord":{"lat":49.706669,"lon":6.34056},"country":"LU","name":"Breinert"},{"_id":2960185,"coord":{"lat":49.77972,"lon":5.80944},"country":"LU","name":"Petit-Nobressart"},{"_id":2960811,"coord":{"lat":49.92194,"lon":5.84944},"country":"LU","name":"Bavigne"},{"_id":2960352,"coord":{"lat":49.78944,"lon":5.83972},"country":"LU","name":"Lannen"},{"_id":2959984,"coord":{"lat":49.81694,"lon":6.08806},"country":"LU","name":"Welsdorf"},{"_id":2959964,"coord":{"lat":49.757778,"lon":6.35333},"country":"LU","name":"Wolpert"},{"_id":2960647,"coord":{"lat":49.921108,"lon":6.03833},"country":"LU","name":"Dirbach"},{"_id":2960007,"coord":{"lat":49.709999,"lon":6.50028},"country":"LU","name":"Wasserbillig"},{"_id":2960115,"coord":{"lat":49.548061,"lon":5.92889},"country":"LU","name":"Sanem"},{"_id":2960197,"coord":{"lat":49.657219,"lon":6.00028},"country":"LU","name":"Olm"},{"_id":2960207,"coord":{"lat":49.513611,"lon":5.89611},"country":"LU","name":"Obercorn"},{"_id":2960270,"coor