{"countryCityList":[{"_id":456169,"coord":{"lat":57,"lon":24.333332},"country":"LV","name":"Rīgas Rajons"},{"_id":456172,"coord":{"lat":56.950001,"lon":24.1},"country":"LV","name":"Riga"},{"_id":459279,"coord":{"lat":56.650002,"lon":23.71278},"country":"LV","name":"Jelgava"},{"_id":461112,"coord":{"lat":56.5,"lon":24.33333},"country":"LV","name":"Bauskas Rajons"},{"_id":456173,"coord":{"lat":57,"lon":24.083332},"country":"LV","name":"Rīga"},{"_id":460274,"coord":{"lat":56.950001,"lon":24.233334},"country":"LV","name":"Dreiliņi"},{"_id":456630,"coord":{"lat":56.939167,"lon":24.208332},"country":"LV","name":"Pļavnieki"},{"_id":454810,"coord":{"lat":56.927776,"lon":24.09111},"country":"LV","name":"Torņakalns"},{"_id":864723,"coord":{"lat":56.900276,"lon":24.046667},"country":"LV","name":"Mārupe"},{"_id":459278,"coord":{"lat":56.583328,"lon":23.75},"country":"LV","name":"Jelgavas Rajons"},{"_id":454432,"coord":{"lat":56.533329,"lon":21.01667},"country":"LV","name":"Vec-Liepaja"},{"_id":458258,"coord":{"lat":57,"lon":25},"country":"LV","name":"Republic of Latvia"},{"_id":7628316,"coord":{"lat":56.65139,"lon":23.928061},"country":"LV","name":"Ozolnieku Novads"},{"_id":454166,"coord":{"lat":56.566669,"lon":24},"country":"LV","name":"Vilciņi"},{"_id":6615326,"coord":{"lat":56.949661,"lon":24.104179},"country":"LV","name":"Vecrīga"},{"_id":454307,"coord":{"lat":57.333328,"lon":21.83333},"country":"LV","name":"Ventspils Rajons"},{"_id":454310,"coord":{"lat":57.389439,"lon":21.56056},"country":"LV","name":"Ventspils"},{"_id":459202,"coord":{"lat":56.951981,"lon":23.695311},"country":"LV","name":"Jūrmala"},{"_id":459201,"coord":{"lat":56.967999,"lon":23.77038},"country":"LV","name":"Jurmala"},{"_id":459411,"coord":{"lat":56.964722,"lon":23.75},"country":"LV","name":"Jaundubulti"},{"_id":460410,"coord":{"lat":55.916672,"lon":26.5},"country":"LV","name":"Daugavpils Rajons"},{"_id":460413,"coord":{"lat":55.883331,"lon":26.533331},"country":"LV","name":"Daugavpils"},{"_id":457955,"coord":{"lat":56.541939,"lon":21.036671},"country":"LV","name":"Liepāja"},{"_id":457954,"coord":{"lat":56.51667,"lon":21.01667},"country":"LV","name":"Liepaja"},{"_id":461114,"coord":{"lat":56.407501,"lon":24.190559},"country":"LV","name":"Bauska"},{"_id":7628309,"coord":{"lat":56.714169,"lon":22.65667},"country":"LV","name":"Brocēnu Novads"},{"_id":460786,"coord":{"lat":56.700001,"lon":22.533331},"country":"LV","name":"Broceni"},{"_id":457712,"coord":{"lat":56.833328,"lon":26.25},"country":"LV","name":"Madonas Rajons"},{"_id":457714,"coord":{"lat":56.853291,"lon":26.21698},"country":"LV","name":"Madona"},{"_id":455898,"coord":{"lat":56.860142,"lon":24.36544},"country":"LV","name":"Salaspils"},{"_id":460311,"coord":{"lat":56.583328,"lon":23.16667},"country":"LV","name":"Dobeles Rajons"},{"_id":460312,"coord":{"lat":56.625,"lon":23.27861},"country":"LV","name":"Dobele"},{"_id":456528,"coord":{"lat":56.333328,"lon":26.66667},"country":"LV","name":"Preiļu Rajons"},{"_id":457860,"coord":{"lat":56.354309,"lon":26.175791},"country":"LV","name":"Livani"},{"_id":454564,"coord":{"lat":57.75,"lon":25.25},"country":"LV","name":"Valmieras Rajons"},{"_id":453754,"coord":{"lat":57.54108,"lon":25.427509},"country":"LV","name":"Valmiera"},{"_id":454771,"coord":{"lat":56.916672,"lon":23},"country":"LV","name":"Tukuma Rajons"},{"_id":454768,"coord":{"lat":56.966942,"lon":23.155279},"country":"LV","name":"Tukums"},{"_id":458459,"coord":{"lat":56.833328,"lon":22},"country":"LV","name":"Kuldīgas Rajons"},{"_id":454436,"coord":{"lat":56.966671,"lon":22},"country":"LV","name":"Veckrogi"},{"_id":455888,"coord":{"lat":56.666672,"lon":22.5},"country":"LV","name":"Saldus Rajons"},{"_id":455890,"coord":{"lat":56.663631,"lon":22.48807},"country":"LV","name":"Saldus"},{"_id":459282,"coord":{"lat":56.333328,"lon":25.83333},"country":"LV","name":"Jēkabpils Rajons"},{"_id":459283,"coord":{"lat":56.499031,"lon":25.857349},"country":"LV","name":"Jekabpils"},{"_id":454968,"coord":{"lat":57.333328,"lon":22.58333},"country":"LV","name":"Talsu Rajons"},{"_id":455937,"coord":{"lat":57.045769,"lon":22.572611},"country":"LV","name":"Sabile"},{"_id":7628320,"coord":{"lat":56.791389,"lon":23.948059},"country":"LV","name":"Olaines Novads"},{"_id":457052,"coord":{"lat":56.785278,"lon":23.938061},"country":"LV","name":"Olaine"},{"_id":460569,"coord":{"lat":57.25,"lon":25.5},"country":"LV","name":"Cēsu Rajons"},{"_id":460570,"coord":{"lat":57.311878,"lon":25.274561},"country":"LV","name":"Cesis"},{"_id":459031,"coord":{"lat":57.040871,"lon":22.77466},"country":"LV","name":"Kandava"},{"_id":457061,"coord":{"lat":56.75,"lon":25},"country":"LV","name":"Ogres Rajons"},{"_id":457065,"coord":{"lat":56.8162,"lon":24.61401},"country":"LV","name":"Ogre"},{"_id":7628302,"coord":{"lat":56.21167,"lon":21.209721},"country":"LV","name":"Rucavas Novads"},{"_id":457138,"coord":{"lat":56.099998,"lon":21.066669},"country":"LV","name":"Nida"},{"_id":454571,"coord":{"lat":57.583328,"lon":25.91667},"country":"LV","name":"Valkas Rajons"},{"_id":455406,"coord":{"lat":57.424438,"lon":25.90164},"country":"LV","name":"Smiltene"},{"_id":454572,"coord":{"lat":57.7752,"lon":26.01013},"country":"LV","name":"Valka"},{"_id":459664,"coord":{"lat":57.166672,"lon":26.66667},"country":"LV","name":"Gulbenes Rajons"},{"_id":459668,"coord":{"lat":57.17767,"lon":26.752911},"country":"LV","name":"Gulbene"},{"_id":454970,"coord":{"lat":57.245621,"lon":22.581369},"country":"LV","name":"Talsi"},{"_id":457965,"coord":{"lat":56.720661,"lon":24.80743},"country":"LV","name":"Lielvarde"},{"_id":455812,"coord":{"lat":57.262241,"lon":24.414709},"country":"LV","name":"Saulkrasti"},{"_id":461525,"coord":{"lat":57.416672,"lon":27},"country":"LV","name":"Alūksnes Rajons"},{"_id":461528,"coord":{"lat":57.416672,"lon":27.049999},"country":"LV","name":"Aluksne"},{"_id":461613,"coord":{"lat":56.5,"lon":25.16667},"country":"LV","name":"Aizkraukles Rajons"},{"_id":459718,"coord":{"lat":56.616669,"lon":25.183331},"country":"LV","name":"Gridzini"},{"_id":456530,"coord":{"lat":56.294441,"lon":26.72459},"country":"LV","name":"Preili"},{"_id":460112,"coord":{"lat":57.216671,"lon":21.66667},"country":"LV","name":"Dzērves"},{"_id":7628358,"coord":{"lat":56.860279,"lon":24.583611},"country":"LV","name":"Ikšķiles Novads"},{"_id":459598,"coord":{"lat":56.833328,"lon":24.5},"country":"LV","name":"Ikskile"},{"_id":457889,"coord":{"lat":57.583328,"lon":24.66667},"country":"LV","name":"Limbažu Rajons"},{"_id":457890,"coord":{"lat":57.512871,"lon":24.71941},"country":"LV","name":"Limbazi"},{"_id":7628362,"coord":{"lat":57.129719,"lon":24.86389},"country":"LV","name":"Siguldas Novads"},{"_id":455718,"coord":{"lat":57.151939,"lon":24.864719},"country":"LV","name":"Sigulda"},{"_id":456635,"coord":{"lat":56.617802,"lon":25.725519},"country":"LV","name":"Plavinas"},{"_id":7628360,"coord":{"lat":57.102219,"lon":24.650829},"country":"LV","name":"Inčukalna Novads"},{"_id":454537,"coord":{"lat":57.093609,"lon":24.548611},"country":"LV","name":"Vangazi"},{"_id":459102,"coord":{"lat":56.801109,"lon":23.60972},"country":"LV","name":"Kalnciems"},{"_id":7628333,"coord":{"lat":56.514172,"lon":25.29583},"country":"LV","name":"Jaunjelgavas Novads"},{"_id":459402,"coord":{"lat":56.616669,"lon":25.08333},"country":"LV","name":"Jaunjelgava"},{"_id":458892,"coord":{"lat":56.745098,"lon":24.72439},"country":"LV","name":"Kegums"},{"_id":455260,"coord":{"lat":57.150002,"lon":22.533331},"country":"LV","name":"Stende"},{"_id":457951,"coord":{"lat":56.5,"lon":21.41667},"country":"LV","name":"Liepājas Rajons"},{"_id":456827,"coord":{"lat":56.887909,"lon":21.18593},"country":"LV","name":"Pavilosta"},{"_id":457912,"coord":{"lat":57.234291,"lon":25.04059},"country":"LV","name":"Ligatne"},{"_id":461205,"coord":{"lat":56.847778,"lon":24.04389},"country":"LV","name":"Baloži"},{"_id":461160,"coord":{"lat":57.083328,"lon":27.5},"country":"LV","name":"Balvu Rajons"},{"_id":454130,"coord":{"lat":57.184582,"lon":27.672199},"country":"LV","name":"Viļaka"},{"_id":454468,"coord":{"lat":56.468369,"lon":22.889669},"country":"LV","name":"Vecauce"},{"_id":457773,"coord":{"lat":56.5,"lon":27.75},"country":"LV","name":"Ludzas Rajons"},{"_id":457776,"coord":{"lat":56.549999,"lon":27.716669},"country":"LV","name":"Ludza"},{"_id":7628305,"coord":{"lat":56.716671,"lon":21.56889},"country":"LV","name":"Aizputes Novads"},{"_id":461602,"coord":{"lat":56.716671,"lon":21.6},"country":"LV","name":"Aizpute"},{"_id":7628303,"coord":{"lat":56.486938,"lon":21.235559},"country":"LV","name":"Grobiņas Novads"},{"_id":458774,"coord":{"lat":56.549999,"lon":21.183331},"country":"LV","name":"Ķivita"},{"_id":456197,"coord":{"lat":56.5,"lon":27.16667},"country":"LV","name":"Rēzeknes Rajons"},{"_id":454178,"coord":{"lat":56.552528,"lon":26.92449},"country":"LV","name":"Vilani"},{"_id":458621,"coord":{"lat":56.083328,"lon":27.5},"country":"LV","name":"Krāslavas Rajons"},{"_id":460474,"coord":{"lat":56.095119,"lon":27.53723},"country":"LV","name":"Dagda"},{"_id":458623,"coord":{"lat":55.895142,"lon":27.16799},"country":"LV","name":"Kraslava"},{"_id":7628308,"coord":{"lat":56.66111,"lon":21.98889},"country":"LV","name":"Skrundas Novads"},{"_id":455520,"coord":{"lat":56.683331,"lon":22.01667},"country":"LV","name":"Skrunda"},{"_id":458065,"coord":{"lat":56.58173,"lon":21.33399},"country":"LV","name":"Lieģi"},{"_id":7628324,"coord":{"lat":56.73111,"lon":24.372499},"country":"LV","name":"Baldones Novads"},{"_id":461225,"coord":{"lat":56.70694,"lon":24.35194},"country":"LV","name":"Vārpas"},{"_id":454726,"coord":{"lat":57.616589,"lon":25.678141},"country":"LV","name":"Ūdriņi"},{"_id":7628357,"coord":{"lat":56.710281,"lon":25.463329},"country":"LV","name":"Kokneses Novads"},{"_id":458687,"coord":{"lat":56.650002,"lon":25.433331},"country":"LV","name":"Koknese"},{"_id":7628321,"coord":{"lat":56.60944,"lon":24.206671},"country":"LV","name":"Iecavas Novads"},{"_id":459624,"coord":{"lat":56.59861,"lon":24.202221},"country":"LV","name":"Iecava"},{"_id":457533,"coord":{"lat":57.863289,"lon":25.05475},"country":"LV","name":"Mazsalaca"},{"_id":461442,"coord":{"lat":57.53928,"lon":26.692909},"country":"LV","name":"Ape"},{"_id":7628368,"coord":{"lat":57.800831,"lon":24.835279},"country":"LV","name":"Alojas Novads"},{"_id":461539,"coord":{"lat":57.766941,"lon":24.8825},"country":"LV","name":"Aloja"},{"_id":456008,"coord":{"lat":57.897518,"lon":25.331551},"country":"LV","name":"Rujiena"},{"_id":7628378,"coord":{"lat":57.62611,"lon":25.78306},"country":"LV","name":"Strenču Novads"},{"_id":455786,"coord":{"lat":57.650002,"lon":25.75},"country":"LV","name":"Seda"},{"_id":454216,"coord":{"lat":56.347511,"lon":25.55514},"country":"LV","name":"Viesite"},{"_id":7628353,"coord":{"lat":57.0075,"lon":26.27667},"country":"LV","name":"Cesvaines Novads"},{"_id":460568,"coord":{"lat":56.966671,"lon":26.316669},"country":"LV","name":"Cesvaine"},{"_id":7628364,"coord":{"lat":56.994438,"lon":24.973061},"country":"LV","name":"Mālpils Novads"},{"_id":455727,"coord":{"lat":56.96167,"lon":24.9175},"country":"LV","name":"Sidgunda"},{"_id":7628381,"coord":{"lat":57.150002,"lon":25.97361},"country":"LV","name":"Jaunpiebalgas Novads"},{"_id":459359,"coord":{"lat":57.183331,"lon":26.049999},"country":"LV","name":"Jaunpiebalga"},{"_id":7628326,"coord":{"lat":57.117222,"lon":24.245831},"country":"LV","name":"Carnikavas Novads"},{"_id":460659,"coord":{"lat":57.12944,"lon":24.274441},"country":"LV","name":"Carnikava"},{"_id":454584,"coord":{"lat":57.370682,"lon":22.591881},"country":"LV","name":"Valdemarpils"},{"_id":7628354,"coord":{"lat":56.927502,"lon":26.735559},"country":"LV","name":"Lubānas Novads"},{"_id":457799,"coord":{"lat":56.900002,"lon":26.716669},"country":"LV","name":"Lubana"},{"_id":457742,"coord":{"lat":56.781792,"lon":27.66486},"country":"LV","name":"Ļurbava"},{"_id":461255,"coord":{"lat":56.954479,"lon":23.9429},"country":"LV","name":"Babīte"},{"_id":460001,"coord":{"lat":56.897518,"lon":25.636681},"country":"LV","name":"Ērgļi"},{"_id":453850,"coord":{"lat":56.386162,"lon":28.121651},"country":"LV","name":"Zilupe"},{"_id":458690,"coord":{"lat":56.61771,"lon":26.735571},"country":"LV","name":"Kokari"},{"_id":7628319,"coord":{"lat":56.886391,"lon":23.958891},"country":"LV","name":"Mārupes Novads"},{"_id":455499,"coord":{"lat":56.919441,"lon":23.953329},"country":"LV","name":"Skulte"},{"_id":7628345,"coord":{"lat":56.10667,"lon":27.100559},"country":"LV","name":"Aglonas Novads"},{"_id":455372,"coord":{"lat":56.133331,"lon":27.01667},"country":"LV","name":"Somersēta"},{"_id":7628367,"coord":{"lat":57.74028,"lon":24.451941},"country":"LV","name":"Salacgrīvas Novads"},{"_id":461628,"coord":{"lat":57.863609,"lon":24.35778},"country":"LV","name":"Ainazi"},{"_id":460019,"coord":{"lat":57.16061,"lon":23.225269},"country":"LV","name":"Engure"},{"_id":7628339,"coord":{"lat":56.011669,"lon":26.148331},"country":"LV","name":"Ilūkstes Novads"},{"_id":459072,"coord":{"lat":55.966671,"lon":26.283331},"country":"LV","name":"Kalnkrustceļi"},{"_id":7628304,"coord":{"lat":56.607498,"lon":21.395281},"country":"LV","name":"Durbes Novads"},{"_id":454407,"coord":{"lat":56.633331,"lon":21.48333},"country":"LV","name":"Vecpils"},{"_id":7628298,"coord":{"lat":57.566669,"lon":22.39472},"country":"LV","name":"Dundagas Novads"},{"_id":458682,"coord":{"lat":57.75,"lon":22.58333},"country":"LV","name":"Kolka"},{"_id":461566,"coord":{"lat":56.161518,"lon":25.747829},"country":"LV","name":"Akniste"},{"_id":455298,"coord":{"lat":57.836391,"lon":24.75},"country":"LV","name":"Staicele"},{"_id":460187,"coord":{"lat":57.51667,"lon":22.35},"country":"LV","name":"Dundaga"},{"_id":455102,"coord":{"lat":56.006199,"lon":25.90756},"country":"LV","name":"Subate"},{"_id":461534,"coord":{"lat":56.981941,"lon":21.55938},"country":"LV","name":"Alsunga"},{"_id":458151,"coord":{"lat":57.280251,"lon":26.57679},"country":"LV","name":"Lejasciems"},{"_id":459616,"coord":{"lat":57.20385,"lon":25.17363},"country":"LV","name":"Ieriķi"},{"_id":454078,"coord":{"lat":56.05344,"lon":26.783211},"country":"LV","name":"Višķi"},{"_id":460540,"coord":{"lat":56.533329,"lon":21.116671},"country":"LV","name":"Cimdenieki"},{"_id":456202,"coord":{"lat":56.5,"lon":27.316669},"country":"LV","name":"Rezekne"},{"_id":454273,"coord":{"lat":56.606392,"lon":24.522221},"country":"LV","name":"Vecumnieki"},{"_id":454372,"coord":{"lat":56.183331,"lon":26.51667},"country":"LV","name":"Vecvarkava"},{"_id":454602,"coord":{"lat":56.433331,"lon":21.866671},"country":"LV","name":"Vainode"},{"_id":454714,"coord":{"lat":56.941109,"lon":24.289721},"country":"LV","name":"Ulbroka"},{"_id":454848,"coord":{"lat":56.839909,"lon":23.58902},"country":"LV","name":"Tireli"},{"_id":455166,"coord":{"lat":57.62574,"lon":25.68535},"country":"LV","name":"Strenci"},{"_id":455910,"coord":{"lat":57.753609,"lon":24.358061},"country":"LV","name":"Salacgriva"},{"_id":456015,"coord":{"lat":57,"lon":27.133329},"country":"LV","name":"Rugaji"},{"_id":456090,"coord":{"lat":56.973888,"lon":24.63361},"country":"LV","name":"Ropazi"},{"_id":456107,"coord":{"lat":57.5,"lon":22.816669},"country":"LV","name":"Roja"},{"_id":456506,"coord":{"lat":56.446789,"lon":21.58968},"country":"LV","name":"Priekule"},{"_id":456685,"coord":{"lat":56.94194,"lon":23.91083},"country":"LV","name":"Pinki"},{"_id":456696,"coord":{"lat":57.224258,"lon":21.674391},"country":"LV","name":"Piltene"},{"_id":456698,"coord":{"lat":56.416672,"lon":24},"country":"LV","name":"Pilsrundale"},{"_id":456954,"coord":{"lat":56.68639,"lon":23.787781},"country":"LV","name":"Ozolnieki"},{"_id":457211,"coord":{"lat":57.48333,"lon":25.48333},"country":"LV","name":"Murmuiza"},{"_id":457408,"coord":{"lat":57.33535,"lon":23.12455},"country":"LV","name":"Mersrags"},{"_id":457676,"coord":{"lat":57.011108,"lon":24.96306},"country":"LV","name":"Malpils"},{"_id":457822,"coord":{"lat":57.154442,"lon":24.64444},"country":"LV","name":"Loja"},{"_id":458460,"coord":{"lat":56.973991,"lon":21.957211},"country":"LV","name":"Kuldiga"},{"_id":458880,"coord":{"lat":56.826618,"lon":24.23},"country":"LV","name":"Kekava"},{"_id":458972,"coord":{"lat":56.78405,"lon":27.68829},"country":"LV","name":"Karsava"},{"_id":459220,"coord":{"lat":56.676128,"lon":24.972099},"country":"LV","name":"Jumprava"},{"_id":459357,"coord":{"lat":56.732498,"lon":23.013611},"country":"LV","name":"Jaunpils"},{"_id":459419,"coord":{"lat":57.039101,"lon":24.174129},"country":"LV","name":"Jaunciems"},{"_id":459563,"coord":{"lat":57.098061,"lon":24.68639},"country":"LV","name":"Incukalns"},{"_id":459586,"coord":{"lat":55.977539,"lon":26.296551},"country":"LV","name":"Ilukste"},{"_id":459692,"coord":{"lat":56.53521,"lon":21.16782},"country":"LV","name":"Grobina"},{"_id":459984,"coord":{"lat":56.549999,"lon":27.883329},"country":"LV","name":"Cibla"},{"_id":460416,"coord":{"lat":57.043152,"lon":24.036131},"country":"LV","name":"Daugavgriva"},{"_id":460885,"coord":{"lat":57.031319,"lon":24.05571},"country":"LV","name":"Bolderaja"},{"_id":461163,"coord":{"lat":57.131302,"lon":27.265829},"country":"LV","name":"Balvi"},{"_id":461180,"coord":{"lat":56.950001,"lon":27.65},"country":"LV","name":"Baltinava"},{"_id":461224,"coord":{"lat":56.742779,"lon":24.39444},"country":"LV","name":"Baldone"},{"_id":461336,"coord":{"lat":56.459808,"lon":22.90169},"country":"LV","name":"Auce"},{"_id":461615,"coord":{"lat":56.604771,"lon":25.255341},"country":"LV","name":"Aizk