{"countryCityList":[{"_id":2208655,"coord":{"lat":32.94701,"lon":11.86647},"country":"LY","name":"Zaltan"},{"_id":2214845,"coord":{"lat":31.41667,"lon":14.41667},"country":"LY","name":"Sha‘bīyat Mişrātah"},{"_id":7602693,"coord":{"lat":26.549999,"lon":12.85},"country":"LY","name":"Sha‘bīyat Wādī al Ḩayāt"},{"_id":88380,"coord":{"lat":30.9522,"lon":20.12022},"country":"LY","name":"Az Zuwaytinah"},{"_id":88834,"coord":{"lat":32.534142,"lon":20.579109},"country":"LY","name":"Al Aquriyah"},{"_id":88904,"coord":{"lat":31.933331,"lon":21.316669},"country":"LY","name":"Sha‘bīyat al Marj"},{"_id":89087,"coord":{"lat":32.189999,"lon":20.596531},"country":"LY","name":"Al Abyar"},{"_id":7602692,"coord":{"lat":28.933331,"lon":21.200001},"country":"LY","name":"Sha‘bīyat al Wāḩāt"},{"_id":2593778,"coord":{"lat":32.716671,"lon":11.81667},"country":"LY","name":"Sha‘bīyat an Nuqāţ al Khams"},{"_id":2208425,"coord":{"lat":32.931198,"lon":12.08199},"country":"LY","name":"Zuwarah"},{"_id":2208485,"coord":{"lat":32.467381,"lon":14.56874},"country":"LY","name":"Zlitan"},{"_id":2208791,"coord":{"lat":32.06329,"lon":12.52859},"country":"LY","name":"Yafran"},{"_id":2209055,"coord":{"lat":29.1614,"lon":16.13904},"country":"LY","name":"Waddan"},{"_id":7602691,"coord":{"lat":32.5,"lon":14},"country":"LY","name":"Sha‘bīyat al Marqab"},{"_id":2210221,"coord":{"lat":32.43502,"lon":13.6332},"country":"LY","name":"Tarhuna"},{"_id":2210245,"coord":{"lat":32.889721,"lon":13.18472},"country":"LY","name":"Sha‘bīyat Ţarābulus"},{"_id":2210394,"coord":{"lat":32.881672,"lon":13.35056},"country":"LY","name":"Tagiura"},{"_id":2210560,"coord":{"lat":32.75668,"lon":12.57159},"country":"LY","name":"Surman"},{"_id":2212771,"coord":{"lat":32.79335,"lon":12.48845},"country":"LY","name":"Sabratah"},{"_id":2214433,"coord":{"lat":31.868481,"lon":10.9812},"country":"LY","name":"Nalut"},{"_id":2214827,"coord":{"lat":31.445141,"lon":12.98013},"country":"LY","name":"Mizdah"},{"_id":2215163,"coord":{"lat":32.616669,"lon":14},"country":"LY","name":"Masallatah"},{"_id":2216885,"coord":{"lat":32.75222,"lon":12.72778},"country":"LY","name":"Zawiya"},{"_id":7602689,"coord":{"lat":30.46666,"lon":13},"country":"LY","name":"Sha‘bīyat al Jabal al Gharbī"},{"_id":2217362,"coord":{"lat":32.172218,"lon":13.02028},"country":"LY","name":"Gharyan"},{"_id":2218478,"coord":{"lat":27.549561,"lon":14.27138},"country":"LY","name":"Birak"},{"_id":2218840,"coord":{"lat":31.75662,"lon":13.99422},"country":"LY","name":"Bani Walid"},{"_id":2219235,"coord":{"lat":26.59206,"lon":12.78049},"country":"LY","name":"Awbari"},{"_id":2219905,"coord":{"lat":32.648609,"lon":14.26191},"country":"LY","name":"Al Khums"},{"_id":2219960,"coord":{"lat":27.049999,"lon":14.4},"country":"LY","name":"Al Jadid"},{"_id":2220082,"coord":{"lat":27.833731,"lon":16.38492},"country":"LY","name":"Al Fuqahā’"},{"_id":81604,"coord":{"lat":31.66818,"lon":20.25205},"country":"LY","name":"Suluq"},{"_id":88562,"coord":{"lat":24.20487,"lon":23.2857},"country":"LY","name":"At Taj"},{"_id":88835,"coord":{"lat":32.76162,"lon":22.242371},"country":"LY","name":"Al Qubbah"},{"_id":2218972,"coord":{"lat":32.666672,"lon":12.58333},"country":"LY","name":"Sha‘bīyat az Zāwiyah"},{"_id":2218963,"coord":{"lat":31.92231,"lon":12.25195},"country":"LY","name":"Az Zintan"},{"_id":2215636,"coord":{"lat":25,"lon":17},"country":"LY","name":"Libya"},{"_id":2212774,"coord":{"lat":27.183319,"lon":15.01664},"country":"LY","name":"Sha‘bīyat Sabhā"},{"_id":2212775,"coord":{"lat":27.037661,"lon":14.42832},"country":"LY","name":"Sabha"},{"_id":2214812,"coord":{"lat":32.866669,"lon":13.16667},"country":"LY","name":"Mu‘askar Jālū"},{"_id":2214813,"coord":{"lat":32.875,"lon":13.175},"country":"LY","name":"Bāb al ‘Azīzīyah"},{"_id":88319,"coord":{"lat":32.116669,"lon":20.066669},"country":"LY","name":"Benghazi"},{"_id":88823,"coord":{"lat":32.116669,"lon":20.066669},"country":"LY","name":"Al ‘Urūbah"},{"_id":87204,"coord":{"lat":32.049999,"lon":22.533331},"country":"LY","name":"Sha‘bīyat Darnah"},{"_id":87205,"coord":{"lat":32.76704,"lon":22.63669},"country":"LY","name":"Darnah"},{"_id":2210553,"coord":{"lat":30.33333,"lon":16.5},"country":"LY","name":"Sha‘bīyat Surt"},{"_id":2210554,"coord":{"lat":31.20892,"lon":16.588659},"country":"LY","name":"Surt"},{"_id":443289,"coord":{"lat":32.200001,"lon":21.75},"country":"LY","name":"Sha‘bīyat al Jabal al Akhḑar"},{"_id":89055,"coord":{"lat":32.762718,"lon":21.75506},"country":"LY","name":"Al Bayda"},{"_id":7602688,"coord":{"lat":30.23333,"lon":24.16667},"country":"LY","name":"Sha‘bīyat al Buţnān"},{"_id":81302,"coord":{"lat":32.083611,"lon":23.976391},"country":"LY","name":"Tobruk"},{"_id":2214432,"coord":{"lat":30.33333,"lon":10.85},"country":"LY","name":"Sha‘bīyat Nālūt"},{"_id":2217440,"coord":{"lat":30.133659,"lon":9.50072},"country":"LY","name":"Ghadamis"},{"_id":2219944,"coord":{"lat":28,"lon":17.41667},"country":"LY","name":"Sha‘bīyat al Jufrah"},{"_id":2216645,"coord":{"lat":29.126841,"lon":15.94772},"country":"LY","name":"Hun"},{"_id":2218587,"coord":{"lat":32.687778,"lon":13.17389},"country":"LY","name":"Bin Ghashīr"},{"_id":2216746,"coord":{"lat":27.023001,"lon":14.45642},"country":"LY","name":"Ḩijārah"},{"_id":88603,"coord":{"lat":32.777458,"lon":21.94923},"country":"LY","name":"Aş Şafşaf"},{"_id":2214234,"coord":{"lat":32.902222,"lon":13.27083},"country":"LY","name":"Qabīlat Awlād Dhiyāb"},{"_id":85820,"coord":{"lat":32.097271,"lon":20.25659},"country":"LY","name":"Kamb al ‘Ajjāj"},{"_id":88962,"coord":{"lat":24.1989,"lon":23.29093},"country":"LY","name":"Al Jawf"},{"_id":2217350,"coord":{"lat":26.1,"lon":10.33333},"country":"LY","name":"Sha‘bīyat Ghāt"},{"_id":2217351,"coord":{"lat":24.96472,"lon":10.17278},"country":"LY","name":"Ghat"},{"_id":2214602,"coord":{"lat":25.183331,"lon":15.48333},"country":"LY","name":"Sha‘bīyat Murzuq"},{"_id":2214603,"coord":{"lat":25.91552,"lon":13.91839},"country":"LY","name":"Murzuq"},{"_id":88635,"coord":{"lat":29.171671,"lon":21.29417},"country":"LY","name":"Ash Shawāshinah"},{"_id":88903,"coord":{"lat":32.48798,"lon":20.831739},"country":"LY","name":"Al Marj"},{"_id":89113,"coord":{"lat":30.755449,"lon":20.226259},"country":"LY","name":"Ajdabiya"},{"_id":2210247,"coord":{"lat":32.875191,"lon":13.18746},"country":"LY","name":"Tripoli"},{"_id":2214846,"coord":{"lat":32.375351,"lon":15.09254},"country":"LY","name":"Misratah"},{"_id":80509,"coord":{"lat":31.756149,"lon":25.086531},"country":"LY","name":"Bardiyah"},{"_id":86049,"coord":{"lat":29.033331,"lon":21.549999},"country":"LY","name":"Gialo"},{"_id":88533,"coord":{"lat":29.108061,"lon":21.28694},"country":"LY","name":"Awjilah"},{"_id":88930,"coord":{"lat":24.16667,"lon":23.269621},"country":"LY","name":"Al Kufrah"},{"_id":88967,"coord":{"lat":29.74262,"lon":24.51676},"country":"LY","name":"Al Jaghbub"},{"_id":2215210,"coord":{"lat":30.40624,"lon":19.57386},"country":"LY","name":"Al Burayqah"},{"_id":2216432,"coord":{"lat":31.958151,"lon":12.02034},"country":"LY","name":"Giado"},{"_id":2218970,"coord":{"lat":32.757099,"lon":12.72764},"country":"LY","name":"Az Zawiyah"},{"_id":2220139,"coord":{"lat":32.53194,"lon":13.0175},"country":"