{"countryCityList":[{"_id":7303514,"coord":{"lat":9.0804,"lon":165.627823},"country":"MH","name":"Ujae Atoll"},{"_id":7306519,"coord":{"lat":8.93218,"lon":165.76416},"country":"MH","name":"Ujae"},{"_id":7303505,"coord":{"lat":7.15,"lon":171.199997},"country":"MH","name":"Majuro Atoll"},{"_id":7303507,"coord":{"lat":6.13333,"lon":171.916672},"country":"MH","name":"Mili Atoll"},{"_id":7306516,"coord":{"lat":6.0815,"lon":171.735016},"country":"MH","name":"Mili"},{"_id":7303502,"coord":{"lat":9.182,"lon":167.307999},"country":"MH","name":"Kwajalein Atoll"},{"_id":7304473,"coord":{"lat":8.7484,"lon":167.685043},"country":"MH","name":"Enubuj"},{"_id":2080185,"coord":{"lat":7.113,"lon":171.235992},"country":"MH","name":"Republic of the Marshall Islands"},{"_id":2113779,"coord":{"lat":7.08971,"lon":171.380264},"country":"MH","name":"Majuro"},{"_id":7874852,"coord":{"lat":7.08931,"lon":171.380493},"country":"MH","name":"RMI Capitol"},{"_id":2080115,"coord":{"lat":9.82511,"lon":169.310654},"country":"MH","name":"Likiep"},{"_id":2080422,"coord":{"lat":5.92098,"lon":169.643356},"country":"MH","name":"Jabor"},{"_id":2080970,"coord":{"lat":10.21972,"lon":169.979675},"country":"MH","name":"Ailuk"},{"_id":4039539,"coord":{"lat":8.70576,"lon":171.227493},"country":"MH","name":"Taroa"},{"_id":7304467,"coord":{"lat":8.77479,"lon":167.739197},"country":"MH","name":"Ebaye"},{"_id":7306511,"coord":{"lat":11.34735,"lon":162.337326},"country":"MH","name":"Enewetak"},{"_id":7306512,"coord":{"lat":4.58199,"lon":168.696365},"country":"MH","name":"Ebon"},{"_id":7306513,"coord":{"lat":8.1499,"lon":171.168686},"country":"MH","name":"Aur"},{"_id":7306514,"coord":{"lat":7.06691,"lon":171.554123},"country":"MH","name":"Arno"},{"_id":7306515,"coord":{"lat":7.27717,"lon":168.820297},"country":"MH","name":"Airuk"},{"_id":7306517,"coord":{"lat":8.92217,"lon":166.263443},"country":"MH","name":"Lae"},{"_id":7306518,"coord":{"lat":11.22778,"lon":169.847397},"country":"MH","name":"Utrik"},{"_id":7306520,"coord":{"lat":11.16351,"lon":166.894073},"country