{"countryCityList":[{"_id":2455517,"coord":{"lat":14,"lon":-11},"country":"ML","name":"Région de Kayes"},{"_id":6912297,"coord":{"lat":13.0211,"lon":-9.277},"country":"ML","name":"Sikoroni"},{"_id":2453347,"coord":{"lat":14.66667,"lon":-4},"country":"ML","name":"Région de Mopti"},{"_id":2449661,"coord":{"lat":15.18771,"lon":-1.51733},"country":"ML","name":"Tilèya"},{"_id":2457161,"coord":{"lat":16.63619,"lon":1.63696},"country":"ML","name":"Région de Gao"},{"_id":2448705,"coord":{"lat":15.45,"lon":2.0368},"country":"ML","name":"Wagaman"},{"_id":2449893,"coord":{"lat":20.19861,"lon":1.01139},"country":"ML","name":"Tessalit"},{"_id":2453662,"coord":{"lat":13.7021,"lon":-6.0659},"country":"ML","name":"Markala"},{"_id":2457163,"coord":{"lat":16.271669,"lon":-0.04472},"country":"ML","name":"Gao"},{"_id":2453866,"coord":{"lat":17,"lon":-4},"country":"ML","name":"Republic of Mali"},{"_id":2451184,"coord":{"lat":10.91667,"lon":-7},"country":"ML","name":"Région de Sikasso"},{"_id":6798664,"coord":{"lat":11.25438,"lon":-7.29523},"country":"ML","name":"Néguéla"},{"_id":2451477,"coord":{"lat":14,"lon":-6},"country":"ML","name":"Ségou Region"},{"_id":2451274,"coord":{"lat":13.1996,"lon":-4.4866},"country":"ML","name":"Sialo"},{"_id":2451478,"coord":{"lat":13.4317,"lon":-6.2157},"country":"ML","name":"Segou"},{"_id":2455516,"coord":{"lat":14.4586,"lon":-11.4352},"country":"ML","name":"Kayes Ndi"},{"_id":2460546,"coord":{"lat":13.55,"lon":-7.45},"country":"ML","name":"Banamba"},{"_id":2597449,"coord":{"lat":19.91667,"lon":1.08333},"country":"ML","name":"Région de Kidal"},{"_id":2455290,"coord":{"lat":18.441111,"lon":1.40778},"country":"ML","name":"Kidal"},{"_id":2454268,"coord":{"lat":12.39173,"lon":-5.46421},"country":"ML","name":"Koutiala"},{"_id":2455518,"coord":{"lat":14.4417,"lon":-11.4341},"country":"ML","name":"Kayes"},{"_id":2451778,"coord":{"lat":13.30335,"lon":-4.89562},"country":"ML","name":"San"},{"_id":2453348,"coord":{"lat":14.49302,"lon":-4.1942},"country":"ML","name":"Mopti"},{"_id":2450534,"coord":{"lat":16.21944,"lon":-0.01917},"country":"ML","name":"Tabakor"},{"_id":2455216,"coord":{"lat":13.0349,"lon":-9.4895},"country":"ML","name":"Kita"},{"_id":2460594,"coord":{"lat":12.65,"lon":-8},"country":"ML","name":"District de Bamako"},{"_id":2460596,"coord":{"lat":12.65,"lon":-8},"country":"ML","name":"Bamako"},{"_id":2454390,"coord":{"lat":12.0146,"lon":-5.70803},"country":"ML","name":"Kouoro"},{"_id":2451185,"coord":{"lat":11.3135,"lon":-5.6697},"country":"ML","name":"Sikasso"},{"_id":2454532,"coord":{"lat":14,"lon":-7.75},"country":"ML","name":"Région de Koulikoro"},{"_id":2454530,"coord":{"lat":12.86273,"lon":-7.55985},"country":"ML","name":"Koulikoro"},{"_id":2460489,"coord":{"lat":14.35005,"lon":-3.61038},"country":"ML","name":"Bandiagara"},{"_id":2458334,"coord":{"lat":14.9951,"lon":-2.9517},"country":"ML","name":"Douentza"},{"_id":2452655,"coord":{"lat":14.2526,"lon":-5.993},"country":"ML","name":"Niono"},{"_id":2451285,"coord":{"lat":14.52742,"lon":-4.09344},"country":"ML","name":"Sévaré"},{"_id":6910806,"coord":{"lat":13.4629,"lon":-6.2699},"country":"ML","name":"Kala Dangan"},{"_id":2449066,"coord":{"lat":20,"lon":-3},"country":"ML","name":"Région de Tombouctou"},{"_id":2456917,"coord":{"lat":16.41453,"lon":-3.67075},"country":"ML","name":"Goundam"},{"_id":2448489,"coord":{"lat":15.11868,"lon":-10.57729},"country":"ML","name":"Yélimané"},{"_id":2456013,"coord":{"lat":16.704309,"lon":-2.98302},"country":"ML","name":"Kabara"},{"_id":2448694,"coord":{"lat":13.4145,"lon":-6.1581},"country":"ML","name":"Ouèlengana"},{"_id":6759824,"coord":{"lat":15.24074,"lon":-9.58726},"country":"ML","name":"Nioro Rufis"},{"_id":6779095,"coord":{"lat":15.2055,"lon":-7.25946},"country":"ML","name":"Toumboudrané"},{"_id":6768610,"coord":{"lat":14.51415,"lon":-4.082},"country":"ML","name":"Banguitaba"},{"_id":2451464,"coord":{"lat":14.50294,"lon":-11.40753},"country":"ML","name":"Ségué"},{"_id":2451086,"coord":{"lat":12.3516,"lon":-5.44223},"country":"ML","name":"Sinsina"},{"_id":2457331,"coord":{"lat":12.8465,"lon":-11.2531},"country":"ML","name":"Fougola"},{"_id":2451350,"coord":{"lat":12.5207,"lon":-7.9293},"country":"ML","name":"Sénou"},{"_id":2448442,"coord":{"lat":12.3536,"lon":-4.7761},"country":"ML","name":"Yorosso"},{"_id":2449067,"coord":{"lat":16.773479,"lon":-3.00742},"country":"ML","name":"Timbuktu"},{"_id":2454955,"coord":{"lat":13.5728,"lon":-8.0339},"country":"ML","name":"Kolokani"},{"_id":2455558,"coord":{"lat":12.74409,"lon":-8.07257},"country":"ML","name":"Kati"},{"_id":2455735,"coord":{"lat":11.93333,"lon":-8.41667},"country":"ML","name":"Kangaba"},{"_id":2458589,"coord":{"lat":13.90608,"lon":-4.55332},"country":"ML","name":"Djenne"},{"_id":2459775,"coord":{"lat":11.41699,"lon":-7.47899},"country":"ML","name":"Bougouni"},{"_id":2460755,"coord":{"lat":13.8065,"lon":-10.8321},"country":"ML","name":"Bafoulabe"},{"_id":2460377,"coord":{"lat":12.8383,"lon":-5.77643},"country":"ML","name":"Bankoumana"},{"_id":2449938,"coord":{"lat":14.45722,"lon":-4.9169},"country":"ML","name":"Tenenkou"},{"_id":2450173,"coord":{"lat":22.6783