{"countryCode":"MP","countryName":"Northern Mariana Islands","countryFilePath":"MP.json","countryCityList":[{"_id":4041650,"name":"Tinian Municipality","country":"MP","coord":{"lon":145.615997,"lat":15.029}},{"_id":7798576,"name":"Marpo Heights Hamlet","country":"MP","coord":{"lon":145.636871,"lat":14.97974}},{"_id":4041552,"name":"Saipan Municipality","country":"MP","coord":{"lon":145.701004,"lat":15.1355}},{"_id":7838875,"name":"As Lito Hamlet","country":"MP","coord":{"lon":145.72377,"lat":15.12963}},{"_id":4041468,"name":"Commonwealth of the Northern Mariana Islands","country":"MP","coord":{"lon":145.755997,"lat":15.214}},{"_id":7838880,"name":"Papago Hamlet","country":"MP","coord":{"lon":145.747025,"lat":15.17358}},{"_id":4041530,"name":"Rota Municipality","country":"MP","coord":{"lon":145.201004,"lat":14.154}},{"_id":4041576,"name":"Sinapalo Village","country":"MP","coord":{"lon":145.231705,"lat":14.16608}},{"_id":4041171,"name":"CNMI Governor's Office","country":"MP","coord":{"lon":145.753723,"lat":15.21217}},{"_id":7828758,"name":"Saipan","country":"MP","coord":{"lon":145.754501,"lat":15.21233}},{"_id":4041558,"name":"JP Tinian Town pre-WW2","country":"MP","coord":{"lon":145.624374,"lat":14.96874}},{"_id":7828739,"name":"Northern Islands Municipality - Mayors Office","country":"MP","coord":{"lon":145.716644,"lat":15.20833}}]}
