{"countryCityList":[{"_id":4041650,"coord":{"lat":15.029,"lon":145.615997},"country":"MP","name":"Tinian Municipality"},{"_id":7798576,"coord":{"lat":14.97974,"lon":145.636871},"country":"MP","name":"Marpo Heights Hamlet"},{"_id":4041552,"coord":{"lat":15.1355,"lon":145.701004},"country":"MP","name":"Saipan Municipality"},{"_id":7838875,"coord":{"lat":15.12963,"lon":145.72377},"country":"MP","name":"As Lito Hamlet"},{"_id":4041468,"coord":{"lat":15.214,"lon":145.755997},"country":"MP","name":"Commonwealth of the Northern Mariana Islands"},{"_id":7838880,"coord":{"lat":15.17358,"lon":145.747025},"country":"MP","name":"Papago Hamlet"},{"_id":4041530,"coord":{"lat":14.154,"lon":145.201004},"country":"MP","name":"Rota Municipality"},{"_id":4041576,"coord":{"lat":14.16608,"lon":145.231705},"country":"MP","name":"Sinapalo Village"},{"_id":4041171,"coord":{"lat":15.21217,"lon":145.753723},"country":"MP","name":"CNMI Governor's Office"},{"_id":7828758,"coord":{"lat":15.21233,"lon":145.754501},"country":"MP","name":"S