{"countryCityList":[{"_id":2378080,"coord":{"lat":20,"lon":-12},"country":"MR","name":"Islamic Republic of Mauritania"},{"_id":2375989,"coord":{"lat":24,"lon":-9},"country":"MR","name":"Wilaya du Tiris Zemmour"},{"_id":2380975,"coord":{"lat":25.221251,"lon":-11.57928},"country":"MR","name":"Bîr Mogreïn"},{"_id":2377449,"coord":{"lat":18.1,"lon":-15.95},"country":"MR","name":"District de Nouakchott"},{"_id":2377450,"coord":{"lat":18.08581,"lon":-15.9785},"country":"MR","name":"Nouakchott"},{"_id":2380426,"coord":{"lat":20.94833,"lon":-16.23361},"country":"MR","name":"Wilaya de Dakhlet Nouadhibou"},{"_id":2377457,"coord":{"lat":20.930981,"lon":-17.034651},"country":"MR","name":"Nouadhibou"},{"_id":2381972,"coord":{"lat":20.50222,"lon":-10.07111},"country":"MR","name":"Wilaya de l'Adrar"},{"_id":2381334,"coord":{"lat":20.516859,"lon":-13.04986},"country":"MR","name":"Atar"},{"_id":2595352,"coord":{"lat":18.099501,"lon":-15.9574},"country":"MR","name":"Ksar"},{"_id":2379384,"coord":{"lat":16.053329,"lon":-12.82444},"country":"MR","name":"Wilaya du Gorgol"},{"_id":2378736,"coord":{"lat":16.14653,"lon":-13.50474},"country":"MR","name":"Kaedi"},{"_id":2378903,"coord":{"lat":20.0625,"lon":-15.06833},"country":"MR","name":"Wilaya de l'Inchiri"},{"_id":2381690,"coord":{"lat":19.696939,"lon":-14.41639},"country":"MR","name":"Akjoujt"},{"_id":2379025,"coord":{"lat":19,"lon":-7.25},"country":"MR","name":"Wilaya du Hodh ech Chargui"},{"_id":2377539,"coord":{"lat":16.616199,"lon":-7.2535},"country":"MR","name":"Nema"},{"_id":2381344,"coord":{"lat":16.59556,"lon":-11.90917},"country":"MR","name":"Wilaya de l'Assaba"},{"_id":2378538,"coord":{"lat":16.61659,"lon":-11.40453},"country":"MR","name":"Kiffa"},{"_id":2376551,"coord":{"lat":18.696671,"lon":-10.2075},"country":"MR","name":"Wilaya du Tagant"},{"_id":2376193,"coord":{"lat":18.55644,"lon":-11.42715},"country":"MR","name":"Tidjikja"},{"_id":2375742,"coord":{"lat":17.866501,"lon":-14.65878},"country":"MR","name":"Wilaya du Trarza"},{"_id":2380670,"coord":{"lat":17.5467,"lon":-