{"countryCode":"MS","countryName":"Montserrat","countryFilePath":"MS.json","countryCityList":[{"_id":3578045,"name":"Parish of Saint Anthony","country":"MS","coord":{"lon":-62.200001,"lat":16.700001}},{"_id":3577989,"name":"Webbs","country":"MS","coord":{"lon":-62.216671,"lat":16.700001}},{"_id":3578039,"name":"Parish of Saint Peter","country":"MS","coord":{"lon":-62.200001,"lat":16.783331}},{"_id":3578028,"name":"Soldier Ghaut","country":"MS","coord":{"lon":-62.200001,"lat":16.783331}},{"_id":3578097,"name":"Montserrat","country":"MS","coord":{"lon":-62.200001,"lat":16.75}},{"_id":3578160,"name":"Gerald's","country":"MS","coord":{"lon":-62.193562,"lat":16.79575}},{"_id":3578069,"name":"Plymouth","country":"MS","coord":{"lon":-62.212921,"lat":16.705549}},{"_id":7266440,"name":"Brades","country":"MS","coord":{"lon":-62.210579,"lat":16.79183}}]}
