{"countryCityList":[{"_id":934275,"coord":{"lat":-20.25,"lon":57.566669},"country":"MU","name":"Moka District"},{"_id":934277,"coord":{"lat":-20.218889,"lon":57.495831},"country":"MU","name":"Moka"},{"_id":934131,"coord":{"lat":-20.264441,"lon":57.471939},"country":"MU","name":"Quatre Bornes"},{"_id":934333,"coord":{"lat":-20.143061,"lon":57.562222},"country":"MU","name":"Long Mountain"},{"_id":1106809,"coord":{"lat":-20.135,"lon":57.521111},"country":"MU","name":"Le Hochet"},{"_id":934153,"coord":{"lat":-20.16667,"lon":57.525002},"country":"MU","name":"Port Louis District"},{"_id":1106819,"coord":{"lat":-20.15361,"lon":57.520279},"country":"MU","name":"Carreau Lalo"},{"_id":1106806,"coord":{"lat":-20.164721,"lon":57.513062},"country":"MU","name":"Vallée Pitot"},{"_id":934292,"coord":{"lat":-20.299999,"lon":57.583328},"country":"MU","name":"Republic of Mauritius"},{"_id":934268,"coord":{"lat":-20.03278,"lon":57.619171},"country":"MU","name":"Mon Loisir"},{"_id":934154,"coord":{"lat":-20.16194,"lon":57.49889},"country":"MU","name":"Port Louis"},{"_id":934166,"coord":{"lat":-20.299999,"lon":57.48333},"country":"MU","name":"Plaines Wilhems District"},{"_id":934570,"coord":{"lat":-20.31472,"lon":57.520279},"country":"MU","name":"Curepipe"},{"_id":934212,"coord":{"lat":-20.095831,"lon":57.559719},"country":"MU","name":"Pamplemousses District"},{"_id":933959,"coord":{"lat":-20.05472,"lon":57.54528},"country":"MU","name":"Triolet"},{"_id":934765,"coord":{"lat":-20.21944,"lon":57.458328},"country":"MU","name":"Beau Bassin"},{"_id":933945,"coord":{"lat":-20.298059,"lon":57.478329},"country":"MU","name":"Vacoas"},{"_id":1106788,"coord":{"lat":-20.297501,"lon":57.595001},"country":"MU","name":"Dubreuil"},{"_id":934718,"coord":{"lat":-20.33333,"lon":57.416672},"country":"MU","name":"Black River District"},{"_id":934778,"coord":{"lat":-20.25667,"lon":57.406109},"country":"MU","name":"Bambous"},{"_id":934090,"coord":{"lat":-20.058331,"lon":57.64167},"country":"MU","name":"Rivière du Rempart District"},{"_id":1106771,"coord":{"lat":-20.07583,"lon":57.601391},"country":"MU","name":"Mapou"},{"_id":934133,"coord":{"lat":-20.243891,"lon":57.589169},"country":"MU","name":"Quartier Militaire"},{"_id":934032,"coord":{"lat":-20.217501,"lon":57.520828},"country":"MU","name":"Saint Pierre"},{"_id":1106763,"coord":{"lat":-20.20722,"lon":57.43},"country":"MU","name":"Gros Cailloux"},{"_id":1106782,"coord":{"lat":-20.225,"lon":57.587219},"country":"MU","name":"Espérance"},{"_id":934195,"coord":{"lat":-20.18944,"lon":57.445278},"country":"MU","name":"Petite Riviere"},{"_id":934466,"coord":{"lat":-20.41667,"lon":57.633331},"country":"MU","name":"Grand Port District"},{"_id":934240,"coord":{"lat":-20.408609,"lon":57.613609},"country":"MU","name":"New Grove"},{"_id":934072,"coord":{"lat":-20.40028,"lon":57.596668},"country":"MU","name":"Rose Belle"},{"_id":1547449,"coord":{"lat":-19.700001,"lon":63.416672},"country":"MU","name":"Rodrigues"},{"_id":1545752,"coord":{"lat":-19.683331,"lon":63.416672},"country":"MU","name":"Port Mathurin"},{"_id":934262,"coord":{"lat":-20.28278,"lon":57.654442},"country":"MU","name":"Montagne Blanche"},{"_id":934522,"coord":{"lat":-20.23333,"lon":57.716671},"country":"MU","name":"Flacq District"},{"_id":934631,"coord":{"lat":-20.18972,"lon":57.714439},"country":"MU","name":"Centre de Flacq"},{"_id":934693,"coord":{"lat":-20.17083,"lon":57.656391},"country":"MU","name":"Bon Accueil"},{"_id":934739,"coord":{"lat":-20.120279,"lon":57.663609},"country":"MU","name":"Belle Vue Maurel"},{"_id":934089,"coord":{"lat":-20.360279,"lon":57.366112},"country":"MU","name":"Grande Riviere Noire"},{"_id":934091,"coord":{"lat":-20.10306,"lon":57.684719},"country":"MU","name":"Riviere du Rempart"},{"_id":934017,"coord":{"lat":-20.466669,"lon":57.5},"country":"MU","name":"Savanne District"},{"_id":934614,"coord":{"lat":-20.487221,"lon":57.465561},"country":"MU","name":"Chemin Grenier"},{"_id":933995,"coord":{"lat":-20.51667,"lon":57.51667},"country":"MU","name":"Souillac"},{"_id":934479,"coord":{"lat":-20.00639,"lon":57.660831},"country":"MU","name":"Grand Gaube"},{"_id":934750,"coord":{"lat":-20.254169,"lon":57.745281},"country":"MU","name":"Bel Air"},{"_id":934513,"coord":{"lat":-20.04306,"lon":57.578609},"country":"MU","name":"Fond du Sac"},{"_id":934085,"coord":{"lat":-20.111111,"lon":57.712219},"country":"MU","name":"Roches Noire"},{"_id":1106638,"coord":{"lat":-20.198059,"lon":57.749439},"country":"MU","name":"Mare La Chaux"},{"_id":934303,"coord":{"lat":-20.435829,"lon":57.588612},"country":"MU","name":"Mare Tabac"},{"_id":934740,"coord":{"lat":-20.261669,"lon":57.726391},"country":"MU","name":"Belle Rose"},{"_id":1106642,"coord":{"lat":-20.195,"lon":57.76833},"country":"MU","name":"Belle Mare"},{"_id":933953,"coord":{"lat":-20.045,"lon":57.546108},"country":"MU","name":"Trou aux Biches"},{"_id":1106721,"coord":{"lat":-20.41028,"lon":57.553612},"country":"MU","name":"La Flora"},{"_id":933970,"coord":{"lat":-20.02833,"lon":57.58778},"country":"MU","name":"The Vale"},{"_id":1106815,"coord":{"lat":-20.166941,"lon":57.53056},"country":"MU","name":"Vallée des Prêtres"},{"_id":934127,"coord":{"lat":-20.29917,"lon":57.770561},"country":"MU","name":"Quatre Soeurs"},{"_id":933951,"coord":{"lat":-20.237221,"lon":57.7775},"country":"MU","name":"Trou d’Eau Douce"},{"_id":1106693,"coord":{"lat":-20.386391,"lon":57.573608},"country":"MU","name":"Union Park"},{"_id":1106625,"coord":{"lat":-20.12694,"lon":57.589169},"country":"MU","name":"D’Epinay"},{"_id":934092,"coord":{"lat":-20.42417,"lon":57.56694},"country":"MU","name":"Rivière du Poste"},{"_id":934076,"coord":{"lat":-20.01861,"lon":57.644718},"country":"MU","name":"Roche Terre"},{"_id":934052,"coord":{"lat":-20.145,"lon":57.521389},"country":"MU","name":"Sainte Croix"},{"_id":934343,"coord":{"lat":-20.469999,"lon":57.612221},"country":"MU","name":"L’Escalier"},{"_id":934818,"coord":{"lat":-20.14806,"lon":57.516109},"country":"MU","name":"Abercrombie"},{"_id":1106807,"coord":{"lat":-20.15361,"lon":57.507778},"country":"MU","name":"Plaine Verte"},{"_id":934309,"coord":{"lat":-20.41861,"lon":57.62278},"country":"MU","name":"Mare d’Albert"},{"_id":934159,"coord":{"lat":-20.16667,"lon":57.704441},"country":"MU","name":"Pont Blanc"},{"_id":934442,"coord":{"lat":-20.33556,"lon":57.466389},"country":"MU","name":"Henrietta"},{"_id":1106589,"coord":{"lat":-20.36694,"lon":57.603889},"country":"MU","name":"Cluny"},{"_id":934749,"coord":{"lat":-20.406389,"lon":57.673611},"country":"MU","name":"Grand Bel Air"},{"_id":1106585,"coord":{"lat":-20.488331,"lon":57.37056},"country":"MU","name":"Baie du Cap"},{"_id":1106803,"coord":{"lat":-20.15917,"lon":57.475559},"country":"MU","name":"Bain des Dames"},{"_id":934734,"coord":{"lat":-20.1675,"lon":57.479439},"country":"MU","name":"Bell Village"},{"_id":934705,"coord":{"lat":-20.36306,"lon":57.73111},"country":"MU","name":"Bois des Amourettes"},{"_id":1547511,"coord":{"lat":-19.758329,"lon":63.35833},"country":"MU","name":"Plaine Corail"},{"_id":934753,"coord":{"lat":-20.41889,"lon":57.695278},"country":"MU","name":"Beau Vallon"},{"_id":934322,"coord":{"lat":-20.40806,"lon":57.700001},"country":"MU","name":"Mahebourg"},{"_id":934488,"coord":{"lat":-20.035,"lon":57.643059},"country":"MU","name":"Goodlands"},{"_id":933933,"coord":{"lat":-20.228331,"lon":57.543892},"country":"MU","name":"Verdun"},{"_id":933974,"coord":{"lat":-20.12611,"lon":57.524441},"country":"MU","name":"Terre Rouge"},{"_id":933982,"coord":{"lat":-20.32556,"lon":57.37056},"country":"MU","name":"Tamarin"},{"_id":933988,"coord":{"lat":-20.50972,"lon":57.50528},"country":"MU","name":"Surinam"},{"_id":934013,"coord":{"lat":-20.288891,"lon":57.6875},"country":"MU","name":"Sebastopol"},{"_id":934043,"coord":{"lat":-20.226391,"lon":57.636391},"country":"MU","name":"Saint Julien"},{"_id":934047,"coord":{"lat":-20.36417,"lon":57.638329},"country":"MU","name":"Saint Hubert"},{"_id":934056,"coord":{"lat":-20.491671,"lon":57.541389},"country":"MU","name":"Saint Aubin"},{"_id":934058,"coord":{"lat":-20.073059,"lon":57.55806},"country":"MU","name":"Morcellemont Saint Andre"},{"_id":934095,"coord":{"lat":-20.485279,"lon":57.550831},"country":"MU","name":"Riviere des Anguilles"},{"_id":934126,"coord":{"lat":-20.219999,"lon":57.7075},"country":"MU","name":"Queen Victoria"},{"_id":934138,"coord":{"lat":-20.24472,"lon":57.612221},"country":"MU","name":"Providence"},{"_id":934149,"coord":{"lat":-20.163059,"lon":57.73056},"country":"MU","name":"Poste de Flacq"},{"_id":934169,"coord":{"lat":-20.42861,"lon":57.653061},"country":"MU","name":"Plaine Magnien"},{"_id":934170,"coord":{"lat":-20.065001,"lon":57.572498},"country":"MU","name":"Plaine des Papayes"},{"_id":934184,"coord":{"lat":-20.01333,"lon":57.611938},"country":"MU","name":"Petit Raffray"},{"_id":934198,"coord":{"lat":-20.393061,"lon":57.365002},"country":"MU","name":"Petite Case Noyale"},{"_id":934213,"coord":{"lat":-20.103889,"lon":57.570278},"country":"MU","name":"Pamplemousses"},{"_id":934219,"coord":{"lat":-20.192711,"lon":57.488258},"country":"MU","name":"Pailles"},{"_id":934225,"coord":{"lat":-20.297501,"lon":57.725559},"country":"MU","name":"Olivia"},{"_id":934229,"coord":{"lat":-20.37056,"lon":57.561111},"country":"MU","name":"Nouvelle France"},{"_id":934232,"coord":{"lat":-20.14056,"lon":57.553059},"country":"MU","name":"Notre Dame"},{"_id":934255,"coord":{"lat":-20.090281,"lon":57.63028},"country":"MU","name":"Piton"},{"_id":934282,"coord":{"lat":-20.3325,"lon":57.558331},"country":"MU","name":"Midlands"},{"_id":934288,"coord":{"lat":-20.26972,"lon":57.631939},"country":"MU","name":"Melrose"},{"_id":934390,"coord":{"lat":-20.18972,"lon":57.66111},"country":"MU","name":"Lalmatie"},{"_id":934400,"coord":{"lat":-20.24444,"lon":57.554169},"country":"MU","name":"La Dagotiere"},{"_id":934459,"coord":{"lat":-20.314171,"lon":57.764439},"country":"MU","name":"Grand Sable"},{"_id":934475,"coord":{"lat":-20.28611,"lon":57.775829},"country":"MU","name":"Grande Riviere Sud Est"},{"_id":934482,"coord":{"lat":-20.01816,"lon":57.580151},"country":"MU","name":"Grand Baie"},{"_id":934485,"coord":{"lat":-20.41889,"lon":57.54417},"country":"MU","name":"Grand Bois"},{"_id":934517,"coord":{"lat":-20.27417,"lon":57.36306},"country":"MU","name":"Flic en Flac"},{"_id":934533,"coord":{"lat":-20.069719,"lon":57.641941},"country":"MU","name":"Esperance Trebuchet"},{"_id":934573,"coord":{"lat":-20.191111,"lon":57.55722},"country":"MU","name":"Creve Coeur"},{"_id":934599,"coord":{"lat":-20.263889,"lon":57.706108},"country":"MU","name":"Clemencia"},{"_id":934624,"coord":{"lat":-20.48222,"lon":57.46611},"country":"MU","name":"Chamouny"},{"_id":934644,"coord":{"lat":-20.28694,"lon":57.407219},"country":"MU","name":"Cascavelle"},{"_id":934649,"coord":{"lat":-19.984171,"lon":57.61417},"country":"MU","name":"Cap Malheureux"},{"_id":934656,"coord":{"lat":-20.21472,"lon":57.616112},"country":"MU","name":"Camp Thorel"},{"_id":934660,"coord":{"lat":-20.46278,"lon":57.578892},"country":"MU","name":"Camp Diable"},{"_id":934661,"coord":{"lat":-20.23694,"lon":57.66333},"country":"MU","name":"Camp de Masque"},{"_id":934677,"coord":{"lat":-20.163891,"lon":57.646671},"country":"MU","name":"Brisee Verdiere"},{"_id":934812,"coord":{"lat":-20.21167,"lon":57.400829},"country":"MU","name":"Albion"},{"_id":1106584,"coord":{"lat":-20.14583,"lon":57.67667},"country":"MU","name":"Laventure"},{"_id":1106596,"coord":{"lat":-20.059719,"lon":57.629169},"country":"MU","name":"Cottage"},{"_id":1106614,"coord":{"lat":-20.06278,"lon":57.513062},"country":"MU","name":"Grande Pointe aux Piments"},{"_id":1106621,"coord":{"lat":-20.14889,"lon":57.590832},"country":"MU","name":"Congomah"},{"_id":1106630,"coord":{"lat":-20.130831,"lon":57.659168},"country":"MU","name":"Amaury"},{"_id":1106631,"coord":{"lat":-20.11167,"lon":57.69083},"country":"MU","name":"Plaines des Roches"},{"_id":1106643,"coord":{"lat":-20.207781,"lon":57.762501},"country":"MU","name":"Quatre Cocos"},{"_id":1106645,"coord":{"lat":-20.21583,"lon":57.74556},"country":"MU","name":"Camp Ithier"},{"_id":1106660,"coord":{"lat":-20.22611,"lon":57.736111},"country":"MU","name":"Ecroignard"},{"_id":1106677,"coord":{"lat":-20.342779,"lon":57.7575},"country":"MU","name":"Bambous Virieux"},{"_