{"countryCode":"MU","countryName":"Mauritius","countryFilePath":"MU.json","countryCityList":[{"_id":934275,"name":"Moka District","country":"MU","coord":{"lon":57.566669,"lat":-20.25}},{"_id":934277,"name":"Moka","country":"MU","coord":{"lon":57.495831,"lat":-20.218889}},{"_id":934131,"name":"Quatre Bornes","country":"MU","coord":{"lon":57.471939,"lat":-20.264441}},{"_id":934333,"name":"Long Mountain","country":"MU","coord":{"lon":57.562222,"lat":-20.143061}},{"_id":1106809,"name":"Le Hochet","country":"MU","coord":{"lon":57.521111,"lat":-20.135}},{"_id":934153,"name":"Port Louis District","country":"MU","coord":{"lon":57.525002,"lat":-20.16667}},{"_id":1106819,"name":"Carreau Lalo","country":"MU","coord":{"lon":57.520279,"lat":-20.15361}},{"_id":1106806,"name":"Vallée Pitot","country":"MU","coord":{"lon":57.513062,"lat":-20.164721}},{"_id":934292,"name":"Republic of Mauritius","country":"MU","coord":{"lon":57.583328,"lat":-20.299999}},{"_id":934268,"name":"Mon Loisir","country":"MU","coord":{"lon":57.619171,"lat":-20.03278}},{"_id":934154,"name":"Port Louis","country":"MU","coord":{"lon":57.49889,"lat":-20.16194}},{"_id":934166,"name":"Plaines Wilhems District","country":"MU","coord":{"lon":57.48333,"lat":-20.299999}},{"_id":934570,"name":"Curepipe","country":"MU","coord":{"lon":57.520279,"lat":-20.31472}},{"_id":934212,"name":"Pamplemousses District","country":"MU","coord":{"lon":57.559719,"lat":-20.095831}},{"_id":933959,"name":"Triolet","country":"MU","coord":{"lon":57.54528,"lat":-20.05472}},{"_id":934765,"name":"Beau Bassin","country":"MU","coord":{"lon":57.458328,"lat":-20.21944}},{"_id":933945,"name":"Vacoas","country":"MU","coord":{"lon":57.478329,"lat":-20.298059}},{"_id":1106788,"name":"Dubreuil","country":"MU","coord":{"lon":57.595001,"lat":-20.297501}},{"_id":934718,"name":"Black River District","country":"MU","coord":{"lon":57.416672,"lat":-20.33333}},{"_id":934778,"name":"Bambous","country":"MU","coord":{"lon":57.406109,"lat":-20.25667}},{"_id":934090,"name":"Rivière du Rempart District","country":"MU","coord":{"lon":57.64167,"lat":-20.058331}},{"_id":1106771,"name":"Mapou","country":"MU","coord":{"lon":57.601391,"lat":-20.07583}},{"_id":934133,"name":"Quartier Militaire","country":"MU","coord":{"lon":57.589169,"lat":-20.243891}},{"_id":934032,"name":"Saint Pierre","country":"MU","coord":{"lon":57.520828,"lat":-20.217501}},{"_id":1106763,"name":"Gros Cailloux","country":"MU","coord":{"lon":57.43,"lat":-20.20722}},{"_id":1106782,"name":"Espérance","country":"MU","coord":{"lon":57.587219,"lat":-20.225}},{"_id":934195,"name":"Petite Riviere","country":"MU","coord":{"lon":57.445278,"lat":-20.18944}},{"_id":934466,"name":"Grand Port District","country":"MU","coord":{"lon":57.633331,"lat":-20.41667}},{"_id":934240,"name":"New Grove","country":"MU","coord":{"lon":57.613609,"lat":-20.408609}},{"_id":934072,"name":"Rose Belle","country":"MU","coord":{"lon":57.596668,"lat":-20.40028}},{"_id":1547449,"name":"Rodrigues","country":"MU","coord":{"lon":63.416672,"lat":-19.700001}},{"_id":1545752,"name":"Port Mathurin","country":"MU","coord":{"lon":63.416672,"lat":-19.683331}},{"_id":934262,"name":"Montagne Blanche","country":"MU","coord":{"lon":57.654442,"lat":-20.28278}},{"_id":934522,"name":"Flacq District","country":"MU","coord":{"lon":57.716671,"lat":-20.23333}},{"_id":934631,"name":"Centre de Flacq","country":"MU","coord":{"lon":57.714439,"lat":-20.18972}},{"_id":934693,"name":"Bon Accueil","country":"MU","coord":{"lon":57.656391,"lat":-20.17083}},{"_id":934739,"name":"Belle Vue Maurel","country":"MU","coord":{"lon":57.663609,"lat":-20.120279}},{"_id":934089,"name":"Grande Riviere Noire","country":"MU","coord":{"lon":57.366112,"lat":-20.360279}},{"_id":934091,"name":"Riviere du Rempart","country":"MU","coord":{"lon":57.684719,"lat":-20.10306}},{"_id":934017,"name":"Savanne District","country":"MU","coord":{"lon":57.5,"lat":-20.466669}},{"_id":934614,"name":"Chemin Grenier","country":"MU","coord":{"lon":57.465561,"lat":-20.487221}},{"_id":933995,"name":"Souillac","country":"MU","coord":{"lon":57.51667,"lat":-20.51667}},{"_id":934479,"name":"Grand Gaube","country":"MU","coord":{"lon":57.660831,"lat":-20.00639}},{"_id":934750,"name":"Bel Air","country":"MU","coord":{"lon":57.745281,"lat":-20.254169}},{"_id":934513,"name":"Fond du Sac","country":"MU","coord":{"lon":57.578609,"lat":-20.04306}},{"_id":934085,"name":"Roches Noire","country":"MU","coord":{"lon":57.712219,"lat":-20.111111}},{"_id":1106638,"name":"Mare La Chaux","country":"MU","coord":{"lon":57.749439,"lat":-20.198059}},{"_id":934303,"name":"Mare Tabac","country":"MU","coord":{"lon":57.588612,"lat":-20.435829}},{"_id":934740,"name":"Belle Rose","country":"MU","coord":{"lon":57.726391,"lat":-20.261669}},{"_id":1106642,"name":"Belle Mare","country":"MU","coord":{"lon":57.76833,"lat":-20.195}},{"_id":933953,"name":"Trou aux Biches","country":"MU","coord":{"lon":57.546108,"lat":-20.045}},{"_id":1106721,"name":"La Flora","country":"MU","coord":{"lon":57.553612,"lat":-20.41028}},{"_id":933970,"name":"The Vale","country":"MU","coord":{"lon":57.58778,"lat":-20.02833}},{"_id":1106815,"name":"Vallée des Prêtres","country":"MU","coord":{"lon":57.53056,"lat":-20.166941}},{"_id":934127,"name":"Quatre Soeurs","country":"MU","coord":{"lon":57.770561,"lat":-20.29917}},{"_id":933951,"name":"Trou d’Eau Douce","country":"MU","coord":{"lon":57.7775,"lat":-20.237221}},{"_id":1106693,"name":"Union Park","country":"MU","coord":{"lon":57.573608,"lat":-20.386391}},{"_id":1106625,"name":"D’Epinay","country":"MU","coord":{"lon":57.589169,"lat":-20.12694}},{"_id":934092,"name":"Rivière du Poste","country":"MU","coord":{"lon":57.56694,"lat":-20.42417}},{"_id":934076,"name":"Roche Terre","country":"MU","coord":{"lon":57.644718,"lat":-20.01861}},{"_id":934052,"name":"Sainte Croix","country":"MU","coord":{"lon":57.521389,"lat":-20.145}},{"_id":934343,"name":"L’Escalier","country":"MU","coord":{"lon":57.612221,"lat":-20.469999}},{"_id":934818,"name":"Abercrombie","country":"MU","coord":{"lon":57.516109,"lat":-20.14806}},{"_id":1106807,"name":"Plaine Verte","country":"MU","coord":{"lon":57.507778,"lat":-20.15361}},{"_id":934309,"name":"Mare d’Albert","country":"MU","coord":{"lon":57.62278,"lat":-20.41861}},{"_id":934159,"name":"Pont Blanc","country":"MU","coord":{"lon":57.704441,"lat":-20.16667}},{"_id":934442,"name":"Henrietta","country":"MU","coord":{"lon":57.466389,"lat":-20.33556}},{"_id":1106589,"name":"Cluny","country":"MU","coord":{"lon":57.603889,"lat":-20.36694}},{"_id":934749,"name":"Grand Bel Air","country":"MU","coord":{"lon":57.673611,"lat":-20.406389}},{"_id":1106585,"name":"Baie du Cap","country":"MU","coord":{"lon":57.37056,"lat":-20.488331}},{"_id":1106803,"name":"Bain des Dames","country":"MU","coord":{"lon":57.475559,"lat":-20.15917}},{"_id":934734,"name":"Bell Village","country":"MU","coord":{"lon":57.479439,"lat":-20.1675}},{"_id":934705,"name":"Bois des Amourettes","country":"MU","coord":{"lon":57.73111,"lat":-20.36306}},{"_id":1547511,"name":"Plaine Corail","country":"MU","coord":{"lon":63.35833,"lat":-19.758329}},{"_id":934753,"name":"Beau Vallon","country":"MU","coord":{"lon":57.695278,"lat":-20.41889}},{"_id":934322,"name":"Mahebourg","country":"MU","coord":{"lon":57.700001,"lat":-20.40806}},{"_id":934488,"name":"Goodlands","country":"MU","coord":{"lon":57.643059,"lat":-20.035}},{"_id":933933,"name":"Verdun","country":"MU","coord":{"lon":57.543892,"lat":-20.228331}},{"_id":933974,"name":"Terre Rouge","country":"MU","coord":{"lon":57.524441,"lat":-20.12611}},{"_id":933982,"name":"Tamarin","country":"MU","coord":{"lon":57.37056,"lat":-20.32556}},{"_id":933988,"name":"Surinam","country":"MU","coord":{"lon":57.50528,"lat":-20.50972}},{"_id":934013,"name":"Sebastopol","country":"MU","coord":{"lon":57.6875,"lat":-20.288891}},{"_id":934043,"name":"Saint Julien","country":"MU","coord":{"lon":57.636391,"lat":-20.226391}},{"_id":934047,"name":"Saint Hubert","country":"MU","coord":{"lon":57.638329,"lat":-20.36417}},{"_id":934056,"name":"Saint Aubin","country":"MU","coord":{"lon":57.541389,"lat":-20.491671}},{"_id":934058,"name":"Morcellemont Saint Andre","country":"MU","coord":{"lon":57.55806,"lat":-20.073059}},{"_id":934095,"name":"Riviere des Anguilles","country":"MU","coord":{"lon":57.550831,"lat":-20.485279}},{"_id":934126,"name":"Queen Victoria","country":"MU","coord":{"lon":57.7075,"lat":-20.219999}},{"_id":934138,"name":"Providence","country":"MU","coord":{"lon":57.612221,"lat":-20.24472}},{"_id":934149,"name":"Poste de Flacq","country":"MU","coord":{"lon":57.73056,"lat":-20.163059}},{"_id":934169,"name":"Plaine Magnien","country":"MU","coord":{"lon":57.653061,"lat":-20.42861}},{"_id":934170,"name":"Plaine des Papayes","country":"MU","coord":{"lon":57.572498,"lat":-20.065001}},{"_id":934184,"name":"Petit Raffray","country":"MU","coord":{"lon":57.611938,"lat":-20.01333}},{"_id":934198,"name":"Petite Case Noyale","country":"MU","coord":{"lon":57.365002,"lat":-20.393061}},{"_id":934213,"name":"Pamplemousses","country":"MU","coord":{"lon":57.570278,"lat":-20.103889}},{"_id":934219,"name":"Pailles","country":"MU","coord":{"lon":57.488258,"lat":-20.192711}},{"_id":934225,"name":"Olivia","country":"MU","coord":{"lon":57.725559,"lat":-20.297501}},{"_id":934229,"name":"Nouvelle France","country":"MU","coord":{"lon":57.561111,"lat":-20.37056}},{"_id":934232,"name":"Notre Dame","country":"MU","coord":{"lon":57.553059,"lat":-20.14056}},{"_id":934255,"name":"Piton","country":"MU","coord":{"lon":57.63028,"lat":-20.090281}},{"_id":934282,"name":"Midlands","country":"MU","coord":{"lon":57.558331,"lat":-20.3325}},{"_id":934288,"name":"Melrose","country":"MU","coord":{"lon":57.631939,"lat":-20.26972}},{"_id":934390,"name":"Lalmatie","country":"MU","coord":{"lon":57.66111,"lat":-20.18972}},{"_id":934400,"name":"La Dagotiere","country":"MU","coord":{"lon":57.554169,"lat":-20.24444}},{"_id":934459,"name":"Grand Sable","country":"MU","coord":{"lon":57.764439,"lat":-20.314171}},{"_id":934475,"name":"Grande Riviere Sud Est","country":"MU","coord":{"lon":57.775829,"lat":-20.28611}},{"_id":934482,"name":"Grand Baie","country":"MU","coord":{"lon":57.580151,"lat":-20.01816}},{"_id":934485,"name":"Grand Bois","country":"MU","coord":{"lon":57.54417,"lat":-20.41889}},{"_id":934517,"name":"Flic en Flac","country":"MU","coord":{"lon":57.36306,"lat":-20.27417}},{"_id":934533,"name":"Esperance Trebuchet","country":"MU","coord":{"lon":57.641941,"lat":-20.069719}},{"_id":934573,"name":"Creve Coeur","country":"MU","coord":{"lon":57.55722,"lat":-20.191111}},{"_id":934599,"name":"Clemencia","country":"MU","coord":{"lon":57.706108,"lat":-20.263889}},{"_id":934624,"name":"Chamouny","country":"MU","coord":{"lon":57.46611,"lat":-20.48222}},{"_id":934644,"name":"Cascavelle","country":"MU","coord":{"lon":57.407219,"lat":-20.28694}},{"_id":934649,"name":"Cap Malheureux","country":"MU","coord":{"lon":57.61417,"lat":-19.984171}},{"_id":934656,"name":"Camp Thorel","country":"MU","coord":{"lon":57.616112,"lat":-20.21472}},{"_id":934660,"name":"Camp Diable","country":"MU","coord":{"lon":57.578892,"lat":-20.46278}},{"_id":934661,"name":"Camp de Masque","country":"MU","coord":{"lon":57.66333,"lat":-20.23694}},{"_id":934677,"name":"Brisee Verdiere","country":"MU","coord":{"lon":57.646671,"lat":-20.163891}},{"_id":934812,"name":"Albion","country":"MU","coord":{"lon":57.400829,"lat":-20.21167}},{"_id":1106584,"name":"Laventure","country":"MU","coord":{"lon":57.67667,"lat":-20.14583}},{"_id":1106596,"name":"Cottage","country":"MU","coord":{"lon":57.629169,"lat":-20.059719}},{"_id":1106614,"name":"Grande Pointe aux Piments","country":"MU","coord":{"lon":57.513062,"lat":-20.06278}},{"_id":1106621,"name":"Congomah","country":"MU","coord":{"lon":57.590832,"lat":-20.14889}},{"_id":1106630,"name":"Amaury","country":"MU","coord":{"lon":57.659168,"lat":-20.130831}},{"_id":1106631,"name":"Plaines des Roches","country":"MU","coord":{"lon":57.69083,"lat":-20.11167}},{"_id":1106643,"name":"Quatre Cocos","country":"MU","coord":{"lon":57.762501,"lat":-20.207781}},{"_id":1106645,"name":"Camp Ithier","country":"MU","coord":{"lon":57.74556,"lat":-20.21583}},{"_id":1106660,"name":"Ecroignard","country":"MU","coord":{"lon":57.736111,"lat":-20.22611}},{"_id":1106677,"name":"Bambous Virieux","country":"MU","coord":{"lon":57.7575,"lat":-20.342779}},{"_id":1106748,"name":"Ebene","country":"MU","coord":{"lon":57.491631,"lat":-20.24494}},{"_id":1106811,"name":"Calebasses","country":"MU","coord":{"lon":57.55389,"lat":-20.11167}},{"_id":1106813,"name":"Arsenal","country":"MU","coord":{"lon":57.535278,"lat":-20.10556}}]}
