{"countryCityList":[{"_id":929742,"coord":{"lat":-14.1,"lon":34.200001},"country":"MW","name":"Guma"},{"_id":929975,"coord":{"lat":-13.60098,"lon":33.82378},"country":"MW","name":"Dowa District"},{"_id":926523,"coord":{"lat":-13.57718,"lon":33.464088},"country":"MW","name":"Mjudzi"},{"_id":924716,"coord":{"lat":-13.51094,"lon":33.46146},"country":"MW","name":"Nkhongue"},{"_id":924703,"coord":{"lat":-12.80417,"lon":34.082981},"country":"MW","name":"Nkhotakota District"},{"_id":930813,"coord":{"lat":-12.54451,"lon":34.17828},"country":"MW","name":"Chinemba"},{"_id":1105840,"coord":{"lat":-15.04839,"lon":35.059101},"country":"MW","name":"Balaka District"},{"_id":931865,"coord":{"lat":-14.97928,"lon":34.95575},"country":"MW","name":"Balaka"},{"_id":931597,"coord":{"lat":-13.5,"lon":34},"country":"MW","name":"Central Region"},{"_id":930023,"coord":{"lat":-14.26273,"lon":34.185589},"country":"MW","name":"Dedza District"},{"_id":924682,"coord":{"lat":-14.16667,"lon":34.166672},"country":"MW","name":"Nkokola"},{"_id":924100,"coord":{"lat":-10.80292,"lon":33.805241},"country":"MW","name":"Rumphi District"},{"_id":924102,"coord":{"lat":-11.01863,"lon":33.85746},"country":"MW","name":"Rumphi"},{"_id":930025,"coord":{"lat":-14.3779,"lon":34.333221},"country":"MW","name":"Dedza"},{"_id":927384,"coord":{"lat":-13.5,"lon":34},"country":"MW","name":"Republic of Malawi"},{"_id":924591,"coord":{"lat":-11,"lon":34},"country":"MW","name":"Northern Region"},{"_id":925496,"coord":{"lat":-11.85428,"lon":33.60778},"country":"MW","name":"Mzimba District"},{"_id":925812,"coord":{"lat":-11.53875,"lon":33.363049},"country":"MW","name":"Mugumbani Chipeta"},{"_id":927964,"coord":{"lat":-14.01962,"lon":33.684071},"country":"MW","name":"Lilongwe District"},{"_id":928434,"coord":{"lat":-11.45916,"lon":34.009548},"country":"MW","name":"Katoto"},{"_id":923817,"coord":{"lat":-15.5,"lon":35},"country":"MW","name":"Southern Region"},{"_id":931754,"coord":{"lat":-15.64732,"lon":34.93956},"country":"MW","name":"Blantyre District"},{"_id":931755,"coord":{"lat":-15.78499,"lon":35.008541},"country":"MW","name":"Blantyre"},{"_id":925074,"coord":{"lat":-13.98333,"lon":33.783329},"country":"MW","name":"Nchesi"},{"_id":923292,"coord":{"lat":-15.43007,"lon":35.418289},"country":"MW","name":"Zomba District"},{"_id":923295,"coord":{"lat":-15.38596,"lon":35.318802},"country":"MW","name":"Zomba"},{"_id":928531,"coord":{"lat":-13,"lon":33.416672},"country":"MW","name":"Kasungu District"},{"_id":928534,"coord":{"lat":-13.03333,"lon":33.48333},"country":"MW","name":"Kasungu"},{"_id":930283,"coord":{"lat":-16.105829,"lon":35.1506},"country":"MW","name":"Thyolo District"},{"_id":923652,"coord":{"lat":-16.067751,"lon":35.140461},"country":"MW","name":"Thyolo"},{"_id":924053,"coord":{"lat":-13.71959,"lon":34.40184},"country":"MW","name":"Salima District"},{"_id":926623,"coord":{"lat":-13.75277,"lon":34.587078},"country":"MW","name":"Mikute"},{"_id":7839145,"coord":{"lat":-14.08359,"lon":34.9282},"country":"MW","name":"Songwe"},{"_id":927245,"coord":{"lat":-14.39296,"lon":35.346581},"country":"MW","name":"Mangochi District"},{"_id":927246,"coord":{"lat":-14.47815,"lon":35.264481},"country":"MW","name":"Mangochi"},{"_id":929083,"coord":{"lat":-13.78333,"lon":33.783329},"country":"MW","name":"Kamlembo"},{"_id":928657,"coord":{"lat":-10.11153,"lon":33.881512},"country":"MW","name":"Karonga District"},{"_id":235715,"coord":{"lat":-9.93333,"lon":33.933331},"country":"MW","name":"Karonga"},{"_id":931039,"coord":{"lat":-15.67403,"lon":34.95232},"country":"MW","name":"Chileka"},{"_id":924055,"coord":{"lat":-13.7804,"lon":34.458698},"country":"MW","name":"Salima"},{"_id":924567,"coord":{"lat":-16.75,"lon":35.166672},"country":"MW","name":"Nsanje District"},{"_id":924572,"coord":{"lat":-16.91995,"lon":35.26199},"country":"MW","name":"Nsanje"},{"_id":924705,"coord":{"lat":-12.92744,"lon":34.296139},"country":"MW","name":"Nkhotakota"},{"_id":925498,"coord":{"lat":-11.9,"lon":33.599998},"country":"MW","name":"Mzimba"},{"_id":925788,"coord":{"lat":-15.9344,"lon":35.499901},"country":"MW","name":"Mulanje District"},{"_id":925789,"coord":{"lat":-16.03163,"lon":35.5},"country":"MW","name":"Mulanje"},{"_id":926745,"coord":{"lat":-13.7623,"lon":33.079979},"country":"MW","name":"Mchinji District"},{"_id":926747,"coord":{"lat":-13.79841,"lon":32.880192},"country":"MW","name":"Mchinji"},{"_id":927834,"coord":{"lat":-15.05064,"lon":35.203529},"country":"MW","name":"Liwonde"},{"_id":927967,"coord":{"lat":-13.96692,"lon":33.787251},"country":"MW","name":"Lilongwe"},{"_id":235751,"coord":{"lat":-9.70237,"lon":33.269691},"country":"MW","name":"Chitipa"},{"_id":924206,"coord":{"lat":-15.80635,"lon":35.650669},"country":"MW","name":"Phalombe"},{"_id":924491,"coord":{"lat":-13.52775,"lon":33.914902},"country":"MW","name":"Ntchisi"},{"_id":924492,"coord":{"lat":-14.82027,"lon":34.63586},"country":"MW","name":"Ntcheu"},{"_id":924732,"coord":{"lat":-11.60659,"lon":34.29073},"country":"MW","name":"Nkhata Bay"},{"_id":924963,"coord":{"lat":-15.39805,"lon":34.653431},"country":"MW","name":"Neno"},{"_id":925475,"coord":{"lat":-11.46556,"lon":34.02071},"country":"MW","name":"Mzuzu"},{"_id":925596,"coord":{"lat":-15.60262,"lon":34.524792},"country":"MW","name":"Mwanza"},{"_id":926087,"coord":{"lat":-13.53194,"lon":33.740082},"country":"MW","name":"Mponela"},{"_id":926308,"coord":{"lat":-14.0728,"lon":34.920052},"country":"MW","name":"Monkey Bay"},{"_id":927643,"coord":{"lat":-15.16849,"lon":35.300018},"country":"MW","name":"Machinga"},{"_id":927792,"coord":{"lat":-16.006929,"lon":35.309479},"country":"MW","name":"Luchenza"},{"_id":927856,"coord":{"lat":-10.60602,"lon":34.106281},"country":"MW","name":"Livingstonia"},{"_id":929977,"coord":{"lat":-13.65399,"lon":33.937538},"country":"MW","name":"Dowa"},{"_id":930580,"coord":{"lat":-15.67461,"lon":35.140709},"country":"MW","name":"Chiradzulu"},{"_id":930582,"coord":{"lat":-12.06618,"lon":34.740921},"country":"MW","name":"Chipyela"},{"_id":930629,"coord":{"lat":-13.99328,"lon":34.515659},"country":"MW","name":"Chipoka"},{"_id":931070,"coord":{"lat":-16.03352,"lon":34.800911},"cou