{"countryCode":"MW","countryName":"Malawi","countryFilePath":"MW.json","countryCityList":[{"_id":929742,"name":"Guma","country":"MW","coord":{"lon":34.200001,"lat":-14.1}},{"_id":929975,"name":"Dowa District","country":"MW","coord":{"lon":33.82378,"lat":-13.60098}},{"_id":926523,"name":"Mjudzi","country":"MW","coord":{"lon":33.464088,"lat":-13.57718}},{"_id":924716,"name":"Nkhongue","country":"MW","coord":{"lon":33.46146,"lat":-13.51094}},{"_id":924703,"name":"Nkhotakota District","country":"MW","coord":{"lon":34.082981,"lat":-12.80417}},{"_id":930813,"name":"Chinemba","country":"MW","coord":{"lon":34.17828,"lat":-12.54451}},{"_id":1105840,"name":"Balaka District","country":"MW","coord":{"lon":35.059101,"lat":-15.04839}},{"_id":931865,"name":"Balaka","country":"MW","coord":{"lon":34.95575,"lat":-14.97928}},{"_id":931597,"name":"Central Region","country":"MW","coord":{"lon":34.0,"lat":-13.5}},{"_id":930023,"name":"Dedza District","country":"MW","coord":{"lon":34.185589,"lat":-14.26273}},{"_id":924682,"name":"Nkokola","country":"MW","coord":{"lon":34.166672,"lat":-14.16667}},{"_id":924100,"name":"Rumphi District","country":"MW","coord":{"lon":33.805241,"lat":-10.80292}},{"_id":924102,"name":"Rumphi","country":"MW","coord":{"lon":33.85746,"lat":-11.01863}},{"_id":930025,"name":"Dedza","country":"MW","coord":{"lon":34.333221,"lat":-14.3779}},{"_id":927384,"name":"Republic of Malawi","country":"MW","coord":{"lon":34.0,"lat":-13.5}},{"_id":924591,"name":"Northern Region","country":"MW","coord":{"lon":34.0,"lat":-11.0}},{"_id":925496,"name":"Mzimba District","country":"MW","coord":{"lon":33.60778,"lat":-11.85428}},{"_id":925812,"name":"Mugumbani Chipeta","country":"MW","coord":{"lon":33.363049,"lat":-11.53875}},{"_id":927964,"name":"Lilongwe District","country":"MW","coord":{"lon":33.684071,"lat":-14.01962}},{"_id":928434,"name":"Katoto","country":"MW","coord":{"lon":34.009548,"lat":-11.45916}},{"_id":923817,"name":"Southern Region","country":"MW","coord":{"lon":35.0,"lat":-15.5}},{"_id":931754,"name":"Blantyre District","country":"MW","coord":{"lon":34.93956,"lat":-15.64732}},{"_id":931755,"name":"Blantyre","country":"MW","coord":{"lon":35.008541,"lat":-15.78499}},{"_id":925074,"name":"Nchesi","country":"MW","coord":{"lon":33.783329,"lat":-13.98333}},{"_id":923292,"name":"Zomba District","country":"MW","coord":{"lon":35.418289,"lat":-15.43007}},{"_id":923295,"name":"Zomba","country":"MW","coord":{"lon":35.318802,"lat":-15.38596}},{"_id":928531,"name":"Kasungu District","country":"MW","coord":{"lon":33.416672,"lat":-13.0}},{"_id":928534,"name":"Kasungu","country":"MW","coord":{"lon":33.48333,"lat":-13.03333}},{"_id":930283,"name":"Thyolo District","country":"MW","coord":{"lon":35.1506,"lat":-16.105829}},{"_id":923652,"name":"Thyolo","country":"MW","coord":{"lon":35.140461,"lat":-16.067751}},{"_id":924053,"name":"Salima District","country":"MW","coord":{"lon":34.40184,"lat":-13.71959}},{"_id":926623,"name":"Mikute","country":"MW","coord":{"lon":34.587078,"lat":-13.75277}},{"_id":7839145,"name":"Songwe","country":"MW","coord":{"lon":34.9282,"lat":-14.08359}},{"_id":927245,"name":"Mangochi District","country":"MW","coord":{"lon":35.346581,"lat":-14.39296}},{"_id":927246,"name":"Mangochi","country":"MW","coord":{"lon":35.264481,"lat":-14.47815}},{"_id":929083,"name":"Kamlembo","country":"MW","coord":{"lon":33.783329,"lat":-13.78333}},{"_id":928657,"name":"Karonga District","country":"MW","coord":{"lon":33.881512,"lat":-10.11153}},{"_id":235715,"name":"Karonga","country":"MW","coord":{"lon":33.933331,"lat":-9.93333}},{"_id":931039,"name":"Chileka","country":"MW","coord":{"lon":34.95232,"lat":-15.67403}},{"_id":924055,"name":"Salima","country":"MW","coord":{"lon":34.458698,"lat":-13.7804}},{"_id":924567,"name":"Nsanje District","country":"MW","coord":{"lon":35.166672,"lat":-16.75}},{"_id":924572,"name":"Nsanje","country":"MW","coord":{"lon":35.26199,"lat":-16.91995}},{"_id":924705,"name":"Nkhotakota","country":"MW","coord":{"lon":34.296139,"lat":-12.92744}},{"_id":925498,"name":"Mzimba","country":"MW","coord":{"lon":33.599998,"lat":-11.9}},{"_id":925788,"name":"Mulanje District","country":"MW","coord":{"lon":35.499901,"lat":-15.9344}},{"_id":925789,"name":"Mulanje","country":"MW","coord":{"lon":35.5,"lat":-16.03163}},{"_id":926745,"name":"Mchinji District","country":"MW","coord":{"lon":33.079979,"lat":-13.7623}},{"_id":926747,"name":"Mchinji","country":"MW","coord":{"lon":32.880192,"lat":-13.79841}},{"_id":927834,"name":"Liwonde","country":"MW","coord":{"lon":35.203529,"lat":-15.05064}},{"_id":927967,"name":"Lilongwe","country":"MW","coord":{"lon":33.787251,"lat":-13.96692}},{"_id":235751,"name":"Chitipa","country":"MW","coord":{"lon":33.269691,"lat":-9.70237}},{"_id":924206,"name":"Phalombe","country":"MW","coord":{"lon":35.650669,"lat":-15.80635}},{"_id":924491,"name":"Ntchisi","country":"MW","coord":{"lon":33.914902,"lat":-13.52775}},{"_id":924492,"name":"Ntcheu","country":"MW","coord":{"lon":34.63586,"lat":-14.82027}},{"_id":924732,"name":"Nkhata Bay","country":"MW","coord":{"lon":34.29073,"lat":-11.60659}},{"_id":924963,"name":"Neno","country":"MW","coord":{"lon":34.653431,"lat":-15.39805}},{"_id":925475,"name":"Mzuzu","country":"MW","coord":{"lon":34.02071,"lat":-11.46556}},{"_id":925596,"name":"Mwanza","country":"MW","coord":{"lon":34.524792,"lat":-15.60262}},{"_id":926087,"name":"Mponela","country":"MW","coord":{"lon":33.740082,"lat":-13.53194}},{"_id":926308,"name":"Monkey Bay","country":"MW","coord":{"lon":34.920052,"lat":-14.0728}},{"_id":927643,"name":"Machinga","country":"MW","coord":{"lon":35.300018,"lat":-15.16849}},{"_id":927792,"name":"Luchenza","country":"MW","coord":{"lon":35.309479,"lat":-16.006929}},{"_id":927856,"name":"Livingstonia","country":"MW","coord":{"lon":34.106281,"lat":-10.60602}},{"_id":929977,"name":"Dowa","country":"MW","coord":{"lon":33.937538,"lat":-13.65399}},{"_id":930580,"name":"Chiradzulu","country":"MW","coord":{"lon":35.140709,"lat":-15.67461}},{"_id":930582,"name":"Chipyela","country":"MW","coord":{"lon":34.740921,"lat":-12.06618}},{"_id":930629,"name":"Chipoka","country":"MW","coord":{"lon":34.515659,"lat":-13.99328}},{"_id":931070,"name":"Chikwawa","country":"MW","coord":{"lon":34.800911,"lat":-16.03352}},{"_id":7839184,"name":"Makata","country":"MW","coord":{"lon":35.03046,"lat":-15.7872}}]}
