{"countryCityList":[{"_id":7697719,"coord":{"lat":2.7379,"lon":101.723503},"country":"MY","name":"Ladang Lothian"},{"_id":1732740,"coord":{"lat":1.63,"lon":103.695702},"country":"MY","name":"Kampung Seelong"},{"_id":7612483,"coord":{"lat":4.5704,"lon":101.088799},"country":"MY","name":"Kampung Pasir Penjih"},{"_id":1782807,"coord":{"lat":4.55,"lon":103.433327},"country":"MY","name":"Api Rokok"},{"_id":1770876,"coord":{"lat":3.7708,"lon":103.216599},"country":"MY","name":"Kampung Batu Lapan Tiga Suku"},{"_id":1751525,"coord":{"lat":5.47251,"lon":100.396278},"country":"MY","name":"Pekan Darat"},{"_id":6807148,"coord":{"lat":6.18751,"lon":100.392662},"country":"MY","name":"Kampung Alor Perang"},{"_id":1734949,"coord":{"lat":2.8147,"lon":104.159203},"country":"MY","name":"Kampung Tekek"},{"_id":1762251,"coord":{"lat":4.2969,"lon":118.12175},"country":"MY","name":"Kampong Wakuba"},{"_id":1222396,"coord":{"lat":6.32649,"lon":99.843201},"country":"MY","name":"Kuah"},{"_id":1732811,"coord":{"lat":2.0251,"lon":103.332802},"country":"MY","name":"Kluang"},{"_id":1733449,"coord":{"lat":5.8231,"lon":116.0466},"country":"MY","name":"Kinarut"},{"_id":1734815,"coord":{"lat":2.5228,"lon":101.795898},"country":"MY","name":"Port Dickson"},{"_id":1735148,"coord":{"lat":3.3646,"lon":101.604103},"country":"MY","name":"Serendah"},{"_id":1735227,"coord":{"lat":3.8077,"lon":103.325996},"country":"MY","name":"Kuantan"},{"_id":1735268,"coord":{"lat":4.46916,"lon":101.041069},"country":"MY","name":"Batu Gajah"},{"_id":1735799,"coord":{"lat":1.24722,"lon":111.452782},"country":"MY","name":"Simanggang"},{"_id":1737185,"coord":{"lat":2.01667,"lon":112.933327},"country":"MY","name":"Kapit"},{"_id":1737714,"coord":{"lat":4.75,"lon":115},"country":"MY","name":"Limbang"},{"_id":1741562,"coord":{"lat":2.6579,"lon":101.562897},"country":"MY","name":"Tanjung Sepat"},{"_id":7302815,"coord":{"lat":5.28883,"lon":115.269241},"country":"MY","name":"Bandar Labuan"},{"_id":1733045,"coord":{"lat":2.5,"lon":112.5},"country":"MY","name":"Malaysia"},{"_id":1733049,"coord":{"lat":2,"lon":103.5},"country":"MY","name":"Johor"},{"_id":7614348,"coord":{"lat":2.0277,"lon":103.235001},"country":"MY","name":"Kemajuan Tanah Batu Enam Puluh Tujuh"},{"_id":1760605,"coord":{"lat":3.21667,"lon":101.633331},"country":"MY","name":"Kepong"},{"_id":1733044,"coord":{"lat":5.33333,"lon":102},"country":"MY","name":"Kelantan"},{"_id":1765067,"coord":{"lat":6.016,"lon":101.974503},"country":"MY","name":"Kampung Rantau Panjang"},{"_id":1762985,"coord":{"lat":6.16667,"lon":102.300003},"country":"MY","name":"Kampong Telok Reba"},{"_id":1735155,"coord":{"lat":3.15,"lon":101.533333},"country":"MY","name":"Kampung Subang"},{"_id":1763070,"coord":{"lat":4.2482,"lon":100.554497},"country":"MY","name":"Kampung Teluk Dalam"},{"_id":1766699,"coord":{"lat":5.29102,"lon":100.278976},"country":"MY","name":"Kampung Naran"},{"_id":1733036,"coord":{"lat":5,"lon":103},"country":"MY","name":"Terengganu"},{"_id":1763164,"coord":{"lat":5.378,"lon":103.105103},"country":"MY","name":"Kampung Telaga Batin"},{"_id":1765223,"coord":{"lat":2.2623,"lon":102.254402},"country":"MY","name":"Kampung Pulau Samak"},{"_id":6804725,"coord":{"lat":6.32769,"lon":99.731033},"country":"MY","name":"Chabang Wahid"},{"_id":1732826,"coord":{"lat":2.4312,"lon":103.8405},"country":"MY","name":"Mersing"},{"_id":1733438,"coord":{"lat":5.90702,"lon":116.101463},"country":"MY","name":"Donggongon"},{"_id":1735156,"coord":{"lat":3.08333,"lon":101.583328},"country":"MY","name":"Petaling"},{"_id":1733046,"coord":{"lat":3.14309,"lon":101.686531},"country":"MY","name":"Kuala Lumpur"},{"_id":1735195,"coord":{"lat":3.7698,"lon":100.9879},"country":"MY","name":"Sabak Bernam"},{"_id":1735199,"coord":{"lat":3.6746,"lon":100.986702},"country":"MY","name":"Sungai Besar"},{"_id":1735274,"coord":{"lat":4.3,"lon":101.150002},"country":"MY","name":"Kampar"},{"_id":6697380,"coord":{"lat":2.93527,"lon":101.691116},"country":"MY","name":"Putrajaya"},{"_id":1733043,"coord":{"lat":2.75,"lon":102.166672},"country":"MY","name":"Negeri Sembilan"},{"_id":1904214,"coord":{"lat":3.07361,"lon":101.42083},"country":"MY","name":"Pelabuhan Kelang Utara"},{"_id":7619763,"coord":{"lat":1.5415,"lon":103.751297},"country":"MY","name":"Kampung Paya Kenangan"},{"_id":1733038,"coord":{"lat":2.5,"lon":113.5},"country":"MY","name":"Sarawak"},{"_id":1735634,"coord":{"lat":1.55,"lon":110.333328},"country":"MY","name":"Kuching"},{"_id":1735162,"coord":{"lat":3.18333,"lon":101.699997},"country":"MY","name":"Setapak"},{"_id":1733037,"coord":{"lat":3.16667,"lon":101.5},"country":"MY","name":"Selangor"},{"_id":1732903,"coord":{"lat":3.08507,"lon":101.532806},"country":"MY","name":"Shah Alam"},{"_id":1751906,"coord":{"lat":3.35,"lon":101.25},"country":"MY","name":"Pasir Penambang"},{"_id":1733035,"coord":{"lat":2.25,"lon":102.25},"country":"MY","name":"Melaka"},{"_id":7797983,"coord":{"lat":2.1969,"lon":102.246696},"country":"MY","name":"Kampung Dua"},{"_id":1735902,"coord":{"lat":2.3,"lon":111.816673},"country":"MY","name":"Sibu"},{"_id":1733041,"coord":{"lat":5,"lon":101},"country":"MY","name":"Perak"},{"_id":1734634,"coord":{"lat":4.5841,"lon":101.082901},"country":"MY","name":"Ipoh"},{"_id":7796608,"coord":{"lat":2.719,"lon":101.933296},"country":"MY","name":"Taman Labu Jaya"},{"_id":1738050,"coord":{"lat":4.4148,"lon":114.008904},"country":"MY","name":"Miri"},{"_id":1778677,"coord":{"lat":4.38333,"lon":113.966667},"country":"MY","name":"Brighton"},{"_id":1732905,"coord":{"lat":3.03333,"lon":101.449997},"country":"MY","name":"Klang"},{"_id":1734240,"coord":{"lat":5.33333,"lon":115.199997},"country":"MY","name":"Labuan"},{"_id":1733782,"coord":{"lat":5.27667,"lon":115.241669},"country":"MY","name":"Victoria"},{"_id":1733048,"coord":{"lat":6,"lon":100.666672},"country":"MY","name":"Kedah"},{"_id":1736309,"coord":{"lat":6.12104,"lon":100.360138},"country":"MY","name":"Alor Setar"},{"_id":1733040,"coord":{"lat":6.5,"lon":100.25},"country":"MY","name":"Perlis"},{"_id":6819195,"coord":{"lat":6.43082,"lon":100.197571},"country":"MY","name":"Kampung Bakau"},{"_id":1768129,"coord":{"lat":2.5181,"lon":102.166397},"country":"MY","name":"Kampung Kota Lama"},{"_id":7619684,"coord":{"lat":1.4651,"lon":103.752602},"country":"MY","name":"Kampung Kubur"},{"_id":1733042,"coord":{"lat":3.5,"lon":102.75},"country":"MY","name":"Pahang"},{"_id":1735237,"coord":{"lat":3.8,"lon":103.333328},"country":"MY","name":"Telok Baharu"},{"_id":1733039,"coord":{"lat":5.5,"lon":117},"country":"MY","name":"Sabah"},{"_id":1734199,"coord":{"lat":4.2498,"lon":117.8871},"country":"MY","name":"Tawau"},{"_id":1734586,"coord":{"lat":4.85,"lon":100.73333},"country":"MY","name":"Taiping"},{"_id":7855804,"coord":{"lat":2.0327,"lon":102.562302},"country":"MY","name":"Taman Khalidi Baru"},{"_id":1742350,"coord":{"lat":5.0357,"lon":118.313698},"country":"MY","name":"Kampung Tabanac"},{"_id":1737486,"coord":{"lat":3.16667,"lon":113.033333},"country":"MY","name":"Bintulu"},{"_id":1734781,"coord":{"lat":2.81667,"lon":101.5},"country":"MY","name":"Banting"},{"_id":1735453,"coord":{"lat":4.2168,"lon":100.6996},"country":"MY","name":"Sitiawan"},{"_id":1734769,"coord":{"lat":3,"lon":101.400002},"country":"MY","name":"Pelabuhan Klang"},{"_id":1732637,"coord":{"lat":3.586,"lon":102.773003},"country":"MY","name":"Maran"},{"_id":1735071,"coord":{"lat":5.28333,"lon":100.283333},"country":"MY","name":"Permatang Damar Laut"},{"_id":1733047,"coord":{"lat":5.37677,"lon":100.258476},"country":"MY","name":"Pulau Pinang"},{"_id":1749939,"coord":{"lat":5.37052,"lon":100.218269},"country":"MY","name":"Kampung Pokok Manggis"},{"_id":7603928,"coord":{"lat":6.9342,"lon":116.834801},"country":"MY","name":"Kampung Agung Agung"},{"_id":7064165,"coord":{"lat":5.958,"lon":118.062202},"country":"MY","name":"Kampung Pamaguan"},{"_id":1733440,"coord":{"lat":5.9258,"lon":116.060944},"country":"MY","name":"Putatan"},{"_id":1762882,"coord":{"lat":1.23333,"lon":111.466667},"country":"MY","name":"Kampong Tengah"},{"_id":1748183,"coord":{"lat":2.26667,"lon":111.966667},"country":"MY","name":"Rumah Ampeng"},{"_id":1748489,"coord":{"lat":4.33333,"lon":114},"country":"MY","name":"Riam Road Bazaar"},{"_id":1770847,"coord":{"lat":1.46667,"lon":110.349998},"country":"MY","name":"Kampong Batu Perak"},{"_id":1748035,"coord":{"lat":3.11667,"lon":113.01667},"country":"MY","name":"Rumah Dana"},{"_id":6823210,"coord":{"lat":5.38961,"lon":100.23262},"country":"MY","name":"Batu Hitam"},{"_id":1769157,"coord":{"lat":5.95,"lon":102.083328},"country":"MY","name":"Kampong Gual Payong"},{"_id":1732602,"coord":{"lat":3.936,"lon":102.362602},"country":"MY","name":"Jerantut"},{"_id":1732663,"coord":{"lat":3.7899,"lon":101.857002},"country":"MY","name":"Raub"},{"_id":1732687,"coord":{"lat":1.8548,"lon":102.932503},"country":"MY","name":"Batu Pahat"},{"_id":1732698,"coord":{"lat":1.8681,"lon":103.112396},"country":"MY","name":"Parit Raja"},{"_id":1732706,"coord":{"lat":1.51,"lon":103.514099},"country":"MY","name":"Pekan Nenas"},{"_id":1732711,"coord":{"lat":1.4866,"lon":103.389603},"country":"MY","name":"Pontian Kechil"},{"_id":1732721,"coord":{"lat":1.4726,"lon":103.877998},"country":"MY","name":"Kampung Pasir Gudang Baru"},{"_id":1732738,"coord":{"lat":1.7381,"lon":103.899902},"country":"MY","name":"Kota Tinggi"},{"_id":1732741,"coord":{"lat":1.6006,"lon":103.641899},"country":"MY","name":"Taman Senai"},{"_id":1732742,"coord":{"lat":1.6561,"lon":103.603203},"country":"MY","name":"Kulai"},{"_id":1732745,"coord":{"lat":1.53333,"lon":103.666672},"country":"MY","name":"Sekudai"},{"_id":1732752,"coord":{"lat":1.4655,"lon":103.757797},"country":"MY","name":"Johor Bahru"},{"_id":1732814,"coord":{"lat":2.0136,"lon":103.065903},"country":"MY","name":"Yong Peng"},{"_id":1732846,"coord":{"lat":2.5148,"lon":102.815804},"country":"MY","name":"Segamat"},{"_id":1732857,"coord":{"lat":2.2673,"lon":102.545303},"country":"MY","name":"Tangkak"},{"_id":1732869,"coord":{"lat":2.0442,"lon":102.568901},"country":"MY","name":"Muar"},{"_id":1732871,"coord":{"lat":2.0441,"lon":102.652702},"country":"MY","name":"Bakri"},{"_id":1732877,"coord":{"lat":2.385,"lon":103.021004},"country":"MY","name":"Labis"},{"_id":1732891,"coord":{"lat":3.35,"lon":101.25},"country":"MY","name":"Kuala Selangor"},{"_id":1732892,"coord":{"lat":3.38333,"lon":101.416672},"country":"MY","name":"Batang Berjuntai"},{"_id":1732893,"coord":{"lat":3.31667,"lon":101.466667},"country":"MY","name":"Batu Arang"},{"_id":1732945,"coord":{"lat":4.25,"lon":103.416672},"country":"MY","name":"Cukai"},{"_id":1733023,"coord":{"lat":4.1842,"lon":102.046799},"country":"MY","name":"Kuala Lipis"},{"_id":1733353,"coord":{"lat":5.73333,"lon":115.933327},"country":"MY","name":"Papar"},{"_id":1733432,"coord":{"lat":5.9749,"lon":116.072403},"country":"MY","name":"Kota Kinabalu"},{"_id":1733502,"coord":{"lat":5.9538,"lon":116.664101},"country":"MY","name":"Ranau"},{"_id":1733697,"coord":{"lat":4.48178,"lon":118.611183},"country":"MY","name":"Semporna"},{"_id":1733874,"coord":{"lat":5.3473,"lon":115.745499},"country":"MY","name":"Beaufort"},{"_id":1733953,"coord":{"lat":5.0268,"lon":118.327003},"country":"MY","name":"Lahad Datu"},{"_id":1734052,"coord":{"lat":5.8402,"lon":118.117897},"country":"MY","name":"Sandakan"},{"_id":1734098,"coord":{"lat":5.3378,"lon":116.160202},"country":"MY","name":"Keningau"},{"_id":1734313,"coord":{"lat":4.6374,"lon":103.436798},"country":"MY","name":"Paka"},{"_id":1734316,"coord":{"lat":4.5141,"lon":103.448303},"country":"MY","name":"Kertih"},{"_id":1734393,"coord":{"lat":5.36499,"lon":100.561768},"country":"MY","name":"Kulim"},{"_id":1734409,"coord":{"lat":5.0108,"lon":100.541008},"country":"MY","name":"Bagan Serai"},{"_id":1734439,"coord":{"lat":5.72744,"lon":100.508759},"country":"MY","name":"Bedong"},{"_id":1734576,"coord":{"lat":4.95,"lon":100.633331},"country":"MY","name":"Simpang Empat"},{"_id":1734599,"coord":{"lat":4.76667,"lon":100.933327},"country":"MY","name":"Kuala Kangsar"},{"_id":1734651,"coord":{"lat":4.8823,"lon":101.964401},"country":"MY","name":"Gua Musang"},{"_id":1734705,"coord":{"lat":5.3302,"lon":103.1408},"country":"MY","name":"Kuala Terengganu"},{"_id":1734715,"coord":{"lat":5.2056,"lon":103.205902},"country":"MY","name":"Marang"},{"_id":1734738,"coord":{"lat":2.4701,"lon":102.230202},"country":"MY","name":"Tampin"},{"_id":1734745,"coord":{"lat":2.3804,"lon":102.2089},"country":"MY","name":"Alor Gajah"},{"_id":1734753,"coord":{"lat":2.2654,"lon":102.280098},"country":"MY","name":"Kampung Ayer Keroh"},{"_id":1734757,"coord":{"lat":2.269,"lon":102.1427},"country":"MY","name":"Sungai Udang"},{"_id":1734759,"coord":{"lat":2.196,"lon":102.240501},"country":"MY","name":"Melaka"},{"_id":1734793,"coord":{"lat":2.88333,"lon":101.5},"country":"MY","name":"Jenjarum"},{"_id":1734798,"coord":{"lat":2.9516,"lon":101.843002},"country":"MY","name":"Semenyih"},{"_id":1734810,"coord":{"lat":2.7297,"lon":101.938103},"country":"MY","name":"Seremban"},{"_id":1734839,"coord":{"lat":2.8079,"lon":102.4049},"country":"MY","name":"Bahau"},{"_id":1734841,"coord":{"lat":2.7389,"lon":102.248703},"country":"MY","name":"Kuala Pilah"},{"_id":1734971,"coord":{"lat":3.4836,"lon":103.399597},"country":"MY","name":"Pekan"},{"_id":1735018,"coord":{"lat":3.4854,"lon":102.348396},"country":"MY","name":"Mentekab"},{"_id":1735022,"coord":{"lat":3.4506,"lon":102.417603},"country":"MY","name":"Temerluh"},{"_id":1735076,"coord":{"lat":5.3991,"lon":100.363823},"country":"MY","name":"Butterworth"},{"_id":1735077,"coord":{"lat":5.38333,"lon":100.383331},"country":"MY","name":"Perai"},{"_id":1735079,"coord":{"lat":5.36301,"lon":100.466698},"country":"MY","name":"Bukit Mertajam"},{"_id":1735086,"coord":{"lat":5.16586,"lon":100.477928},"country":"MY","name":"Nibong Tebal"},{"_id":1735089,"coord":{"lat":5.12671,"lon":100.493156},"country":"MY","name":"Parit Buntar"},{"_id":1735093,"coord":{"lat":5.48032,"lon":100.498489},"country":"MY","name":"Tasek Glugor"},{"_id":1735106,"coord":{"lat":5.41123,"lon":100.335426},"country":"MY","name":"George Town"},{"_id":1735150,"coord":{"lat":3.3213,"lon":101.576698},"country":"MY","name":"Rawang"},{"_id":1735158,"coord":{"lat":3.10726,"lon":101.606712},"country":"MY","name":"Petaling Jaya"},{"_id":1735161,"coord":{"lat":3.1412,"lon":101.686531},"country":"MY","name":"Kuala Lumpur"},{"_id":1735282,"coord":{"lat":4.16667,"lon":101.199997},"country":"MY","name":"Tapah Road"},{"_id":1735287,"coord":{"lat":4.11667,"lon":101.283333},"country":"MY","name":"Bidur"},{"_id":1735450,"coord":{"lat":4.2323,"lon":100.629799},"country":"MY","name":"Lumut"},{"_id":1735459,"coord":{"lat":4.0259,"lon":101.021301},"country":"MY","name":"Teluk Intan"},{"_id":1735485,"coord":{"lat":5.81717,"lon":100.473808},"country":"MY","name":"Gurun"},{"_id":1735498,"coord":{"lat":5.647,"lon":100.487717},"country":"MY","name":"Sungai Petani"},{"_id":1735506,"coord":{"lat":5.51707,"lon":100.426498},"country":"MY","name":"Kepala Batas"},{"_id":1735553,"coord":{"lat":5.8,"lon":102.150002},"country":"MY","name":"Tanah Merah"},{"_id":1735837,"coord":{"lat":2.11667,"lon":111.51667},"country":"MY","name":"Sarikei"},{"_id":1736278,"coord":{"lat":6.4414,"lon":100.198624},"country":"MY","name":"Kangar"},{"_id":1736302,"coord":{"lat":6.26812,"lon":100.421669},"country":"MY","name":"Jitra"},{"_id":1736305,"coord":{"lat":6.1,"lon":100.300003},"country":"MY","name":"Kuala Kedah"},{"_id":1736372,"coord":{"lat":6.04934,"lon":102.13987},"country":"MY","name":"Pasir Mas"},{"_id":1736376,"coord":{"lat":6.13328,"lon":102.238602},"country":"MY","name":"Kota Bharu"},{"_id":1736458,"coord":{"lat":6.8837,"lon":116.847702},"country":"MY","name":"Kudat"},{"_id":1738294,"coord":{"lat":1.6,"lon":103.816673},"country":"MY","name":"Ulu Tiram"},{"_id":1741550,"coord":{"lat":5.46061,"lon":100.307419},"country":"MY","name":"Tanjung Tokong"},{"_id":1750500,"coord":{"lat":5.46339,"lon":100.381439},"country":"MY","name":"Permatang Kuching"},{"_id":1750582,"coord":{"lat":6.03333,"lon":102.283333},"country":"MY","name":"Peringat"},{"_id":1750974,"coord":{"lat":3.2856,"lon":101.518997},"country":"MY","name":"Ladang Seri Kundang"},{"_id":1752256,"coord":{"lat":4.4557,"lon":100.628799},"country":"MY","name":"Pantai Remis"},{"_id":1759486,"coord":{"lat":3.2594,"lon":101.5541},"country":"MY","name":"Kuang"},{"_id":1761242,"coord":{"lat":2.2186,"lon":102.199501},"country":"MY","name":"Klebang Besar"},{"_id":1763412,"coord":{"lat":3.4242,"lon":101.184898},"country":"MY","name":"Kampung Tanjung Karang"},{"_id":1764160,"coord":{"lat":5.32699,"lon":100.273483},"country":"MY","name":"Kampung Sungai Ara"},{"_id":1764318,"coord":{"lat":1.8278,"lon":103.300003},"country":"MY","name":"Kampung Simpang Renggam"},{"_id":1766249,"coord":{"lat":5.91667,"lon":102.216667},"country":"MY","name":"Kampong Pangkal Kalong"},{"_id":1767021,"coord":{"lat":2.35,"lon":102.116669},"country":"MY","name":"Kampong Masjid Tanah"},{"_id":1768664,"coord":{"lat":6,"lon":102.25},"country":"MY","name":"Kampong Kadok"},{"_id":1769612,"coord":{"lat":3.21667,"lon":101.316673},"country":"MY","name":"Kampong Dungun"},{"_id":1770351,"coord":{"lat":2.2152,"lon":102.285103},"country":"MY","name":"Kampung Bukit Baharu"},{"_id":1771023,"coord":{"lat":3.15,"lon":101.533333},"country":"MY","name":"Kampung Baru Subang"},{"_id":1771287,"coord":{"lat":2.8033,"lon":101.797203},"country":"MY","name":"Kampung Baharu Nilai"},{"_id":1771304,"coord":{"lat":3.03333,"lon":101.75},"country":"MY","name":"Kampong Baharu Balakong"},{"_id":1771485,"coord":{"lat":2.2139,"lon":102.327797},"country":"MY","name":"Kampung Ayer Molek"},{"_id":1778290,"coord":{"lat":2.2594,"lon":102.1838},"country":"MY","name":"Bukit Rambai"},{"_id":1779790,"coord":{"lat":3.51667,"lon":101.900002},"country":"MY","name":"Bentong Town"},{"_id":1780890,"coord":{"lat":2.2487,"lon":102.246002},"country":"MY","name":"Batu Berendam"},{"_id":1996552,"coord":{"lat":2.91667,"lon":101.699997},"country":"MY","name":"Putrajaya"},{"_id":7795482,"coord":{"lat":3.6578,"lon":101.893303},"country":"MY","name":"Kampung Baharu"},{"_id":1732884,"coord":{"lat":2.249,"lon":103.047997},"country":"MY","name":"Chaah"},{"_id":1734802,"coord":{"lat":2.8733,"lon":101.869698},"country":"MY","name":"Beranang"},{"_id":1734879,"coord":{"lat":2.5536,"lon":102.764},"country":"MY","name":"Buloh Kasap"},{"_id":1735133,"coord":{"lat":3.35,"lon":101.816673},"country":"MY","name":"Kampung Bukit Tinggi"},{"_id":1735262,"coord":{"lat":4.475,"lon":101.370399},"country":"MY","name":"Tanah Rata"},{"_id":1735535,"coord":{"lat":5.95701,"lon":102.248169},"country":"MY","name":"Ketereh"},{"_id":1735543,"coord":{"lat":5.87133,"lon":102.231773},"country":"MY","name":"Pulai Chondong"},{"_id":1736292,"coord":{"lat":6.4,"lon":100.133331},"country":"MY","name":"Kuala Perlis"},{"_id":1736356,"coord":{"lat":6.19776,"lon":102.170982},"country":"MY","name":"Tumpat"},{"_id":1736405,"coord":{"lat":5.7336,"lon":102.4897},"country":"MY","name":"Jertih"},{"_id":1736660,"coord":{"lat":6.351,"lon":116.430496},"country":"MY","name":"Kota Belud"},{"_id":1742667,"coord":{"lat":2.65,"lon":101.699997},"country":"MY","name":"Sungai Pelek New Village"},{"_id":1749659,"coord":{"lat":2.455,"lon":102.232903},"country":"MY","name":"Pulau Sebang"},{"_id":1759513,"coord":{"lat":2.3594,"lon":102.035301},"country":"MY","name":"Kuala Sungai Baru"},{"_id":1761293,"coord":{"lat":1.6698,"lon":103.5327},"country":"MY","name":"Kelapa S