{"countryCityList":[{"_id":3703433,"coord":{"lat":9.18333,"lon":-79.25},"country":"PA","name":"Provincia de Panamá"},{"_id":3712451,"coord":{"lat":9.16667,"lon":-79.583328},"country":"PA","name":"Chilibrillo Número Dos"},{"_id":3712429,"coord":{"lat":9.21667,"lon":-79.550003},"country":"PA","name":"Chiquilleo"},{"_id":3704961,"coord":{"lat":7.58333,"lon":-80.333328},"country":"PA","name":"Provincia de Los Santos"},{"_id":3706543,"coord":{"lat":7.48333,"lon":-80.166672},"country":"PA","name":"Las Escobas"},{"_id":3700038,"coord":{"lat":8.93333,"lon":-79.699997},"country":"PA","name":"Vista Alegre"},{"_id":3700164,"coord":{"lat":8.88333,"lon":-79.633331},"country":"PA","name":"Veracruz"},{"_id":3701329,"coord":{"lat":9.03333,"lon":-79.5},"country":"PA","name":"San Miguelito"},{"_id":3702431,"coord":{"lat":8.28333,"lon":-82.866669},"country":"PA","name":"Puerto Armuelles"},{"_id":3703229,"coord":{"lat":8.36667,"lon":-82.433327},"country":"PA","name":"Pedregal"},{"_id":3703647,"coord":{"lat":9.08333,"lon":-79.283333},"country":"PA","name":"Pacora"},{"_id":3703833,"coord":{"lat":8.91667,"lon":-79.716667},"country":"PA","name":"Nuevo Arraijan"},{"_id":3706567,"coord":{"lat":9.08333,"lon":-79.533333},"country":"PA","name":"Las Cumbres"},{"_id":3707899,"coord":{"lat":8.51667,"lon":-82.616669},"country":"PA","name":"La Concepcion"},{"_id":3707961,"coord":{"lat":8.88028,"lon":-79.783333},"country":"PA","name":"La Chorrera"},{"_id":3708066,"coord":{"lat":9.13333,"lon":-79.533333},"country":"PA","name":"La Cabima"},{"_id":3712455,"coord":{"lat":9.15,"lon":-79.616669},"country":"PA","name":"Chilibre"},{"_id":3712505,"coord":{"lat":9.16667,"lon":-79.099998},"country":"PA","name":"Chepo"},{"_id":3712560,"coord":{"lat":9.43333,"lon":-82.51667},"country":"PA","name":"Changuinola"},{"_id":3712884,"coord":{"lat":9.36056,"lon":-79.843613},"country":"PA","name":"Cativa"},{"_id":3714932,"coord":{"lat":9.11667,"lon":-79.550003},"country":"PA","name":"Alcaldediaz"},{"_id":3703430,"coord":{"lat":9,"lon":-80},"country":"PA","name":"Republic of Panama"},{"_id":3712410,"coord":{"lat":8.5,"lon":-82.416672},"country":"PA","name":"Provincia de Chiriquí"},{"_id":3708134,"coord":{"lat":8.3,"lon":-82.566673},"country":"PA","name":"La Barqueta"},{"_id":3703496,"coord":{"lat":8.76667,"lon":-82.466667},"country":"PA","name":"Palmiras Norte"},{"_id":3703443,"coord":{"lat":8.9936,"lon":-79.51973},"country":"PA","name":"Panama"},{"_id":3714166,"coord":{"lat":8.96667,"lon":-79.533333},"country":"PA","name":"Bella Vista"},{"_id":3712073,"coord":{"lat":9.16667,"lon":-80},"country":"PA","name":"Provincia de Colón"},{"_id":3712076,"coord":{"lat":9.35917,"lon":-79.90139},"country":"PA","name":"Colon"},{"_id":3711699,"coord":{"lat":8.98333,"lon":-79.550003},"country":"PA","name":"Curundú"},{"_id":3700157,"coord":{"lat":8.98333,"lon":-79.533333},"country":"PA","name":"Veranillo"},{"_id":3712609,"coord":{"lat":9.08333,"lon":-79.466667},"country":"PA","name":"Cerro Viento"},{"_id":3708111,"coord":{"lat":8.95,"lon":-79.566673},"country":"PA","name":"La Boca"},{"_id":3711668,"coord":{"lat":8.42729,"lon":-82.430847},"country":"PA","name":"David"},{"_id":3700159,"coord":{"lat":8.25,"lon":-81.133331},"country":"PA","name":"Provincia de Veraguas"},{"_id":3701117,"coord":{"lat":8.1,"lon":-80.98333},"country":"PA","name":"Santiago de Veraguas"},{"_id":3711926,"coord":{"lat":7.75,"lon":-80.48333},"country":"PA","name":"Corozal"},{"_id":3712162,"coord":{"lat":8.56667,"lon":-80.416672},"country":"PA","name":"Provincia de Coclé"},{"_id":3713051,"coord":{"lat":8.3,"lon":-80.550003},"country":"PA","name":"Capellania"},{"_id":3705157,"coord":{"lat":8.76667,"lon":-82.633331},"country":"PA","name":"Los Naranjos"},{"_id":3710808,"coord":{"lat":9.24917,"lon":-79.69278},"country":"PA","name":"El Giral"},{"_id":3715042,"coord":{"lat":8.25,"lon":-80.550003},"country":"PA","name":"Aguadulce"},{"_id":3708307,"coord":{"lat":8.46667,"lon":-80.283333},"country":"PA","name":"Juan Diaz"},{"_id":3703068,"coord":{"lat":8.51667,"lon":-80.366669},"country":"PA","name":"Penonome"},{"_id":3708710,"coord":{"lat":7.83333,"lon":-80.75},"country":"PA","name":"Provincia de Herrera"},{"_id":3712384,"coord":{"lat":7.96667,"lon":-80.433327},"country":"PA","name":"Chitre"},{"_id":3705779,"coord":{"lat":7.96667,"lon":-80.433327},"country":"PA","name":"Llano Bonito"},{"_id":3713954,"coord":{"lat":9.25,"lon":-82.650002},"country":"PA","name":"Provincia de Bocas del Toro"},{"_id":3713959,"coord":{"lat":9.33333,"lon":-82.25},"country":"PA","name":"Bocas del Toro"},{"_id":3705652,"coord":{"lat":8.38333,"lon":-80.166672},"country":"PA","name":"Loma Bonita"},{"_id":3701816,"coord":{"lat":9.30389,"lon":-79.794441},"country":"PA","name":"Rio Rita"},{"_id":3714637,"coord":{"lat":8.95,"lon":-79.650002},"country":"PA","name":"Arraijan"},{"_id":3703373,"coord":{"lat":9.03333,"lon":-79.633331},"country":"PA","name":"Paraiso"},{"_id":3706208,"coord":{"lat":7.76667,"lon":-80.283333},"country":"PA","name":"Las Tablas"},{"_id":3705562,"coord":{"lat":8.5,"lon":-82.433327},"country":"PA","name":"Los Algarrobos"},{"_id":3702538,"coord":{"lat":8.88444,"lon":-79.829437},"country":"PA","name":"Potrero Grande"},{"_id":3714849,"coord":{"lat":8.6,"lon":-80.166672},"country":"PA","name":"Alto de la Estancia"},{"_id":3703938,"coord":{"lat":8.33333,"lon":-80.51667},"country":"PA","name":"Nata"},{"_id":3706724,"coord":{"lat":8.16667,"lon":-80.816673},"country":"PA","name":"La Raya de Santa María"},{"_id":3701491,"coord":{"lat":8.28333,"lon":-81.866669},"country":"PA","name":"San Felix"},{"_id":3701148,"coord":{"lat":8.86056,"lon":-79.879173},"country":"PA","name":"Santa Rita"},{"_id":3707492,"coord":{"lat":8.91667,"lon":-79.716667},"country":"PA","name":"La Isleta"},{"_id":3707249,"coord":{"lat":8.08333,"lon":-80.883331},"country":"PA","name":"La Mata"},{"_id":3712809,"coord":{"lat":8.73333,"lon":-79.849998},"country":"PA","name":"Cermeño"},{"_id":3703745,"coord":{"lat":8.41667,"lon":-80.650002},"country":"PA","name":"Olá"},{"_id":3714543,"coord":{"lat":8.46667,"lon":-82.533333},"country":"PA","name":"Bágala"},{"_id":3714000,"coord":{"lat":8.01667,"lon":-80.449997},"country":"PA","name":"Boca de Parita"},{"_id":3702631,"coord":{"lat":8.26667,"lon":-80.550003},"country":"PA","name":"Pocri"},{"_id":3702384,"coord":{"lat":9.36444,"lon":-79.793327},"country":"PA","name":"Puerto Pilon"},{"_id":3711063,"coord":{"lat":7.9,"lon":-80.616669},"country":"PA","name":"El Coco"},{"_id":3700871,"coord":{"lat":8.55,"lon":-82.650002},"country":"PA","name":"Sortova"},{"_id":3700888,"coord":{"lat":8.01667,"lon":-81.316673},"country":"PA","name":"Sona"},{"_id":3713715,"coord":{"lat":9.27472,"lon":-79.695282},"country":"PA","name":"Buena Vista"},{"_id":3712123,"coord":{"lat":9.37,"lon":-79.881668},"country":"PA","name":"Coco Solo"},{"_id":3703786,"coord":{"lat":7.95,"lon":-80.783333},"country":"PA","name":"Ocu"},{"_id":3714875,"coord":{"lat":8.75,"lon":-82.433327},"country":"PA","name":"Alto Boquete"},{"_id":3703789,"coord":{"lat":7.4,"lon":-80.449997},"country":"PA","name":"Ocho Pasos"},{"_id":3705306,"coord":{"lat":9.05,"lon":-79.433327},"country":"PA","name":"Los Guayabitos"},{"_id":3713873,"coord":{"lat":8.5,"lon":-82.566673},"country":"PA","name":"Boqueron"},{"_id":3709373,"coord":{"lat":9.11667,"lon":-79.699997},"country":"PA","name":"Gamboa"},{"_id":3701834,"coord":{"lat":8.61667,"lon":-80.599998},"country":"PA","name":"Río Número Uno"},{"_id":3714778,"coord":{"lat":7.56667,"lon":-80.599998},"country":"PA","name":"Alto Montilla"},{"_id":3701537,"coord":{"lat":9.25,"lon":-78.25},"country":"PA","name":"Kuna Yala"},{"_id":3702390,"coord":{"lat":8.66435,"lon":-77.418869},"country":"PA","name":"Puerto Obaldía"},{"_id":3711671,"coord":{"lat":8.08333,"lon":-77.883331},"country":"PA","name":"Provincia del Darién"},{"_id":3707058,"coord":{"lat":8.40278,"lon":-78.145279},"country":"PA","name":"La Palma"},{"_id":3708432,"coord":{"lat":7.5175,"lon":-78.17028},"country":"PA","name":"Jaque"},{"_id":3709559,"coord":{"lat":9.46667,"lon":-82.51667},"country":"PA","name":"Finca Cuarenta y Dos"},{"_id":3700563,"coord":{"lat":9.08333,"lon":-79.383331},"country":"PA","name":"Tocumen"},{"_id":3707715,"coord":{"lat":8.08333,"lon":-80.949997},"country":"PA","name":"La Florecita"},{"_id":3711696,"coord":{"lat":8.96667,"lon":-79.550003},"country":"PA","name":"Curundu Heights"},{"_id":3709444,"coord":{"lat":8.91229,"lon":-79.589172},"country":"PA","name":"Fuerte Kobbe"},{"_id":3704771,"coord":{"lat":9.35,"lon":-79.883331},"country":"PA","name":"Majagual-Gold Hill"},{"_id":3714291,"coord":{"lat":8.38333,"lon":-82.416672},"country":"PA","name":"Barrio San José"},{"_id":3699980,"coord":{"lat":8.1537,"lon":-77.693077},"country":"PA","name":"Yaviza"},{"_id":3700017,"coord":{"lat":8.76667,"lon":-82.633331},"country":"PA","name":"Volcan"},{"_id":3700033,"coord":{"lat":8.53333,"lon":-80.366669},"country":"PA","name":"Vista Hermosa"},{"_id":3700070,"coord":{"lat":8.78333,"lon":-79.866669},"country":"PA","name":"Villa Rosario"},{"_id":3700080,"coord":{"lat":8.8,"lon":-79.866669},"country":"PA","name":"Villa Carmen"},{"_id":3700269,"coord":{"lat":9.13333,"lon":-77.933327},"country":"PA","name":"Ustupo"},{"_id":3700393,"coord":{"lat":9.51667,"lon":-79.033333},"country":"PA","name":"Tubuala"},{"_id":3700538,"coord":{"lat":7.4,"lon":-80.449997},"country":"PA","name":"Tonosi"},{"_id":3700620,"coord":{"lat":8.46667,"lon":-82.550003},"country":"PA","name":"Tijera"},{"_id":3700931,"coord":{"lat":8.53333,"lon":-82.683327},"country":"PA","name":"Siogui Arriba"},{"_id":3700933,"coord":{"lat":8.5,"lon":-82.666672},"country":"PA","name":"Siogui Abajo"},{"_id":3701088,"coord":{"lat":8.91667,"lon":-79.683327},"country":"PA","name":"San Vicente de Bique"},{"_id":3701101,"coord":{"lat":8.5,"lon":-82.716667},"country":"PA","name":"Santo Domingo"},{"_id":3701103,"coord":{"lat":7.75,"lon":-80.25},"country":"PA","name":"Santo Domingo"},{"_id":3701163,"coord":{"lat":8.51667,"lon":-82.699997},"country":"PA","name":"Santa Marta"},{"_id":3701174,"coord":{"lat":8.11667,"lon":-80.666672},"country":"PA","name":"Santa Maria"},{"_id":3701195,"coord":{"lat":8.65194,"lon":-78.14917},"country":"PA","name":"Santa Fe"},{"_id":3701239,"coord":{"lat":9.03528,"lon":-79.75222},"country":"PA","name":"Santa Clara"},{"_id":3701466,"coord":{"lat":9.28333,"lon":-78.150002},"country":"PA","name":"San Ignacio de Tupile"},{"_id":3701484,"coord":{"lat":8.06667,"lon":-81.366669},"country":"PA","name":"San Francisco"},{"_id":3701578,"coord":{"lat":8.6,"lon":-82.73333},"country":"PA","name":"San Andres"},{"_id":3701682,"coord":{"lat":9.34222,"lon":-79.801109},"country":"PA","name":"Sabanitas"},{"_id":3701810,"coord":{"lat":8.81667,"lon":-82.866669},"country":"PA","name":"Rio Sereno"},{"_id":3701861,"coord":{"lat":8.38333,"lon":-80.166672},"country":"PA","name":"Rio Hato"},{"_id":3701868,"coord":{"lat":8.41667,"lon":-80.48333},"country":"PA","name":"Rio Grande"},{"_id":3701870,"coord":{"lat":9.29167,"lon":-79.76889},"country":"PA","name":"Rio Gatun"},{"_id":3701874,"coord":{"lat":9.26667,"lon":-79.683327},"country":"PA","name":"Rio Duque"},{"_id":3701882,"coord":{"lat":7.98444,"lon":-81.163063},"country":"PA","name":"Rio de Jesus"},{"_id":3701914,"coord":{"lat":9.37639,"lon":-79.791107},"country":"PA","name":"Rio Alejandro"},{"_id":3702269,"coord":{"lat":8.43333,"lon":-81.783333},"country":"PA","name":"Quebrada Canoa"},{"_id":3702276,"coord":{"lat":9.3,"lon":-79.699997},"country":"PA","name":"Quebrada Bonita Adentro"},{"_id":3702342,"coord":{"lat":8.03333,"lon":-82.866669},"country":"PA","name":"Punta de Burica"},{"_id":3702412,"coord":{"lat":9.19333,"lon":-80.088333},"country":"PA","name":"Puerto Escondido"},{"_id":3702427,"coord":{"lat":8.86667,"lon":-79.716667},"country":"PA","name":"Puerto Caimito"},{"_id":3702448,"coord":{"lat":8.25,"lon":-81.666672},"country":"PA","name":"Pueblo Viejo"},{"_id":3702464,"coord":{"lat":8.56667,"lon":-82.416672},"country":"PA","name":"Pueblo Nuevo"},{"_id":3702509,"coord":{"lat":8.45,"lon":-82.833328},"country":"PA","name":"Progreso"},{"_id":3702548,"coord":{"lat":8.68333,"lon":-82.5},"country":"PA","name":"Potrerillos Arriba"},{"_id":3702550,"coord":{"lat":8.65,"lon":-82.48333},"country":"PA","name":"Potrerillos Abajo"},{"_id":3702577,"coord":{"lat":9.55,"lon":-79.650002},"country":"PA","name":"Portobelo"},{"_id":3702637,"coord":{"lat":8.73333,"lon":-82.816673},"country":"PA","name":"Plaza de Caisan"},{"_id":3702647,"coord":{"lat":9.3,"lon":-78.23333},"country":"PA","name":"Playon Chico"},{"_id":3703011,"coord":{"lat":7.9,"lon":-80.616669},"country":"PA","name":"Pese"},{"_id":3703239,"coord":{"lat":7.53333,"lon":-80.033333},"country":"PA","name":"Pedasi"},{"_id":3703327,"coord":{"lat":9.13333,"lon":-79.23333},"country":"PA","name":"Paso Blanco"},{"_id":3703354,"coord":{"lat":8,"lon":-80.51667},"country":"PA","name":"Parita"},{"_id":3703505,"coord":{"lat":8.71667,"lon":-82.449997},"country":"PA","name":"Palmira"},{"_id":3703523,"coord":{"lat":9.23194,"lon":-80.08667},"country":"PA","name":"Palmas Bellas"},{"_id":3703818,"coord":{"lat":9.24472,"lon":-79.608612},"country":"PA","name":"Nuevo Vigia"},{"_id":3703820,"coord":{"lat":9.22333,"lon":-79.661942},"country":"PA","name":"Nuevo San Juan"},{"_id":3703828,"coord":{"lat":8.99889,"lon":-79.727219},"country":"PA","name":"Nuevo Emperador"},{"_id":3703839,"coord":{"lat":8.55,"lon":-79.866669},"country":"PA","name":"Nueva Gorgona"},{"_id":3703946,"coord":{"lat":9.44278,"lon":-78.590561},"country":"PA","name":"Nargana"},{"_id":3704029,"coord":{"lat":8.94921,"lon":-77.765182},"country":"PA","name":"Mulatupo Sasardi"},{"_id":3704123,"coord":{"lat":7.99222,"lon":-81.054443},"country":"PA","name":"Montijo"},{"_id":3704138,"coord":{"lat":8.78333,"lon":-82.833328},"country":"PA","name":"Monte Lirio"},{"_id":3704327,"coord":{"lat":8.4983,"lon":-77.9786},"country":"PA","name":"Meteti"},{"_id":3704460,"coord":{"lat":8.45,"lon":-82.400002},"country":"PA","name":"Mata del Nance"},{"_id":3704547,"coord":{"lat":9.44306,"lon":-79.755829},"country":"PA","name":"Maria Chiquita"},{"_id":3704571,"coord":{"lat":9.33139,"lon":-79.888893},"country":"PA","name":"Margarita"},{"_id":3704874,"coord":{"lat":7.73333,"lon":-80.550003},"country":"PA","name":"Macaracas"},{"_id":3704964,"coord":{"lat":7.93333,"lon":-80.416672},"country":"PA","name":"Los Santos"},{"_id":3705229,"coord":{"lat":9.13333,"lon":-79.300003},"country":"PA","name":"Los Lotes"},{"_id":3705493,"coord":{"lat":8.08333,"lon":-80.849998},"country":"PA","name":"Los Boquerones"},{"_id":3705549,"coord":{"lat":8.53333,"lon":-82.416672},"country":"PA","name":"Los Anastacios"},{"_id":3705563,"coord":{"lat":8.11667,"lon":-81.01667},"country":"PA","name":"Los Algarrobos"},{"_id":3705691,"coord":{"lat":8.5,"lon":-80.333328},"country":"PA","name":"Llano Marin"},{"_id":3705710,"coord":{"lat":7.9,"lon":-80.433327},"country":"PA","name":"Llano Largo"},{"_id":3705743,"coord":{"lat":7.66667,"lon":-80.566673},"country":"PA","name":"Llano de Piedra"},{"_id":3705894,"coord":{"lat":8.75,"lon":-79.900002},"country":"PA","name":"Lidice"},{"_id":3705989,"coord":{"lat":8.45,"lon":-82.25},"country":"PA","name":"La Victoria"},{"_id":3706091,"coord":{"lat":7.75,"lon":-80.283333},"country":"PA","name":"La Tiza"},{"_id":3706292,"coord":{"lat":8.13333,"lon":-81.449997},"country":"PA","name":"Las Palmas"},{"_id":3706347,"coord":{"lat":7.8,"lon":-80.75},"country":"PA","name":"Las Minas"},{"_id":3706409,"coord":{"lat":8.5,"lon":-80.383331},"country":"PA","name":"Las Lomas"},{"_id":3706410,"coord":{"lat":8.43333,"lon":-82.400002},"country":"PA","name":"Las Lomas"},{"_id":3706590,"coord":{"lat":8.55,"lon":-80.083328},"country":"PA","name":"Las Colinas"},{"_id":3706931,"coord":{"lat":8.6,"lon":-80.449997},"country":"PA","name":"La Pintada"},{"_id":3706974,"coord":{"lat":8.13333,"lon":-81.033333},"country":"PA","name":"La Pena"},{"_id":3707063,"coord":{"lat":7.71667,"lon":-80.383331},"country":"PA","name":"La Palma"},{"_id":3707150,"coord":{"lat":8.84222,"lon":-79.786667},"country":"PA","name":"La Mitra"},{"_id":3707220,"coord":{"lat":9.18333,"lon":-79.26667},"country":"PA","name":"La Mesa"},{"_id":3707227,"coord":{"lat":8.15,"lon":-81.183327},"country":"PA","name":"La Mesa"},{"_id":3707311,"coord":{"lat":8.16667,"lon":-80.633331},"country":"PA","name":"La Loma"},{"_id":3707568,"coord":{"lat":8.85222,"lon":-79.80722},"country":"PA","name":"La Herradura"},{"_id":3707752,"coord":{"lat":7.88333,"lon":-80.383331},"country":"PA","name":"La Espigadilla"},{"_id":3707758,"coord":{"lat":8.4,"lon":-82.800003},"country":"PA","name":"La Esperanza"},{"_id":3707921,"coord":{"lat":8.01667,"lon":-80.98333},"country":"PA","name":"La Colorada"},{"_id":3708892,"coord":{"lat":8.35,"lon":-82.533333},"country":"PA","name":"Guarumal"},{"_id":3708911,"coord":{"lat":7.81667,"lon":-80.283333},"country":"PA","name":"Guarare"},{"_id":3708948,"coord":{"lat":8.53333,"lon":-82.300003},"country":"PA","name":"Gualaca"},{"_id":3708954,"coord":{"lat":8.85583,"lon":-79.813332},"country":"PA","name":"Guadalupe"},{"_id":3708989,"coord":{"lat":9.5,"lon":-82.616669},"country":"PA","name":"Guabito"},{"_id":3709228,"coord":{"lat":8.56667,"lon":-82.73333},"country":"PA","name":"Gomez"},{"_id":3709361,"coord":{"lat":8.06472,"lon":-78.362778},"country":"PA","name":"Garachine"},{"_id":3709561,"coord":{"lat":8.35,"lon":-82.849998},"country":"PA","name":"Finca Corredor"},{"_id":3709569,"coord":{"lat":8.38333,"lon":-82.866669},"country":"PA","name":"Finca Blanco Numero Uno"},{"_id":3709742,"coord":{"lat":9.14722,"lon":-79.961937},"country":"PA","name":"Escobal"},{"_id":3710026,"coord":{"lat":8.16667,"lon":-80.650002},"country":"PA","name":"El Roble"},{"_id":3710040,"coord":{"lat":8.12083,"lon":-80.615829},"country":"PA","name":"El Rincon"},{"_id":3710066,"coord":{"lat":8.46667,"lon":-82.400002},"country":"PA","name":"El Quiteno"},{"_id":3710087,"coord":{"lat":9.26667,"lon":-79.116669},"country":"PA","name":"El Progreso"},{"_id":3710114,"coord":{"lat":9.56528,"lon":-78.953331},"country":"PA","name":"El Porvenir"},{"_id":3710864,"coord":{"lat":8.1,"lon":-80.816673},"country":"PA","name":"El Espino de Santa Rosa"},{"_id":3710875,"coord":{"lat":8.83944,"lon":-79.849998},"country":"PA","name":"El Espino"},{"_id":3710910,"coord":{"lat":8.56667,"lon":-80.216667},"country":"PA","name":"El Entradero"},{"_id":3710923,"coord":{"lat":7.91667,"lon":-80.383331},"country":"PA","name":"El Ejido"},{"_id":3710961,"coord":{"lat":8.25,"lon":-80.616669},"country":"PA","name":"El Cristo"},{"_id":3710978,"coord":{"lat":8.35,"lon":-80.599998},"country":"PA","name":"El Cortezo"},{"_id":3711009,"coord":{"lat":8.61667,"lon":-80.599998},"country":"PA","name":"El Cope"},{"_id":3711056,"coord":{"lat":8.87028,"lon":-79.815002},"country":"PA","name":"El Coco"},{"_id":3711059,"coord":{"lat":8.4,"lon":-80.349998},"country":"PA","name":"El Coco"},{"_id":3711240,"coord":{"lat":8.4,"lon":-80.51667},"country":"PA","name":"El Cano"},{"_id":3711618,"coord":{"lat":8.56667,"lon":-82.416672},"country":"PA","name":"Dolega"},{"_id":3711631,"coord":{"lat":8.41667,"lon":-82.716667},"country":"PA","name":"Divala"},{"_id":3711694,"coord":{"lat":9.18333,"lon":-81.900002},"country":"PA","name":"Cusapin"},{"_id":3712164,"coord":{"lat":8.45,"lon":-80.433327},"country":"PA","name":"Cocle"},{"_id":3712280,"coord":{"lat":8.6,"lon":-80.26667},"country":"PA","name":"Churuquita Grande"},{"_id":3712281,"coord":{"lat":8.56667,"lon":-80.283333},"country":"PA","name":"Churuquita Chiquita"},{"_id":3712401,"coord":{"lat":8.95,"lon":-82.116669},"country":"PA","name":"Chiriqui Grande"},{"_id":3712419,"coord":{"lat":8.4,"lon":-82.316673},"country":"PA","name":"Chiriqui"},{"_id":3712462,"coord":{"lat":8.53333,"lon":-80.349998},"country":"PA","name":"Chigore"},{"_id":3712579,"coord":{"lat":8.58333,"lon":-79.883331},"country":"PA","name":"Chame"},{"_id":3712636,"coord":{"lat":8.85,"lon":-82.566673},"country":"PA","name":"Cerro Punta"},{"_id":3712765,"coord":{"lat":9.03,"lon":-79.904999},"country":"PA","name":"Cerro Cama"},{"_id":3712786,"coord":{"lat":9.16667,"lon":-79.416672},"country":"PA","name":"Cerro Azul"},{"_id":3712951,"coord":{"lat":9.47417,"lon":-78.966667},"country":"PA","name":"Carti Suitupo"},{"_id":3713047,"coord":{"lat":8.75,"lon":-79.883331},"country":"PA","name":"Capira"},{"_id":3713131,"coord":{"lat":9.20972,"lon":-78.881111},"country":"PA","name":"Canita"},{"_id":3713196,"coord":{"lat":8.31667,"lon":-81.216667},"country":"PA","name":"Canazas"},{"_id":3713381,"coord":{"lat":9.16667,"lon":-79.566673},"country":"PA","name":"Calzada Larga"},{"_id":3713499,"coord":{"lat":9.15,"lon":-79.533333},"country":"PA","name":"Caimitillo"},{"_id":3713588,"coord":{"lat":9.11667,"lon":-79.316673},"country":"PA","name":"Cabra"},{"_id":3713667,"coord":{"lat":8.48333,"lon":-82.616669},"country":"PA","name":"Bugaba"},{"_id":3713860,"coord":{"lat":8.78333,"lon":-82.433327},"country":"PA","name":"Boquete"},{"_id":3714176,"coord":{"lat":7.75,"lon":-80.23333},"country":"PA","name":"Bella Vista"},{"_id":3714201,"coord":{"lat":8.6,"lon":-79.883331},"country":"PA","name":"Bejuco"},{"_id":3714260,"coord":{"lat":9.3,"lon":-82.133331},"country":"PA","name":"Isla Bastimentos"},{"_id":3714336,"coord":{"lat":9.51667,"lon":-82.699997},"country":"PA","name":"Barranco"},{"_id":3714598,"coord":{"lat":8.05,"lon":-80.933327},"country":"PA","name":"Atalaya"},{"_id":3714611,"coord":{"lat":8.48333,"lon":-82.800003},"country":"PA","name":"Aserrio de Gariche"},{"_id":3714710