{"countryCityList":[{"_id":1343000,"coord":{"lat":26.474443,"lon":64.656113},"country":"PK","name":"Surtagān Chib"},{"_id":1176832,"coord":{"lat":26.016945,"lon":63.911945},"country":"PK","name":"Hoshāb"},{"_id":1109143,"coord":{"lat":25.970833,"lon":63.709721},"country":"PK","name":"Kamāl Halq"},{"_id":1176862,"coord":{"lat":26.00639,"lon":63.59861},"country":"PK","name":"Hirok"},{"_id":1178148,"coord":{"lat":25.874722,"lon":63.541389},"country":"PK","name":"Gorcop"},{"_id":1109671,"coord":{"lat":25.872223,"lon":63.488888},"country":"PK","name":"Kārez"},{"_id":1336846,"coord":{"lat":25.853611,"lon":63.461388},"country":"PK","name":"Niāmi Kalag"},{"_id":1337368,"coord":{"lat":25.849722,"lon":63.400833},"country":"PK","name":"Akil Iomak"},{"_id":1176303,"coord":{"lat":25.845833,"lon":63.393055},"country":"PK","name":"Jamak"},{"_id":1336786,"coord":{"lat":25.85,"lon":63.236111},"country":"PK","name":"Kārez"},{"_id":1336708,"coord":{"lat":25.843332,"lon":63.218613},"country":"PK","name":"Dram Kol"},{"_id":1179245,"coord":{"lat":33.014549,"lon":69.999252},"country":"PK","name":"Federally Administered Tribal Areas"},{"_id":1168197,"coord":{"lat":34.007999,"lon":71.578491},"country":"PK","name":"Peshawar"},{"_id":1185056,"coord":{"lat":34.146851,"lon":73.214493},"country":"PK","name":"Abbottabad"},{"_id":1162589,"coord":{"lat":27.44808,"lon":67.79776},"country":"PK","name":"Warah"},{"_id":1167142,"coord":{"lat":27.28792,"lon":68.505051},"country":"PK","name":"Ranipur"},{"_id":1169692,"coord":{"lat":31.8025,"lon":74.261673},"country":"PK","name":"Muridke"},{"_id":1170564,"coord":{"lat":28.1085,"lon":68.025398},"country":"PK","name":"Mehrabpur"},{"_id":1170584,"coord":{"lat":27.18067,"lon":67.822884},"country":"PK","name":"Mehar"},{"_id":1171050,"coord":{"lat":31.893061,"lon":72.381668},"country":"PK","name":"Mangla"},{"_id":1175010,"coord":{"lat":27.06011,"lon":68.209091},"country":"PK","name":"Kandiaro"},{"_id":1175082,"coord":{"lat":33.747341,"lon":73.51107},"country":"PK","name":"Kamra"},{"_id":1176997,"coord":{"lat":30.450159,"lon":73.698883},"country":"PK","name":"Haveli"},{"_id":1177042,"coord":{"lat":29.712219,"lon":72.555283},"country":"PK","name":"Hasilpur"},{"_id":1178231,"coord":{"lat":31.148741,"lon":72.686562},"country":"PK","name":"Gojra"},{"_id":1178841,"coord":{"lat":30.833879,"lon":71.905289},"country":"PK","name":"Garh Maharaja"},{"_id":1183224,"coord":{"lat":30.583179,"lon":73.829002},"country":"PK","name":"Basirpur"},{"_id":1356491,"coord":{"lat":30.67539,"lon":71.748283},"country":"PK","name":"Ahmadpur Sial"},{"_id":1183606,"coord":{"lat":28,"lon":66},"country":"PK","name":"Balochistān"},{"_id":1342999,"coord":{"lat":26.472221,"lon":64.631943},"country":"PK","name":"Surtagān Pass"},{"_id":1343001,"coord":{"lat":26.459723,"lon":64.571114},"country":"PK","name":"Surtagān Jhoo"},{"_id":1169557,"coord":{"lat":26.16361,"lon":64.260002},"country":"PK","name":"Nāgak"},{"_id":1342787,"coord":{"lat":26.216389,"lon":64.105835},"country":"PK","name":"Dal"},{"_id":1110054,"coord":{"lat":26.174999,"lon":64.041664},"country":"PK","name":"Bālgattar"},{"_id":1340375,"coord":{"lat":32.586239,"lon":70.062042},"country":"PK","name":"Shakari"},{"_id":1393797,"coord":{"lat":30.18721,"lon":67.018723},"country":"PK","name":"Kāsi"},{"_id":1167031,"coord":{"lat":27.802959,"lon":68.287079},"country":"PK","name":"Ratodero"},{"_id":1169620,"coord":{"lat":30.89222,"lon":73.498894},"country":"PK","name":"Mustafabad"},{"_id":1174984,"coord":{"lat":30.766291,"lon":74.123108},"country":"PK","name":"Kanganpur"},{"_id":1175021,"coord":{"lat":28.243959,"lon":69.18235},"country":"PK","name":"Kandhkot"},{"_id":1176800,"coord":{"lat":30.741791,"lon":73.823578},"country":"PK","name":"Hujra"},{"_id":1176889,"coord":{"lat":27.21088,"lon":68.415977},"country":"PK","name":"Hingorja"},{"_id":1178560,"coord":{"lat":28.139059,"lon":69.083054},"country":"PK","name":"Ghauspur"},{"_id":1332083,"coord":{"lat":30.550831,"lon":73.390831},"country":"PK","name":"Bahawalnagar"},{"_id":1168579,"coord":{"lat":30,"lon":70},"country":"PK","name":"Islamic Republic of Pakistan"},{"_id":1176260,"coord":{"lat":25.831944,"lon":63.024723},"country":"PK","name":"Jām Gwāng"},{"_id":1337102,"coord":{"lat":25.545555,"lon":62.860832},"country":"PK","name":"Kochāh"},{"_id":1337108,"coord":{"lat":25.554722,"lon":62.812222},"country":"PK","name":"Ziārat Shāh Jawān"},{"_id":1337336,"coord":{"lat":25.559444,"lon":62.763889},"country":"PK","name":"Chibwāri"},{"_id":1337078,"coord":{"lat":25.515833,"lon":62.699165},"country":"PK","name":"Rekani"},{"_id":1337071,"coord":{"lat":25.545279,"lon":62.656387},"country":"PK","name":"Kakhor"},{"_id":1336755,"coord":{"lat":25.358334,"lon":62.491669},"country":"PK","name":"Muri Bāzār"},{"_id":1336789,"coord":{"lat":25.344444,"lon":62.435833},"country":"PK","name":"Chib"},{"_id":1337320,"coord":{"lat":25.334723,"lon":62.30722},"country":"PK","name":"Kiya Kalāt"},{"_id":1336638,"coord":{"lat":25.292221,"lon":62.263058},"country":"PK","name":"Darbār Gharīb Shāh"},{"_id":1336381,"coord":{"lat":25.308056,"lon":62.233612},"country":"PK","name":"Dāud"},{"_id":1336379,"coord":{"lat":25.281944,"lon":62.239445},"country":"PK","name":"Nigor"},{"_id":1336479,"coord":{"lat":25.249166,"lon":62.19389},"country":"PK","name":"Gaz Mār"},{"_id":1181407,"coord":{"lat":25.288334,"lon":62.126945},"country":"PK","name":"Īsa Goth"},{"_id":1333161,"coord":{"lat":25.264999,"lon":62.050835},"country":"PK","name":"Tāzān"},{"_id":1336514,"coord":{"lat":25.151388,"lon":62.039444},"country":"PK","name":"Log Mulla Qādar Bakhsh"},{"_id":1336509,"coord":{"lat":25.141945,"lon":62.00111},"country":"PK","name":"Passo"},{"_id":1168077,"coord":{"lat":25.172222,"lon":61.934166},"country":"PK","name":"Piāhān Tok"},{"_id":1166866,"coord":{"lat":25.15,"lon":61.916668},"country":"PK","name":"Robār"},{"_id":1178954,"coord":{"lat":25.0975,"lon":61.869167},"country":"PK","name":"Ganz"},{"_id":1172061,"coord":{"lat":25.108334,"lon":61.795555},"country":"PK","name":"Laura"},{"_id":1336421,"coord":{"lat":25.058332,"lon":61.75},"country":"PK","name":"Tahsil"},{"_id":1175712,"coord":{"lat":25.049999,"lon":61.741669},"country":"PK","name":"Jiwani"},{"_id":1164807,"coord":{"lat":26.13456,"lon":68.7696},"country":"PK","name":"Sindh"},{"_id":1418826,"coord":{"lat":28.16873,"lon":68.291908},"country":"PK","name":"Sobdār Khān Khosa"},{"_id":1167710,"coord":{"lat":30.86017,"lon":72.319763},"country":"PK","name":"Punjab"},{"_id":1382698,"coord":{"lat":30.45694,"lon":72.158333},"country":"PK","name":"Chak Fourteen-Eight R"},{"_id":1330650,"coord":{"lat":31.32583,"lon":74.181107},"country":"PK","name":"Budduke"},{"_id":1168873,"coord":{"lat":34.45993,"lon":72.502373},"country":"PK","name":"Khyber Pakhtunkhwa Province"},{"_id":7041388,"coord":{"lat":34.035702,"lon":71.579803},"country":"PK","name":"Sardār Colony"},{"_id":1352874,"coord":{"lat":34.50666,"lon":71.056488},"country":"PK","name":"Shamshai"},{"_id":1359850,"coord":{"lat":25.613041,"lon":68.950104},"country":"PK","name":"Goth Obhāyo Mihr"},{"_id":1172451,"coord":{"lat":31.549721,"lon":74.343613},"country":"PK","name":"Lahore"},{"_id":1170102,"coord":{"lat":33.694721,"lon":73.16288},"country":"PK","name":"Mohra Nūr"},{"_id":1169825,"coord":{"lat":30.19556,"lon":71.475281},"country":"PK","name":"Multan"},{"_id":1184330,"coord":{"lat":33.599998,"lon":73.066673},"country":"PK","name":"Ārya"},{"_id":1164216,"coord":{"lat":34.119881,"lon":72.469872},"country":"PK","name":"Swabi"},{"_id":7098828,"coord":{"lat":25.36607,"lon":68.368736},"country":"PK","name":"Barkat Bhāi Town"},{"_id":1413176,"coord":{"lat":32.150379,"lon":74.173538},"country":"PK","name":"Babiānwāli"},{"_id":7041468,"coord":{"lat":34.008301,"lon":71.574997},"country":"PK","name":"Sabzi Mandi"},{"_id":1167528,"coord":{"lat":30.198999,"lon":67.009712},"country":"PK","name":"Quetta"},{"_id":1173491,"coord":{"lat":33.581959,"lon":71.449287},"country":"PK","name":"Kohat"},{"_id":1333002,"coord":{"lat":34.00972,"lon":71.982498},"country":"PK","name":"Tahsīl"},{"_id":1179400,"coord":{"lat":31.41667,"lon":73.083328},"country":"PK","name":"Faisalabad"},{"_id":1168718,"coord":{"lat":30.80806,"lon":73.445831},"country":"PK","name":"Okara"},{"_id":1357445,"coord":{"lat":27.548519,"lon":68.221939},"country":"PK","name":"Wāhan Murad"},{"_id":1166000,"coord":{"lat":32.083611,"lon":72.671112},"country":"PK","name":"Sargodha"},{"_id":1176995,"coord":{"lat":34.0536,"lon":73.16571},"country":"PK","name":"Havelian"},{"_id":1381523,"coord":{"lat":32.493389,"lon":74.52005},"country":"PK","name":"Miānāpura Khurd"},{"_id":1162738,"coord":{"lat":33.798,"lon":72.695702},"country":"PK","name":"Wāh"},{"_id":1177654,"coord":{"lat":32.572842,"lon":74.078972},"country":"PK","name":"Gujrat"},{"_id":1170951,"coord":{"lat":34.333328,"lon":73.199997},"country":"PK","name":"Mansehra"},{"_id":1166548,"coord":{"lat":30.66667,"lon":73.099998},"country":"PK","name":"Montgomery"},{"_id":1169116,"coord":{"lat":26.248329,"lon":68.409554},"country":"PK","name":"Nawabshah"},{"_id":1377754,"coord":{"lat":34.194221,"lon":72.040367},"country":"PK","name":"Dhunel Ganj"},{"_id":1181327,"coord":{"lat":33.82328,"lon":71.891533},"country":"PK","name":"Cherat"},{"_id":1174220,"coord":{"lat":30.299999,"lon":71.933327},"country":"PK","name":"Khanewal"},{"_id":1165221,"coord":{"lat":31.71306,"lon":73.978333},"country":"PK","name":"Sheikhupura"},{"_id":1184196,"coord":{"lat":33.947182,"lon":73.9104},"country":"PK","name":"Azad Kashmir"},{"_id":1386385,"coord":{"lat":33.18795,"lon":73.762642},"country":"PK","name":"Saiyidān"},{"_id":1183880,"coord":{"lat":29.4,"lon":71.683327},"country":"PK","name":"Bahawalpur"},{"_id":1175864,"coord":{"lat":32.933128,"lon":73.726372},"country":"PK","name":"Jhelum"},{"_id":1170395,"coord":{"lat":34.775841,"lon":72.362488},"country":"PK","name":"Mingaora"},{"_id":1181439,"coord":{"lat":34.143452,"lon":71.731728},"country":"PK","name":"Charsadda"},{"_id":1168878,"coord":{"lat":36,"lon":75},"country":"PK","name":"Northern Areas"},{"_id":1178338,"coord":{"lat":35.9221,"lon":74.308701},"country":"PK","name":"Gilgit"},{"_id":1173378,"coord":{"lat":30.4692,"lon":70.96714},"country":"PK","name":"Kot Addu"},{"_id":1175334,"coord":{"lat":35.481602,"lon":72.584778},"country":"PK","name":"Kalām"},{"_id":1180281,"coord":{"lat":31.832689,"lon":70.902397},"country":"PK","name":"Dera Ismail Khan"},{"_id":1174625,"coord":{"lat":31.115561,"lon":74.446671},"country":"PK","name":"Kasur"},{"_id":1181096,"coord":{"lat":31.719999,"lon":72.978889},"country":"PK","name":"Chiniot"},{"_id":1165744,"coord":{"lat":34.213902,"lon":71.555229},"country":"PK","name":"Shabqadar"},{"_id":7331464,"coord":{"lat":29.556801,"lon":67.887199},"country":"PK","name":"Hāji Dur Muhammad"},{"_id":1180809,"coord":{"lat":26.732861,"lon":67.776314},"country":"PK","name":"Dadu"},{"_id":1184055,"coord":{"lat":24.655991,"lon":68.838409},"country":"PK","name":"Badin"},{"_id":1169160,"coord":{"lat":28.41667,"lon":70.300003},"country":"PK","name":"Naushahra"},{"_id":1184655,"coord":{"lat":29.38464,"lon":70.911568},"country":"PK","name":"Alipur"},{"_id":1351762,"coord":{"lat":27.7992,"lon":66.619339},"country":"PK","name":"Linju"},{"_id":1165108,"coord":{"lat":27.95706,"lon":68.637894},"country":"PK","name":"Shikarpur"},{"_id":1183460,"coord":{"lat":32.985409,"lon":70.602699},"country":"PK","name":"Bannu"},{"_id":1179223,"coord":{"lat":29.192499,"lon":72.853607},"country":"PK","name":"Fort Abbas"},{"_id":1176515,"coord":{"lat":28.281,"lon":68.438759},"country":"PK","name":"Jacobabad"},{"_id":1337313,"coord":{"lat":25.118891,"lon":62.327221},"country":"PK","name":"Tahsil"},{"_id":1163967,"coord":{"lat":25.763741,"lon":68.66098},"country":"PK","name":"Tando Adam"},{"_id":1177307,"coord":{"lat":24.89986,"lon":67.18618},"country":"PK","name":"Hāji Rahīm Khān Jokhio"},{"_id":1174867,"coord":{"lat":24.9151,"lon":67.188797},"country":"PK","name":"Karāchi Lines"},{"_id":1179951,"coord":{"lat":33.622459,"lon":73.036049},"country":"PK","name":"Dhok Mangtāl"},{"_id":7038466,"coord":{"lat":33.615002,"lon":73.010399},"country":"PK","name":"Allāhābād"},{"_id":7419775,"coord":{"lat":35.296181,"lon":75.617081},"country":"PK","name":"Sneuron"},{"_id":1170157,"coord":{"lat":31.4844,"lon":74.324402},"country":"PK","name":"Model Town"},{"_id":1162261,"coord":{"lat":34.06028,"lon":72.467781},"country":"PK","name":"Zaida"},{"_id":1170013,"coord":{"lat":26.664591,"lon":68.001556},"country":"PK","name":"Moro"},{"_id":1411140,"coord":{"lat":29.379169,"lon":71.220833},"country":"PK","name":"Bahāwalpur Ghalwān"},{"_id":1360941,"coord":{"lat":25.82163,"lon":68.415031},"country":"PK","name":"Hāla Nawa"},{"_id":1168042,"coord":{"lat":34.172741,"lon":73.029541},"country":"PK","name":"Pind"},{"_id":7033631,"coord":{"lat":25.533199,"lon":68.998901},"country":"PK","name":"Goth Chaudhary Attāullāh"},{"_id":1177757,"coord":{"lat":24.915001,"lon":67.224998},"country":"PK","name":"Goth Warayo"},{"_id":1175290,"coord":{"lat":24.933331,"lon":67.199997},"country":"PK","name":"Kalat Lines"},{"_id":1171389,"coord":{"lat":34.565609,"lon":71.930428},"country":"PK","name":"Malakand"},{"_id":1178915,"coord":{"lat":31.737221,"lon":74.410278},"country":"PK","name":"Garangwāl"},{"_id":1166475,"coord":{"lat":34.744701,"lon":72.354599},"country":"PK","name":"Saidu Sharif"},{"_id":1394355,"coord":{"lat":30.343651,"lon":67.741318},"country":"PK","name":"Ziārat Kharwāri Bāba"},{"_id":1341330,"coord":{"lat":33.618099,"lon":73.110001},"country":"PK","name":"Dhok Gangāl"},{"_id":7101573,"coord":{"lat":33.117882,"lon":73.646439},"country":"PK","name":"Dhok Halyan"},{"_id":1178285,"coord":{"lat":25.9972,"lon":63.0308},"country":"PK","name":"Gush Tang"},{"_id":1339510,"coord":{"lat":33.99263,"lon":72.617722},"country":"PK","name":"Jammun"},{"_id":1164909,"coord":{"lat":32.510101,"lon":74.543129},"country":"PK","name":"Sialkot"},{"_id":1180283,"coord":{"lat":34.80772,"lon":72.353119},"country":"PK","name":"Derai Bāba"},{"_id":1164430,"coord":{"lat":32.049198,"lon":72.656258},"country":"PK","name":"Sujānpur"},{"_id":1403303,"coord":{"lat":27.709869,"lon":68.787567},"country":"PK","name":"Sādābād"},{"_id":1180339,"coord":{"lat":29.559299,"lon":67.853401},"country":"PK","name":"Dehpāl"},{"_id":7634835,"coord":{"lat":28.378599,"lon":70.272301},"country":"PK","name":"Bindor"},{"_id":1166231,"coord":{"lat":30.240761,"lon":66.934921},"country":"PK","name":"Samungli"},{"_id":7041209,"coord":{"lat":33.985619,"lon":71.502449},"country":"PK","name":"Pāoka"},{"_id":7041202,"coord":{"lat":34,"lon":71.510498},"country":"PK","name":"Kāshifābād"},{"_id":1337123,"coord":{"lat":25.23547,"lon":63.38398},"country":"PK","name":"Gondi"},{"_id":1165955,"coord":{"lat":26.98333,"lon":64.133331},"country":"PK","name":"Sarkāorān"},{"_id":1181959,"coord":{"lat":25.280399,"lon":64.599197},"country":"PK","name":"Chād"},{"_id":7353443,"coord":{"lat":26.225201,"lon":68.379181},"country":"PK","name":"Jinda Mirāsi"},{"_id":1172161,"coord":{"lat":30.20517,"lon":71.411636},"country":"PK","name":"Langriāl"},{"_id":1333497,"coord":{"lat":32.566669,"lon":71.566673},"country":"PK","name":"Nāmdārwāla"},{"_id":1347925,"coord":{"lat":31.523899,"lon":74.376404},"country":"PK","name":"Cantonment"},{"_id":7043574,"coord":{"lat":31.5151,"lon":74.396202},"country":"PK","name":"Iqbāl Camp"},{"_id":1399489,"coord":{"lat":29.03194,"lon":66.580559},"country":"PK","name":"Ziārat Shāh-i-Mardān"},{"_id":1168399,"coord":{"lat":25.301809,"lon":68.356438},"country":"PK","name":"Panhwar"},{"_id":1169214,"coord":{"lat":24.89502,"lon":67.17379},"country":"PK","name":"Goth Nāthu Khān Khoso"},{"_id":7423527,"coord":{"lat":35.9193,"lon":74.329803},"country":"PK","name":"Sonikot"},{"_id":1337314,"coord":{"lat":25.20932,"lon":62.339539},"country":"PK","name":"Gatti"},{"_id":1382461,"coord":{"lat":31.36447,"lon":73.008278},"country":"PK","name":"Chak Two Hundred Thirty-One RB"},{"_id":1419065,"coord":{"lat":31.91221,"lon":70.87957},"country":"PK","name":"Sarai"},{"_id":1403126,"coord":{"lat":29.98748,"lon":70.512253},"country":"PK","name":"Relān"},{"_id":1373491,"coord":{"lat":35.88615,"lon":71.796707},"country":"PK","name":"Balach"},{"_id":1381923,"coord":{"lat":29.354469,"lon":71.732941},"country":"PK","name":"Chak Twenty-nine"},{"_id":1107346,"coord":{"lat":32.963329,"lon":70.522217},"country":"PK","name":"Abbās Kili"},{"_id":1413746,"coord":{"lat":33.640282,"lon":73.857162},"country":"PK","name":"Sawan"},{"_id":1184247,"coord":{"lat":33.892811,"lon":72.240738},"country":"PK","name":"Attock Khurd"},{"_id":1108161,"coord":{"lat":24.38953,"lon":67.99234},"country":"PK","name":"Chuhar Jamali"},{"_id":1161983,"coord":{"lat":33.857819,"lon":73.760429},"country":"PK","name":"Rawala Kot"},{"_id":1161991,"coord":{"lat":27.591021,"lon":68.617859},"country":"PK","name":"Pir jo Goth"},{"_id":1162004,"coord":{"lat":27.52948,"lon":68.761703},"country":"PK","name":"Khairpur"},{"_id":1162105,"coord":{"lat":31.34111,"lon":69.448059},"country":"PK","name":"Zhob"},{"_id":1162275,"coord":{"lat":28.812389,"lon":70.524048},"country":"PK","name":"Zahir Pir"},{"_id":1162285,"coord":{"lat":32.34631,"lon":74.899872},"country":"PK","name":"Zafarwal"},{"_id":1162316,"coord":{"lat":29.12122,"lon":71.744591},"country":"PK","name":"Yazman Mandi"},{"_id":1162456,"coord":{"lat":32.445831,"lon":74.115936},"country":"PK","name":"Wazirabad"},{"_id":1162572,"coord":{"lat":31.549999,"lon":73.833328},"country":"PK","name":"Warburton"},{"_id":1162813,"coord":{"lat":30.033331,"lon":72.349998},"country":"PK","name":"Vihari"},{"_id":1162855,"coord":{"lat":34.187988,"lon":71.762863},"country":"PK","name":"Utmanzai"},{"_id":1162862,"coord":{"lat":25.80722,"lon":66.621941},"country":"PK","name":"Uthal"},{"_id":1162868,"coord":{"lat":28.17943,"lon":68.04454},"country":"PK","name":"Usta Muhammad"},{"_id":1162959,"coord":{"lat":25.36157,"lon":69.736237},"country":"PK","name":"Umarkot"},{"_id":1163021,"coord":{"lat":28.165239,"lon":69.728897},"country":"PK","name":"Ubauro"},{"_id":1163054,"coord":{"lat":26.002279,"lon":63.043991},"country":"PK","name":"Turbat"},{"_id":1163224,"coord":{"lat":34.070412,"lon":72.623581},"country":"PK","name":"Topi"},{"_id":1163272,"coord":{"lat":30.974331,"lon":72.482689},"country":"PK","name":"Toba Tek Singh"},{"_id":1163414,"coord":{"lat":28.240339,"lon":68.775879},"country":"PK","name":"Thul"},{"_id":1163582,"coord":{"lat":24.74745,"lon":67.923531},"country":"PK","name":"Thatta"},{"_id":1163595,"coord":{"lat":26.944229,"lon":68.11602},"country":"PK","name":"Tharu Shah"},{"_id":1163724,"coord":{"lat":30.70484,"lon":70.650513},"country":"PK","name":"Taunsa"},{"_id":1163905,"coord":{"lat":32.22168,"lon":70.37928},"country":"PK","name":"Tank"},{"_id":1163927,"coord":{"lat":34.30056,"lon":71.65361},"country":"PK","name":"Tangi"},{"_id":1163952,"coord":{"lat":25.123011,"lon":68.535767},"country":"PK","name":"Tando Muhammad Khan"},{"_id":1163958,"coord":{"lat":25.427179,"lon":68.536186},"country":"PK","name":"Tando Jam"},{"_id":1163965,"coord":{"lat":25.462629,"lon":68.719231},"country":"PK","name":"Tando Allahyar"},{"_id":1163968,"coord":{"lat":31.033331,"lon":73.133331},"country":"PK","name":"Tandlianwala"},{"_id":1164045,"coord":{"lat":24.883329,"lon":68.816673},"country":"PK","name":"Talhar"},{"_id":1164064,"coord":{"lat":30.527081,"lon":72.240112},"country":"PK","name":"Talamba"},{"_id":1164069,"coord":{"lat":32.929729,"lon":72.415833},"country":"PK","name":"Talagang"},{"_id":1164076,"coord":{"lat":35.47908,"lon":72.243851},"country":"PK","name":"Tal"},{"_id":1164408,"coord":{"lat":27.70516,"lon":68.857384},"country":"PK","name":"Sukkur"},{"_id":1164419,"coord":{"lat":31.86388,"lon":73.511223},"country":"PK","name":"Sukheke Mandi"},{"_id":1164679,"coord":{"lat":32.46162,"lon":74.182343},"country":"PK","name":"Sodhra"},{"_id":1164716,"coord":{"lat":27.033331,"lon":67.849998},"country":"PK","name":"Sita Road"},{"_id":1164776,"coord":{"lat":26.03031,"lon":68.808983},"country":"PK","name":"Sinjhoro"},{"_id":1164825,"coord":{"lat":31.826111,"lon":72.539841},"country":"PK","name":"Sillanwali"},{"_id":1164896,"coord":{"lat":29.5448,"lon":67.876404},"country":"PK","name":"Sibi"},{"_id":1164970,"coord":{"lat":29.879669,"lon":71.293129},"country":"PK","name":"Shujaabad"},{"_id":1164987,"coord":{"lat":31.90991,"lon":70.877411},"country":"PK","name":"Shorko"},{"_id":1165260,"coord":{"lat":31.463329,"lon":74.099998},"country":"PK","name":"Sharqpur"},{"_id":1165388,"coord":{"lat":32.262321,"lon":75.166817},"country":"PK","name":"Shakargarr"},{"_id":1165486,"coord":{"lat":29.57646,"lon":71.021156},"country":"PK","name":"Shahr Sultan"},{"_id":1165507,"coord":{"lat":26.15497,"lon":68.650932},"country":"PK","name":"Shahpur Chakar"},{"_id":1165635,"coord":{"lat":25.924061,"lon":68.619987},"country":"PK","name":"Shahdadpur"},{"_id":1165638,"coord":{"lat":27.84771,"lon":67.905502},"country":"PK","name":"Shahdadkot"},{"_id":1165789,"coord":{"lat":26.42794,"lon":67.862999},"country":"PK","name":"Sehwan"},{"_id":1166062,"coord":{"lat":30.594891,"lon":71.969772},"country":"PK","name":"Sarai Sidhu"},{"_id":1166066,"coord":{"lat":32.825909,"lon":70.781357},"country":"PK","name":"Sarai Naurang"},{"_id":1166073,"coord":{"lat":32.901218,"lon":73.755913},"country":"PK","name":"Sarai Alamgir"},{"_id":1166146,"coord":{"lat":31.716669,"lon":73.383331},"country":"PK","name":"Sangla"},{"_id":1166164,"coord":{"lat":26.04656,"lon":68.948097},"country":"PK","name":"Sanghar"},{"_id":1166265,"coord":{"lat":32.474548,"lon":74.352089},"country":"PK","name":"Sambrial"},{"_id":1166381,"coord":{"lat":26.13839,"lon":68.273613},"country":"PK","name":"Sakrand"},{"_id":1166547,"coord":{"lat":31.974461,"lon":72.330872},"country":"PK","name":"Sahiwal"},{"_id":1166652,"coord":{"lat":28.306231,"lon":70.130653},"country":"PK","name":"Sadiqabad"},{"_id":1166827,"coord":{"lat":27.69223,"lon":68.895058},"country":"PK","name":"Rohri"},{"_id":1166933,"coord":{"lat":30.883329,"lon":73.599998},"country":"PK","name":"Renala Khurd"},{"_id":1166993,"coord":{"lat":33.6007,"lon":73.067902},"country":"PK","name":"Rawalpindi"},{"_id":1167380,"coord":{"lat":29.10351,"lon":70.325043},"country":"PK","name":"Rajanpur"},{"_id":1167386,"coord":{"lat":31.220831,"lon":74.251938},"country":"PK","name":"Raja Jang"},{"_id":1167398,"coord":{"lat":31.25444,"lon":74.217781},"country":"PK","name":"Raiwind"},{"_id":1167501,"coord":{"lat":27.183331,"lon":67.949997},"country":"PK","name":"Radhan"},{"_id":1167622,"coord":{"lat":27.58676,"lon":68.00103},"country":"PK","name":"Kambar"},{"_id":1167648,"coord":{"lat":30.292379,"lon":71.671173},"country":"PK","name":"Qadirpur Ran"},{"_id":1167821,"coord":{"lat":30.58028,"lon":66.996109},"country":"PK","name":"Pishin"},{"_id":1167873,"coord":{"lat":30.76667,"lon":72.433327},"country":"PK","name":"Pir Mahal"},{"_id":1168015,"coord":{"lat":33.240238,"lon":72.26609},"country":"PK","name":"Pindi Gheb"},{"_id":1168021,"coord":{"lat":31.89781,"lon":73.273018},"country":"PK","name":"Pindi Bhattian"},{"_id":1168036,"coord":{"lat":32.587891,"lon":73.045639},"country":"PK","name":"Pind Dadan Khan"},{"_id":1168166,"coord":{"lat":32.429729,"lon":73.577454},"country":"PK","name":"Phalia"},{"_id":1168226,"coord":{"lat":31.01667,"lon":73.849998},"country":"PK","name":"Pattoki"},{"_id":1168307,"coord":{"lat":32.26413,"lon":74.663422},"country":"PK","name":"Pasrur"},{"_id":1168312,"coord":{"lat":25.263109,"lon":63.471031},"country":"PK","name":"Pasni"},{"_id":1168412,"coord":{"lat":27.85685,"lon":69.111557},"country":"PK","name":"Pano Aqil"},{"_id":1168555,"coord":{"lat":30.34104,"lon":73.386642},"country":"PK","name":"Pakpattan"},{"_id":1168633,"coord":{"lat":32.10384,"lon":70.972351},"country":"PK","name":"Paharpur"},{"_id":1168652,"coord":{"lat":26.77475,"lon":68.301971},"country":"PK","name":"Pad Idan"},{"_id":1168680,"coord":{"lat":34.010559,"lon":71.798889},"country":"PK","name":"Pabbi"},{"_id":1168749,"coord":{"lat":29.55423,"lon":66.021477},"country":"PK","name":"Nushki"},{"_id":1169143,"coord":{"lat":26.842381,"lon":68.122978},"country":"PK","name":"Naushahro Firoz"},{"_id":1169145,"coord":{"lat":31.962839,"lon":73.972252},"country":"PK","name":"Naushahra Virkan"},{"_id":1169187,"coord":{"lat":27.66477,"lon":68.362167},"country":"PK","name":"Naudero"},{"_id":1169254,"coord":{"lat":27.380911,"lon":67.916779},"country":"PK","name":"Nasirabad"},{"_id":1169278,"coord":{"lat":32.099998,"lon":74.883331},"country":"PK","name":"Narowal"},{"_id":1169334,"coord":{"lat":31.9132,"lon":74.517563},"country":"PK","name":"Narang"},{"_id":1169367,"coord":{"lat":24.85869,"lon":69.402382},"country":"PK","name":"Naukot"},{"_id":1169372,"coord":{"lat":31.4475,"lon":73.69722},"country":"PK","name":"Nankana Sahib"},{"_id":1169605,"coord":{"lat":30.075371,"lon":71.192131},"country":"PK","name":"Muzaffargarh"},{"_id":1169607,"coord":{"lat":34.369999,"lon":73.471107},"country":"PK","name":"Muzaffarabad"},{"_id":1169684,"coord":{"lat":33.907269,"lon":73.392952},"country":"PK","name":"Murree"},{"_id":1170219,"coord":{"lat":24.731831,"lon":69.798111},"country":"PK","name":"Mithi"},{"_id":1170222,"coord":{"lat":32.248611,"lon":72.110832},"country":"PK","name":"Mitha Tiwana"},{"_id":1170294,"coord":{"lat":28.022711,"lon":69.548859},"country":"PK","name":"Mirpur Mathelo"},{"_id":1170295,"coord":{"lat":25.525101,"lon":69.0159},"country":"PK","name":"Mirpur Khas"},{"_id":1170398,"coord":{"lat":30.163,"lon":73.568542},"country":"PK","name":"Minchinabad"},{"_id":1170425,"coord":{"lat":32.5741,"lon":71.52639},"country":"PK","name":"Mianwali"},{"_id":1170486,"coord":{"lat":30.440041,"lon":72.354309},"country":"PK","name":"Mian Channun"},{"_id":1170667,"coord":{"lat":25.043119,"lon":68.655678},"country":"PK","name":"Matli"},{"_id":1170677,"coord":{"lat":25.59609,"lon":68.446663},"country":"PK","name":"Matiari"},{"_id":1170706,"coord":{"lat":29.79936,"lon":66.845047},"country":"PK","name":"Mastung"},{"_id":1170880,"coord":{"lat":34.20195,"lon":72.052544},"country":"PK","name":"Mardan"},{"_id":1171123,"coord":{"lat":32.583389,"lon":73.484322},"country":"PK","name":"Mandi Bahauddin"},{"_id":1171165,"coord":{"lat":31.584169,"lon":73.687782},"country":"PK","name":"Mananwala"},{"_id":1171198,"coord":{"lat":30.83333,"lon":72.800003},"country":"PK","name":"Mamu Kanjan"},{"_id":1171376,"coord":{"lat":32.553619,"lon":73.212341},"country":"PK","name":"Malakwal"},{"_id":1171502,"coord":{"lat":29.80028,"lon":72.175827},"country":"PK","name":"Mailsi"},{"_id":1171757,"coord":{"lat":29.86371,"lon":67.329781},"country":"PK","name":"Mach"},{"_id":1171868,"coord":{"lat":30.370529,"lon":68.597977},"country":"PK","name":"Loralai"},{"_id":1171965,"coord":{"lat":29.54051,"lon":71.633568},"country":"PK","name":"Lodhran"},{"_id":1172035,"coord":{"lat":30.961281,"lon":70.939041},"country":"PK","name":"Leiah"},{"_id":1172128,"coord":{"lat":27.55508,"lon":68.214142},"country":"PK","name":"Larkana"},{"_id":1172295,"coord":{"lat":31.824141,"lon":72.799713},"country":"PK","name":"Lalian"},{"_id":1172318,"coord":{"lat":32.702351,"lon":73.959999},"country":"PK","name":"Lala Musa"},{"_id":1172339,"coord":{"lat":32.607948,"lon":70.911423},"country":"PK","name":"Lakki Marwat"},{"_id":1172488,"coord":{"lat":32.156559,"lon":74.117012},"country":"PK","name":"Ladhewala Waraich"},{"_id":1172513,"coord":{"lat":33.383251,"lon":71.338577},"country":"PK","name":"Lachi"},{"_id":1172657,"coord":{"lat":25.178471,"lon":69.56913},"country":"PK","name":"Kunri"},{"_id":1172663,"coord":{"lat":32.528481,"lon":73.973679},"country":"PK","name":"Kunjah"},{"_id":1172682,"coord":{"lat":32.458721,"lon":71.477539},"country":"PK","name":"Kundian"},{"_id":1172779,"coord":{"lat":31.92861,"lon":70.459167},"country":"PK","name":"Kulachi"},{"_id":1172888,"coord":{"lat":28.5522,"lon":70.468369},"country":"PK","name":"Kot Samaba"},{"_id":1172904,"coord":{"lat":25.365999,"lon":68.312157},"country":"PK","name":"Kotri"},{"_id":1172915,"coord":{"lat":31.172501,"lon":74.099716},"country":"PK","name":"Kot Radha Kishan"},{"_id":1172964,"coord":{"lat":32.189541,"lon":73.027977},"country":"PK","name":"Kot Mumin"},{"_id":1172993,"coord":{"lat":30.19438,"lon":66.992989},"country":"PK","name":"Kot Malik"},{"_id":1173025,"coord":{"lat":32.588299,"lon":74.49321},"country":"PK","name":"Kotli Loharan"},{"_id":1173055,"coord":{"lat":33.51667,"lon":73.916672},"country":"PK","name":"Kotli"},{"_id":1173272,"coord":{"lat":32.332981,"lon":74.547981},"country":"PK","name":"Kot Ghulam Muhammad"},{"_id":1173302,"coord":{"lat":27.34272,"lon":68.708344},"country":"PK","name":"Kot Diji"},{"_id":1173687,"coord":{"lat":32.296669,"lon":72.352501},"country":"PK","name":"Khushab"},{"_id":1173692,"coord":{"lat":31.500561,"lon":73.26667},"country":"PK","name":"Khurrianwala"},{"_id":1173889,"coord":{"lat":25.82847,"lon":69.37719},"country":"PK","name":"Khipro"},{"_id":1173920,"coord":{"lat":32.64793,"lon":73.010582},"country":"PK","name":"Khewra"},{"_id":1174042,"coord":{"lat":32.81493,"lon":73.863586},"country":"PK","name":"Kharian"},{"_id":1174062,"coord":{"lat":28.58333,"lon":65.416672},"country":"PK","name":"Kharan"},{"_id":1174167,"coord":{"lat":28.64534,"lon":70.6567},"country":"PK","name":"Khanpur"},{"_id":1174171,"coord":{"lat":27.84358,"lon":69.413727},"country":"PK","name":"Khanpur"},{"_id":1174211,"coord":{"lat":29.917299,"lon":71.161842},"country":"PK","name":"Khangarh"},{"_id":1174217,"coord":{"lat":31.831671,"lon":73.623062},"country":"PK","name":"Khangah Dogran"},{"_id":1174301,"coord":{"lat":34.060001,"lon":72.889442},"country":"PK","name":"Khalabat"},{"_id":1174344,"coord":{"lat":27.09359,"lon":67.733658},"country":"PK","name":"Khairpur Nathan Shah"},{"_id":1174355,"coord":{"lat":29.58111,"lon":72.236389},"country":"PK","name":"Khairpur"},{"_id":1174357,"coord":{"lat":28.06526,"lon":69.70076},"country":"PK","name":"Khairpur"},{"_id":1174653,"coord":{"lat":28.433331,"lon":69.583328},"country":"PK","name":"Kashmor"},{"_id":1174720,"coord":{"lat":31.227409,"lon":70.949226},"country":"PK","name":"Karor"},{"_id":1174870,"coord":{"lat":25.07267,"lon":67.203461},"country":"PK","name":"Karāchi District"},{"_id":1174872,"coord":{"lat":24.9056,"lon":67.082199},"country":"PK","name":"Karachi"},{"_id":1175088,"coord":{"lat":31.97444,"lon":74.224442},"country":"PK","name":"Kamoke"},{"_id":1175098,"coord":{"lat":30.433331,"lon":73.050003},"country":"PK","name":"Kamir"},{"_id":1175125,"coord":{"lat":32.843891,"lon":71.366943},"country":"PK","name":"Kamar Mushani"},{"_id":1175156,"coord":{"lat":30.73333,"lon":72.650002},"country":"PK","name":"Kamalia"},{"_id":1175180,"coord":{"lat":32.156391,"lon":71.259438},"country":"PK","name":"Kalur Kot"},{"_id":1175232,"coord":{"lat":32.783329,"lon":72.699997},"country":"PK","name":"Kallar Kahar"},{"_id":1175283,"coord":{"lat":31.97718,"lon":73.602592},"country":"PK","name":"Kaleke Mandi"},{"_id":1175296,"coord":{"lat":29.02252,"lon":66.591599},"country":"PK","name":"Kalat"},{"_id":1175365,"coord":{"lat":32.965,"lon":71.556969},"country":"PK","name":"Kalabagh"},{"_id":1175436,"coord":{"lat":33.591301,"lon":73.386757},"country":"PK","name":"Kahuta"},{"_id":1175446,"coord":{"lat":29.623819,"lon":71.916733},"country":"PK","name":"Kohror Pakka"},{"_id":1175453,"coord":{"lat":31.369169,"lon":74.36528},"country":"PK","name":"Kahna"},{"_id":1175560,"coord":{"lat":30.406771,"lon":71.866699},"country":"PK","name":"Kabirwala"},{"_id":1175678,"coord":{"lat":26.69206,"lon":67.613297},"country":"PK","name":"Johi"},{"_id":1175748,"coord":{"lat":31.56781,"lon":73.183472},"country":"PK","name":"Jhumra"},{"_id":1175762,"coord":{"lat":25.95507,"lon":68.888206},"country":"PK","name":"Jhol"},{"_id":1175870,"coord":{"lat":32.361389,"lon":72.62278},"country":"PK","name":"Jhawarian"},{"_id":1175892,"coord":{"lat":31.27154,"lon":72.328423},"country":"PK","name":"Jhang Sadr"},{"_id":1176022,"coord":{"lat":32.289799,"lon":72.281303},"country":"PK","name":"Jauharabad"},{"_id":1176035,"coord":{"lat":29.516541,"lon":70.850319},"country":"PK","name":"Jatoi Shimali"},{"_id":1176106,"coord":{"lat":31.33333,"lon":73.433327},"country":"PK","name":"Jaranwala"},{"_id":1176218,"coord":{"lat":33.429852,"lon":72.019279},"country":"PK","name":"Jand"},{"_id":1176241,"coord":{"lat":29.64414,"lon":70.595444},"country":"PK","name":"Jampur"},{"_id":1176358,"coord":{"lat":29.50687,"lon":71.21917},"country":"PK","name":"Jalalpur Pirwala"},{"_id":1176368,"coord":{"lat":32.63744,"lon":74.218292},"country":"PK","name":"Jalalpur"},{"_id":1176444,"coord":{"lat":31.805519,"lon":72.277107},"country":"PK","name":"Jahanian Shah"},{"_id":1162015,"coord":{"lat":33.7104,"lon":73.13382},"country":"PK","name":"Islāmābād Capital Territory"},{"_id":1176615,"coord":{"lat":33.721481,"lon":73.043289},"country":"PK","name":"Islamabad"},{"_id":1176734,"coord":{"lat":25.39242,"lon":68.373657},"country":"PK","name":"Hyderabad"},{"_id":1176948,"coord":{"lat":33.909142,"lon":72.492119},"country":"PK","name":"Hazro"},{"_id":1177064,"coord":{"lat":30.433331,"lon":72.699997},"country":"PK","name":"Hasan Abdal"},{"_id":1177073,"coord":{"lat":29.613331,"lon":73.138893},"country":"PK","name":"Haru Zbad"},{"_id":1177089,"coord":{"lat":32.279171,"lon":71.553886},"country":"PK","name":"Harnoli"},{"_id":1177107,"coord":{"lat":33.999969,"lon":72.93409},"country":"PK","name":"Haripur"},{"_id":1177203,"coord":{"lat":33.531078,"lon":71.059341},"country":"PK","name":"Hangu"},{"_id":1177278,"coord":{"lat":25.81308,"lon":68.422729},"country":"PK","name":"Hala"},{"_id":1177384,"coord":{"lat":32.06786,"lon":73.685448},"country":"PK","name":"Hafizabad"},{"_id":1177397,"coord":{"lat":32.641319,"lon":74.569038},"country":"PK","name":"Hadali"},{"_id":1177446,"coord":{"lat":25.12163,"lon":62.325409},"country":"PK","name":"Gwadar"},{"_id":1177662,"coord":{"lat":32.161671,"lon":74.188309},"country":"PK","name":"Gujranwala"},{"_id":1177682,"coord":{"lat":33.255791,"lon":73.302551},"country":"PK","name":"Gujar Khan"},{"_id":1178456,"coord":{"lat":28.006041,"lon":69.316078},"country":"PK","name":"Ghotki"},{"_id":1178587,"coord":{"lat":24.742411,"lon":67.585648},"country":"PK","name":"Gharo"},{"_id":1179061,"coord":{"lat":27.35145,"lon":68.520508},"country":"PK","name":"Gambat"},{"_id":1179255,"coord":{"lat":32.183331,"lon":75.066673},"country":"PK","name":"Fazalpur"},{"_id":1179305,"coord":{"lat":31.17959,"lon":71.209457},"country":"PK","name":"Chak Two Hundred Forty-Nine TDA"},{"_id":1179346,"coord":{"lat":31.88722,"lon":72.414398},"country":"PK","name":"Faruka"},{"_id":1179377,"coord":{"lat":29.466311,"lon":73.034027},"country":"PK","name":"Faqirwali"},{"_id":1179406,"coord":{"lat":32.042191,"lon":74.259438},"country":"PK","name":"Eminabad"},{"_id":1179450,"coord":{"lat":29.7995,"lon":71.719582},"country":"PK","name":"Dunyapur"},{"_id":1179463,"coord":{"lat":29.74931,"lon":73.24324},"country":"PK","name":"Dunga Bunga"},{"_id":1179496,"coord":{"lat":31.835871,"lon":71.436249},"country":"PK","name":"Dullewala"},{"_id":1179757,"coord":{"lat":35.20583,"lon":71.875557},"country":"PK","name":"Dir"},{"_id":1179760,"coord":{"lat":30.67091,"lon":73.652924},"country":"PK","name":"Dipalpur"},{"_id":1179790,"coord":{"lat":32.639759,"lon":73.722023},"country":"PK","name":"Dinga"},{"_id":1179834,"coord":{"lat":31.216669,"lon":72.98333},"country":"PK","name":"Dijkot"},{"_id":1179837,"coord":{"lat":25.15579,"lon":69.11129},"country":"PK","name":"Digri"},{"_id":1179902,"coord":{"lat":25.5,"lon":69.566673},"country":"PK","name":"Dhoro Naro"},{"_id":1180133,"coord":{"lat":29.57991,"lon":71.752129},"country":"PK","name":"Dhanot"},{"_id":1180289,"coord":{"lat":30.056141,"lon":70.634773},"country":"PK","name":"Dera Ghazi Khan"},{"_id":1180295,"coord":{"lat":29.030689,"lon":69.150993},"country":"PK","name":"Dera Bugti"},{"_id":1180374,"coord":{"lat":26.45834,"lon":68.319153},"country":"PK","name":"Daur"},{"_id":1180419,"coord":{"lat":32.874981,"lon":71.570122},"country":"PK","name":"Daud Khel"},{"_id":1180436,"coord":{"lat":32.324261,"lon":74.349739},"country":"PK","name":"Daska"},{"_id":1180454,"coord":{"lat":31.791229,"lon":71.103943},"country":"PK","name":"Darya Khan"},{"_id":1180752,"coord":{"lat":29.557671,"lon":70.376152},"country":"PK","name":"Dajal"},{"_id":1180825,"coord":{"lat":29.475269,"lon":67.651352},"country":"PK","name":"Dadhar"},{"_id":1180942,"coord":{"lat":30.96397,"lon":73.980293},"country":"PK","name":"Chunian"},{"_id":1180983,"coord":{"lat":31.75,"lon":73.800003},"country":"PK","name":"Chuhar Kana"},{"_id":1181022,"coord":{"lat":25.51667,"lon":69.76667},"country":"PK","name":"Chor"},{"_id":1181053,"coord":{"lat":32.720058,"lon":72.984863},"country":"PK","name":"Choa Saidan Shah"},{"_id":1181073,"coord":{"lat":29.799999,"lon":72.866669},"country":"PK","name":"Chishtian Mandi"},{"_id":1181163,"coord":{"lat":30.533331,"lon":72.699997},"country":"PK","name":"Chichawatni"},{"_id":1181352,"coord":{"lat":32.34692,"lon":74.706123},"country":"PK","name":"Chawinda"},{"_id":1181611,"coord":{"lat":30.923599,"lon":66.451157},"country":"PK","name":"Chaman"},{"_id":1181636,"coord":{"lat":32.93338,"lon":72.858528},"country":"PK","name":"Chakwal"},{"_id":1181887,"coord":{"lat":30.75,"lon":73.033333},"country":"PK","name":"Chak Azam Saffo"},{"_id":1182092,"coord":{"lat":30.16667,"lon":72.650002},"country":"PK","name":"Burewala"},{"_id":1182577,"coord":{"lat":32.428879,"lon":74.363297},"country":"PK","name":"Bhopalwala"},{"_id":1182607,"coord":{"lat":25.804371,"lon":68.492653},"country":"PK","name":"Bhit Shah"},{"_id":1182637,"coord":{"lat":32.975681,"lon":74.079262},"country":"PK","name":"Bhimbar"},{"_id":1182665,"coord":{"lat":32.483181,"lon":72.909698},"country":"PK","name":"Bhera"},{"_id":1182682,"coord":{"lat":31.56918,"lon":72.648987},"country":"PK","name":"Bhawana"},{"_id":1182775,"coord":{"lat":26.55831,"lon":67.72139},"country":"PK","name":"Bhan"},{"_id":1182787,"coord":{"lat":32.272041,"lon":72.904251},"country":"PK","name":"Bhalwal"},{"_id":1182815,"coord":{"lat":31.62525,"lon":71.065742},"country":"PK","name":"Bhakkar"},{"_id":1182829,"coord":{"lat":31.200001,"lon":73.949997},"country":"PK","name":"Bhai Pheru"},{"_id":1182998,"coord":{"lat":26.2271,"lon":66.311096},"country":"PK","name":"Bela"},{"_id":1183090,"coord":{"lat":34.616669,"lon":71.97139},"country":"PK","name":"Bat Khela"},{"_id":1183883,"coord":{"lat":29.998659,"lon":73.253601},"country":"PK","name":"Bahawalnagar"},{"_id":1184075,"coord":{"lat":31.99283,"lon":74.668343},"country":"PK","name":"Baddomalhi"},{"_id":1184249,"coord":{"lat":33.773109,"lon":72.3741},"country":"PK","name":"Attock City"},{"_id":1184370,"coord":{"lat":30.293989,"lon":73.07354},"country":"PK","name":"Arifwala"},{"_id":1184569,"coord":{"lat":34.005829,"lon":71.93},"country":"PK","name":"Amangarh"},{"_id":1184752,"coord":{"lat":34.003609,"lon":72.126106},"country":"PK","name":"Akora"},{"_id":1184845,"coord":{"lat":29.143089,"lon":71.259758},"country":"PK","name":"Ahmadpur East"},{"_id":1341204,"coord":{"lat":33.99667,"lon":72.013062},"country":"PK","name":"Nowshera Cantonment"},{"_id":1357699,"coord":{"lat":27.341669,"lon":68.031937},"country":"PK","name":"New Badah"},{"_id":1360491,"coord":{"lat":25.131109,"lon":68.867592},"country":"PK","name":"Tando Ghulam Ali"},{"_id":1412008,"coord":{"lat":27.2127,"lon":68.468826},"country":"PK","name":"Setharja Old"},{"_id":1448637,"coord":{"lat":34.061859,"lon":71.991661},"country":"PK","name":"Risalpur"},{"_id":6457378,"coord":{"lat":32.55492,"lon":73.212196},"country":"PK","name":"Malakwal City"},{"_id":1111188,"coord":{"lat":34.826359,"lon":71.841492},"country":"PK","name":"Timurgara"},{"_id":1162035,"coord":{"lat":27.93697,"lon":69.31868},"country":"PK","name":"Adilpur"},{"_id":1162094,"coord":{"lat":30.382299,"lon":67.728218},"country":"PK","name":"Ziarat"},{"_id":1162634,"coord":{"lat":32.298889,"lon":69.572502},"country":"PK","name":"Wana"},{"_id":1163912,"coord":{"lat":28.2787,"lon":68.997177},"country":"PK","name":"Tangwani"},{"_id":1163953,"coord":{"lat":25.99444,"lon":69.202469},"country":"PK","name":"Tando Mittha Khan"},{"_id":1163964,"coord":{"lat":24.78857,"lon":68.966141},"country":"PK","name":"Tando Bago"},{"_id":1164306,"coord":{"lat":28.49139,"lon":66.258499},"country":"PK","name":"Surab"},{"_id":1164660,"coord":{"lat":28.52017,"lon":68.543442},"country":"PK","name":"Sohbatpur"},{"_id":1164698,"coord":{"lat":27.30459,"lon":68.397636},"country":"PK","name":"Sobhadero"},{"_id":1164709,"coord":{"lat":35.288509,"lon":75.633339},"country":"PK","name":"Skardu"},{"_id":1165057,"coord":{"lat":34.329201,"lon":71.178207},"country":"PK","name":"Shinpokh"},{"_id":1165518,"coord":{"lat":32.267601,"lon":72.472038},"country":"PK","name":"Shahpur"},{"_id":1166115,"coord":{"lat":26.04184,"lon":68.137772},"country":"PK","name":"Sann"},{"_id":1166118,"coord":{"lat":33.76083,"lon":72.433609},"country":"PK","name":"Sanjwal"},{"_id":1166275,"coord":{"lat":25.281469,"lon":69.396538},"country":"PK","name":"Samaro"},{"_id":1166720,"coord":{"lat":27.968969,"lon":68.80481},"country":"PK","name":"Rustam jo Goth"},{"_id":1166819,"coord":{"lat":28.686769,"lon":69.95343},"country":"PK","name":"Rojhan"},{"_id":1167064,"coord":{"lat":32.328529,"lon":73.781357},"country":"PK","name":"Rasulnagar"},{"_id":1167342,"coord":{"lat":24.984051,"lon":68.853569},"country":"PK","name":"Rajo Khanani"},{"_id":1167550,"coord":{"lat":30.7013,"lon":68.359932},"country":"PK","name":"Qila Saifullah"},{"_id":1167579,"coord":{"lat":30.72917,"lon":66.660828},"country":"PK","name":"Qila Abdullah"},{"_id":1167798,"coord":{"lat":25.51667,"lon":69.383331},"country":"PK","name":"Pithoro"},{"_id":1168101,"coord":{"lat":26.882509,"lon":67.680702},"country":"PK","name":"Phulji"},{"_id":1168446,"coord":{"lat":26.96446,"lon":64.090279},"country":"PK","name":"Panjgur"},{"_id":1168544,"coord":{"lat":33.717701,"lon":73.687393},"country":"PK","name":"Palandri"},{"_id":1168700,"coord":{"lat":25.208799,"lon":64.635696},"country":"PK","name":"Ormara"},{"_id":1168864,"coord":{"lat":34.005821,"lon":71.997726},"country":"PK","name":"Nowshera"},{"_id":1169027,"coord":{"lat":33.141762,"lon":73.767357},"country":"PK","name":"New Mirpur"},{"_id":1169580,"coord":{"lat":25.068541,"lon":69.641861},"country":"PK","name":"Nabisar"},{"_id":1169663,"coord":{"lat":30.860571,"lon":69.822952},"country":"PK","name":"Musa Khel Bazar"},{"_id":1170281,"coord":{"lat":25.30928,"lon":69.052109},"country":"PK","name":"Mirwah Gorchani"},{"_id":1170290,"coord":{"lat":24.547421,"lon":67.627708},"country":"PK","name":"Mirpur Sakro"},{"_id":1170299,"coord":{"lat":24.728609,"lon":68.260262},"country":"PK","name":"Mirpur Batoro"},{"_id":1170312,"coord":{"lat":27.759911,"lon":68.092117},"country":"PK","name":"Miro Khan"},{"_id":1170367,"coord":{"lat":33.00861,"lon":70.069717},"country":"PK","name":"Miram Shah"},{"_id":1170974,"coord":{"lat":31.38656,"lon":71.440666},"country":"PK","name":"Mankera"},{"_id":1171677,"coord":{"lat":27.754431,"lon":68.45256},"country":"PK","name":"Madeji"},{"_id":1171991,"coord":{"lat":32.206509,"lon":72.95372},"country":"PK","name":"Liliani"},{"_id":1172208,"coord":{"lat":34.101669,"lon":71.146667},"country":"PK","name":"Landi Kotal"},{"_id":1172389,"coord":{"lat":27.849581,"lon":68.699364},"country":"PK","name":"Lakhi"},{"_id":1172866,"coord":{"lat":30.773701,"lon":70.931252},"country":"PK","name":"Kot Sultan"},{"_id":1173464,"coord":{"lat":29.896151,"lon":69.251991},"country":"PK","name":"Kohlu"},{"_id":1174074,"coord":{"lat":33.117378,"lon":71.094902},"country":"PK","name":"Karak"},{"_id":1174094,"coord":{"lat":35.152679,"lon":76.34404},"country":"PK","name":"Khapalu"},{"_id":1174408,"coord":{"lat":26.14723,"lon":68.717644},"country":"PK","name":"Khadro"},{"_id":1174451,"coord":{"lat":24.14472,"lon":67.449722},"country":"PK","name":"Keti Bandar"},{"_id":1174765,"coord":{"lat":24.80817,"lon":68.604477},"country":"PK","name":"Kario"},{"_id":1174815,"coord":{"lat":26.897449,"lon":68.406807},"country":"PK","name":"Karaundi"},{"_id":1175012,"coord":{"lat":26.915581,"lon":68.521599},"country":"PK","name":"Kandiari"},{"_id":1175297,"coord":{"lat":32.200932,"lon":74.649139},"country":"PK","name":"Kalaswala"},{"_id":1175506,"coord":{"lat":24.48102,"lon":68.985901},"country":"PK","name":"Kadhan"},{"_id":1175873,"coord":{"lat":28.374769,"lon":68.34874},"country":"PK","name":"Jhatpat"},{"_id":1176048,"coord":{"lat":24.353901,"lon":68.267059},"country":"PK","name":"Jati"},{"_id":1176206,"coord":{"lat":31.81986,"lon":73.918121},"country":"PK","name":"Jandiala Sher Khan"},{"_id":1176229,"coord":{"lat":25.43939,"lon":68.290268},"country":"PK","name":"Jamshoro"},{"_id":1176608,"coord":{"lat":24.699699,"lon":70.177002},"country":"PK","name":"Islamkot"},{"_id":1177098,"coord":{"lat":30.10047,"lon":67.937408},"country":"PK","name":"Harnai"},{"_id":1178843,"coord":{"lat":27.9069,"lon":68.510963},"country":"PK","name":"Garhi Yasin"},{"_id":1178858,"coord":{"lat":28.060579,"lon":67.98027},"country":"PK","name":"Garhi Khairo"},{"_id":1178902,"coord":{"lat":27.435169,"lon":68.0755},"country":"PK","name":"Goth Garelo"},{"_id":1179030,"coord":{"lat":28.6127,"lon":67.485397},"country":"PK","name":"Gandava"},{"_id":1179082,"coord":{"lat":36.17683,"lon":73.763832},"country":"PK","name":"Gakuch"},{"_id":1179185,"coord":{"lat":25.11853,"lon":66.729851},"country":"PK","name":"Gadani"},{"_id":1179515,"coord":{"lat":30.15414,"lon":68.5728},"country":"PK","name":"Duki"},{"_id":1179660,"coord":{"lat":27.374269,"lon":68.096733},"country":"PK","name":"Dokri"},{"_id":1179724,"coord":{"lat":33.424438,"lon":70.736389},"country":"PK","name":"Doaba"},{"_id":1179758,"coord":{"lat":24.466669,"lon":69.584007},"country":"PK","name":"Diplo"},{"_id":1180071,"coord":{"lat":32.406231,"lon":74.136871},"country":"PK","name":"Dhaunkal"},{"_id":1180379,"coord":{"lat":33.192532,"lon":73.141281},"country":"PK","name":"Daultala"},{"_id":1180397,"coord":{"lat":26.501539,"lon":67.970596},"country":"PK","name":"Daulatpur"},{"_id":1180453,"coord":{"lat":26.677481,"lon":68.285896},"country":"PK","name":"Darya Khan Marri"},{"_id":1180491,"coord":{"lat":24.79463,"lon":68.180519},"country":"PK","name":"Daro Mehar"},{"_id":1180729,"coord":{"lat":28.894699,"lon":64.410088},"country":"PK","name":"Dalbandin"},{"_id":1180757,"coord":{"lat":30.5702,"lon":70.936111},"country":"PK","name":"Daira Din Panah"},{"_id":1180787,"coord":{"lat":34.510281,"lon":72.484322},"country":"PK","name":"Daggar"},{"_id":1181065,"coord":{"lat":35.84623,"lon":71.785797},"country":"PK","name":"Chitral"},{"_id":1181138,"coord":{"lat":35.41172,"lon":74.103523},"country":"PK","name":"Chilas"},{"_id":1181600,"coord":{"lat":25.293131,"lon":68.812012},"country":"PK","name":"Chambar"},{"_id":1181910,"coord":{"lat":27.85754,"lon":68.832916},"country":"PK","name":"Chak"},{"_id":1182159,"coord":{"lat":24.866671,"lon":68.333328},"country":"PK","name":"Bulri"},{"_id":1182295,"coord":{"lat":27.182751,"lon":68.63604},"country":"PK","name":"Bozdar"},{"_id":1182622,"coord":{"lat":26.910669,"lon":68.194839},"country":"PK","name":"Bhiria"},{"_id":1182872,"coord":{"lat":29.0415,"lon":67.823898},"country":"PK","name":"Bhag"},{"_id":1182953,"coord":{"lat":25.785,"lon":68.806862},"country":"PK","name":"Berani"},{"_id":1183018,"coord":{"lat":32.437592,"lon":74.268242},"country":"PK","name":"Begowala"},{"_id":1183105,"coord":{"lat":34.677189,"lon":73.023293},"country":"PK","name":"Batgram"},{"_id":1183307,"coord":{"lat":29.897699,"lon":69.525551},"country":"PK","name":"Barkhan"},{"_id":1183511,"coord":{"lat":26.58613,"lon":68.300583},"country":"PK","name":"Bandhi"},{"_id":1183749,"coord":{"lat":30.735861,"lon":70.837959},"country":"PK","name":"Bakhri Ahmad Khan"},{"_id":1183992,"coord":{"lat":33.98111,"lon":73.776077},"country":"PK","name":"Bagh"},{"_id":1184008,"coord":{"lat":27.755989,"lon":68.752357},"country":"PK","name":"Bagarji"},{"_id":1184020,"coord":{"lat":34.43782,"lon":73.219368},"country":"PK","name":"Baffa"},{"_id":1184205,"coord":{"lat":26.4555,"lon":65.231201},"country":"PK","name":"Awaran"},{"_id":1184626,"coord":{"lat":33.53833,"lon":70.346161},"country":"PK","name":"Alizai"},{"_id":1184701,"coord":{"lat":36.30703,"lon":74.615448},"country":"PK","name":"Aliabad"},{"_id":1330335,"coord":{"lat":31.30677,"lon":72.32814},"country":"PK","name":"Jhang City"},{"_id":1339742,"coord":{"lat":32.670738,"lon":70.339218},"country":"PK","name":"Gulishah Kach"},{"_id":1347134,"coord":{"lat":30.48963,"lon":67.522614},"country":"PK","name":"Alik Ghund"},{"_id":1347927,"coord":{"lat":30.74774,"lon":67.708458},"country":"PK","name":"Khadan Khak"},{"_id":1397479,"coord":{"lat":28.54657,"lon":68.223083},"country":"PK","name":"Dera Murad Jamali"},{"_id":1403734,"coord":{"lat":26.29583,"lon":68.629173},"country":"PK","name":"Jam Sahib"},{"_id":1410796,"coord":{"lat":28.01944,"lon":67.92083},"country":"PK","name":"Chowki Jamali"},{"_id":1453226,"coord":{"lat":34.251949,"lon":71.96656},"country":"PK","name":"Noorabad"},{"_id":1482305,"coord":{"lat":34.920582,"lon":72.632561},"country":"PK","name":"Alpurai"},{"_id":6940901,"coord":{"lat":32.785179,"lon":73.823059},"country":"PK","name":"Mehmand Chak"},{"_id":6949083,"coord":{"lat":30.787689,"l