{"countryCityList":[{"_id":798544,"coord":{"lat":52,"lon":20},"country":"PL","name":"Republic of Poland"},{"_id":3094325,"coord":{"lat":52.150002,"lon":19.383329},"country":"PL","name":"Kuchary"},{"_id":3082707,"coord":{"lat":50.771412,"lon":16.284321},"country":"PL","name":"Walbrzych"},{"_id":3091150,"coord":{"lat":53.142139,"lon":17.60181},"country":"PL","name":"Naklo nad Notecia"},{"_id":7530966,"coord":{"lat":52.665379,"lon":19.060829},"country":"PL","name":"Włocławek"},{"_id":7531696,"coord":{"lat":53.7742,"lon":15.7973},"country":"PL","name":"Świdwin"},{"_id":7530961,"coord":{"lat":49.960629,"lon":18.600531},"country":"PL","name":"Jastrzębie-Zdrój"},{"_id":7532652,"coord":{"lat":51.3545,"lon":19.3626},"country":"PL","name":"Bełchatów"},{"_id":7532438,"coord":{"lat":50.297901,"lon":18.9102},"country":"PL","name":"Świętochłowice"},{"_id":7530929,"coord":{"lat":52.83353,"lon":19.71216},"country":"PL","name":"Powiat sierpecki"},{"_id":7531863,"coord":{"lat":49.960602,"lon":18.6005},"country":"PL","name":"Jastrzębie-Zdrój"},{"_id":7531533,"coord":{"lat":52.42424,"lon":19.46258},"country":"PL","name":"Gostynin"},{"_id":3090990,"coord":{"lat":50.389091,"lon":19.42263},"country":"PL","name":"Niegowonice"},{"_id":3090285,"coord":{"lat":50.451771,"lon":19.519871},"country":"PL","name":"Ogrodzieniec"},{"_id":3093768,"coord":{"lat":50.427689,"lon":19.39465},"country":"PL","name":"Lazy"},{"_id":3081368,"coord":{"lat":51.099998,"lon":17.033331},"country":"PL","name":"Wroclaw"},{"_id":3337493,"coord":{"lat":51.5,"lon":19.5},"country":"PL","name":"Województwo Łódzkie"},{"_id":758116,"coord":{"lat":50.440182,"lon":20.937799},"country":"PL","name":"Stopnica"},{"_id":764758,"coord":{"lat":51.351639,"lon":20.06139},"country":"PL","name":"Mikułowice"},{"_id":7532212,"coord":{"lat":51.417198,"lon":21.156099},"country":"PL","name":"Radom"},{"_id":7530747,"coord":{"lat":51.639462,"lon":21.4958},"country":"PL","name":"Powiat kozienicki"},{"_id":759245,"coord":{"lat":51.986809,"lon":21.119061},"country":"PL","name":"Sierzchów"},{"_id":7531413,"coord":{"lat":52.23954,"lon":21.681141},"country":"PL","name":"Jakubów"},{"_id":3337499,"coord":{"lat":53.5,"lon":15.5},"country":"PL","name":"Województwo Zachodniopomorskie"},{"_id":766023,"coord":{"lat":53.17382,"lon":22.03982},"country":"PL","name":"Łomżyca"},{"_id":7530931,"coord":{"lat":53.800991,"lon":17.718821},"country":"PL","name":"Powiat chojnicki"},{"_id":764312,"coord":{"lat":53.864368,"lon":21.305071},"country":"PL","name":"Mragowo"},{"_id":7533313,"coord":{"lat":50.754501,"lon":17.630301},"country":"PL","name":"Lewin Brzeski"},{"_id":3084052,"coord":{"lat":52.366669,"lon":16.883329},"country":"PL","name":"Swierczewo"},{"_id":759083,"coord":{"lat":50.481899,"lon":21.57295},"country":"PL","name":"Skopanie"},{"_id":3088161,"coord":{"lat":53.755001,"lon":19.205469},"country":"PL","name":"Prabuty"},{"_id":7530821,"coord":{"lat":50.388821,"lon":16.611851},"country":"PL","name":"Powiat kłodzki"},{"_id":7532745,"coord":{"lat":53.018398,"lon":20.885},"country":"PL","name":"Przasnysz"},{"_id":3093826,"coord":{"lat":53.416672,"lon":14.56667},"country":"PL","name":"Łasztownia"},{"_id":3080902,"coord":{"lat":51.74049,"lon":18.082081},"country":"PL","name":"Zagórzynek"},{"_id":766573,"coord":{"lat":49.98333,"lon":20.066669},"country":"PL","name":"Lednica Niemiecka"},{"_id":6690165,"coord":{"lat":49.89032,"lon":19.48374},"country":"PL","name":"Powiat wadowicki"},{"_id":7531689,"coord":{"lat":53.215801,"lon":22.150299},"country":"PL","name":"Piątnica"},{"_id":7532503,"coord":{"lat":50.573639,"lon":21.681601},"country":"PL","name":"Tarnobrzeg"},{"_id":7532344,"coord":{"lat":50.038898,"lon":18.689199},"country":"PL","name":"Żory"},{"_id":7532893,"coord":{"lat":50.391499,"lon":18.6007},"country":"PL","name":"Pyskowice"},{"_id":7533463,"coord":{"lat":54.055698,"lon":15.2825},"country":"PL","name":"Trzebiatów"},{"_id":3101425,"coord":{"lat":54.612179,"lon":18.35445},"country":"PL","name":"Ciechocino"},{"_id":7530890,"coord":{"lat":52.554649,"lon":19.7857},"country":"PL","name":"Powiat płocki"},{"_id":7530898,"coord":{"lat":50.08913,"lon":22.536819},"country":"PL","name":"Powiat przeworski"},{"_id":7532267,"coord":{"lat":50.6754,"lon":16.6028},"country":"PL","name":"Bielawa"},{"_id":7533405,"coord":{"lat":50.942799,"lon":16.4932},"country":"PL","name":"Żarów"},{"_id":7532312,"coord":{"lat":50.124001,"lon":22.0774},"country":"PL","name":"Trzebownisko"},{"_id":7533336,"coord":{"lat":50.624599,"lon":23.723499},"country":"PL","name":"Tyszowce"},{"_id":7532210,"coord":{"lat":51.426498,"lon":21.9772},"country":"PL","name":"Puławy"},{"_id":7532192,"coord":{"lat":50.721298,"lon":23.248501},"country":"PL","name":"Zamość"},{"_id":6690166,"coord":{"lat":49.985699,"lon":20.054939},"country":"PL","name":"Powiat wielicki"},{"_id":7533001,"coord":{"lat":49.987801,"lon":20.046},"country":"PL","name":"Wieliczka"},{"_id":7532300,"coord":{"lat":51.0383,"lon":21.0716},"country":"PL","name":"Starachowice"},{"_id":7533534,"coord":{"lat":53.406799,"lon":23.5026},"country":"PL","name":"Sokółka"},{"_id":7532815,"coord":{"lat":52.161701,"lon":22.2757},"country":"PL","name":"Siedlce"},{"_id":7532279,"coord":{"lat":52.185501,"lon":20.8463},"country":"PL","name":"Piastów"},{"_id":762381,"coord":{"lat":52.184349,"lon":20.83952},"country":"PL","name":"Piastow"},{"_id":7531013,"coord":{"lat":54.051289,"lon":22.41695},"country":"PL","name":"Powiat olecki"},{"_id":7530865,"coord":{"lat":51.853649,"lon":22.240351},"country":"PL","name":"Powiat łukowski"},{"_id":7533497,"coord":{"lat":52.333199,"lon":20.8939},"country":"PL","name":"Łomianki"},{"_id":7533052,"coord":{"lat":51.302502,"lon":22.885099},"country":"PL","name":"Łęczna"},{"_id":7533050,"coord":{"lat":52.993698,"lon":22.8771},"country":"PL","name":"Łapy"},{"_id":7530741,"coord":{"lat":50.915352,"lon":22.14576},"country":"PL","name":"Powiat kraśnicki"},{"_id":7532072,"coord":{"lat":50.943401,"lon":22.213301},"country":"PL","name":"Kraśnik"},{"_id":7533415,"coord":{"lat":52.083801,"lon":21.1056},"country":"PL","name":"Konstancin-Jeziorna"},{"_id":6695624,"coord":{"lat":52.23547,"lon":21.04191},"country":"PL","name":"Warszawa"},{"_id":7530738,"coord":{"lat":50.70776,"lon":23.86307},"country":"PL","name":"Powiat hrubieszowski"},{"_id":773357,"coord":{"lat":51.55912,"lon":21.848289},"country":"PL","name":"Deblin"},{"_id":7530729,"coord":{"lat":51.135578,"lon":23.48971},"country":"PL","name":"Chełm"},{"_id":7531906,"coord":{"lat":50.505798,"lon":19.4704},"country":"PL","name":"Zawiercie"},{"_id":3081046,"coord":{"lat":50.589691,"lon":16.812389},"country":"PL","name":"Zabkowice Slaskie"},{"_id":7530984,"coord":{"lat":50.126499,"lon":19.0084},"country":"PL","name":"Tychy"},{"_id":7532522,"coord":{"lat":50.1264,"lon":19.008301},"country":"PL","name":"Tychy"},{"_id":7531734,"coord":{"lat":52.016102,"lon":18.511499},"country":"PL","name":"Turek"},{"_id":7530954,"coord":{"lat":52.928848,"lon":16.346729},"country":"PL","name":"Powiat czarnkowsko-trzcianecki"},{"_id":7533143,"coord":{"lat":53.042599,"lon":16.446501},"country":"PL","name":"Trzcianka"},{"_id":3084085,"coord":{"lat":53.774639,"lon":15.77671},"country":"PL","name":"Swidwin"},{"_id":7531589,"coord":{"lat":53.965469,"lon":18.526449},"country":"PL","name":"Starogard Gdański"},{"_id":3084826,"coord":{"lat":53.963959,"lon":18.526381},"country":"PL","name":"Starogard Gdanski"},{"_id":7531080,"coord":{"lat":52.061489,"lon":17.058531},"country":"PL","name":"Powiat śremski"},{"_id":3085056,"coord":{"lat":52.08868,"lon":17.015079},"country":"PL","name":"Srem"},{"_id":3085807,"coord":{"lat":49.975239,"lon":19.82869},"country":"PL","name":"Skawina"},{"_id":7531338,"coord":{"lat":52.85323,"lon":19.665211},"country":"PL","name":"Sierpc"},{"_id":3085941,"coord":{"lat":52.8568,"lon":19.66913},"country":"PL","name":"Sierpc"},{"_id":7530985,"coord":{"lat":50.312309,"lon":19.023199},"country":"PL","name":"Siemianowice Śląskie"},{"_id":7531569,"coord":{"lat":50.312309,"lon":19.023199},"country":"PL","name":"Siemianowice Śląskie"},{"_id":7531610,"coord":{"lat":53.066212,"lon":19.40885},"country":"PL","name":"Rypin"},{"_id":3086511,"coord":{"lat":53.066029,"lon":19.40941},"country":"PL","name":"Rypin"},{"_id":7530790,"coord":{"lat":50.110821,"lon":18.549259},"country":"PL","name":"Rybnik"},{"_id":7531758,"coord":{"lat":50.110802,"lon":18.5492},"country":"PL","name":"Rybnik"},{"_id":7531588,"coord":{"lat":50.270061,"lon":18.874241},"country":"PL","name":"Ruda Śląska"},{"_id":3087281,"coord":{"lat":54.605282,"lon":18.34717},"country":"PL","name":"Reda"},{"_id":7531844,"coord":{"lat":50.4016,"lon":18.900999},"country":"PL","name":"Radzionków"},{"_id":3087418,"coord":{"lat":50.400261,"lon":18.902321},"country":"PL","name":"Radzionkow"},{"_id":7531104,"coord":{"lat":50.04118,"lon":18.466009},"country":"PL","name":"Radlin"},{"_id":7533171,"coord":{"lat":51.894001,"lon":17.7864},"country":"PL","name":"Pleszew"},{"_id":7533061,"coord":{"lat":52.3111,"lon":16.133101},"country":"PL","name":"Nowy Tomyśl"},{"_id":3090452,"coord":{"lat":52.3195,"lon":16.128441},"country":"PL","name":"Nowy Tomysl"},{"_id":7532873,"coord":{"lat":50.564602,"lon":19.3274},"country":"PL","name":"Myszków"},{"_id":3094788,"coord":{"lat":50.475151,"lon":17.965389},"country":"PL","name":"Krapkowice"},{"_id":7532538,"coord":{"lat":54.2071,"lon":16.2166},"country":"PL","name":"Koszalin"},{"_id":7532028,"coord":{"lat":52.083401,"lon":16.649401},"country":"PL","name":"Kościan"},{"_id":7533189,"coord":{"lat":50.974499,"lon":18.2204},"country":"PL","name":"Kluczbork"},{"_id":3096003,"coord":{"lat":50.972809,"lon":18.218161},"country":"PL","name":"Kluczbork"},{"_id":3097271,"coord":{"lat":51.021019,"lon":17.32095},"country":"PL","name":"Jelcz"},{"_id":7533024,"coord":{"lat":51.961498,"lon":17.5075},"country":"PL","name":"Jarocin"},{"_id":3097528,"coord":{"lat":51.97266,"lon":17.50256},"country":"PL","name":"Jarocin"},{"_id":3098201,"coord":{"lat":53.9165,"lon":15.20027},"country":"PL","name":"Gryfice"},{"_id":3098619,"coord":{"lat":52.429379,"lon":19.461941},"country":"PL","name":"Gostynin"},{"_id":7531632,"coord":{"lat":52.524921,"lon":17.603279},"country":"PL","name":"Gniezno"},{"_id":3099169,"coord":{"lat":50.315048,"lon":17.383551},"country":"PL","name":"Glucholazy"},{"_id":3099180,"coord":{"lat":51.96463,"lon":19.715651},"country":"PL","name":"Glowno"},{"_id":7530814,"coord":{"lat":53.12973,"lon":18.0383},"country":"PL","name":"Bydgoszcz"},{"_id":7531378,"coord":{"lat":53.12973,"lon":18.0383},"country":"PL","name":"Bydgoszcz"},{"_id":3099654,"coord":{"lat":53.148209,"lon":18.170361},"country":"PL","name":"Fordon"},{"_id":3100974,"coord":{"lat":50.15007,"lon":18.67762},"country":"PL","name":"Czerwionka-Leszczyny"},{"_id":7531551,"coord":{"lat":50.319191,"lon":19.08231},"country":"PL","name":"Czeladź"},{"_id":3103709,"coord":{"lat":51.368832,"lon":19.35671},"country":"PL","name":"Belchatow"},{"_id":763310,"coord":{"lat":49.55315,"lon":22.233049},"country":"PL","name":"Olchowce"},{"_id":7531037,"coord":{"lat":50.45583,"lon":20.87624},"country":"PL","name":"Powiat buski"},{"_id":7531876,"coord":{"lat":50.458302,"lon":20.922899},"country":"PL","name":"Stopnica"},{"_id":3090046,"coord":{"lat":50.671188,"lon":17.929741},"country":"PL","name":"Opole-Szczepanowice"},{"_id":760155,"coord":{"lat":50.695148,"lon":22.383101},"country":"PL","name":"Ruda"},{"_id":776174,"coord":{"lat":50.712849,"lon":22.425329},"country":"PL","name":"Biała Poduchowna"},{"_id":771210,"coord":{"lat":50.96685,"lon":21.400961},"country":"PL","name":"Gutwin"},{"_id":7530982,"coord":{"lat":51.41724,"lon":21.15613},"country":"PL","name":"Radom"},{"_id":3086247,"coord":{"lat":51.631901,"lon":16.908091},"country":"PL","name":"Sarnówka"},{"_id":755270,"coord":{"lat":52.126572,"lon":21.39344},"country":"PL","name":"Wola Karczewska"},{"_id":7530877,"coord":{"lat":52.184292,"lon":21.608931},"country":"PL","name":"Powiat miński"},{"_id":759065,"coord":{"lat":53.135239,"lon":23.180019},"country":"PL","name":"Skorupy"},{"_id":3089822,"coord":{"lat":53.155331,"lon":17.912189},"country":"PL","name":"Osowa Góra"},{"_id":3337496,"coord":{"lat":54.25,"lon":18},"country":"PL","name":"Województwo Pomorskie"},{"_id":766303,"coord":{"lat":53.795681,"lon":20.4345},"country":"PL","name":"Likusy"},{"_id":7531072,"coord":{"lat":53.810631,"lon":21.397579},"country":"PL","name":"Powiat mrągowski"},{"_id":7531477,"coord":{"lat":53.8685,"lon":21.29887},"country":"PL","name":"Mrągowo"},{"_id":7532643,"coord":{"lat":52.3367,"lon":16.8729},"country":"PL","name":"Luboń"},{"_id":767369,"coord":{"lat":49.410259,"lon":20.9555},"country":"PL","name":"Krynica-Wieś"},{"_id":767234,"coord":{"lat":49.65715,"lon":22.201139},"country":"PL","name":"Krzywe"},{"_id":7533532,"coord":{"lat":53.7495,"lon":19.2145},"country":"PL","name":"Prabuty"},{"_id":7531693,"coord":{"lat":50.433701,"lon":16.649},"country":"PL","name":"Kłodzko"},{"_id":3081203,"coord":{"lat":50.166672,"lon":18.9},"country":"PL","name":"Wymyślanka"},{"_id":7530839,"coord":{"lat":50.583851,"lon":21.69874},"country":"PL","name":"Tarnobrzeg"},{"_id":7530953,"coord":{"lat":50.03896,"lon":18.6884},"country":"PL","name":"Żory"},{"_id":7531247,"coord":{"lat":50.05452,"lon":22.50116},"country":"PL","name":"Przeworsk"},{"_id":3081069,"coord":{"lat":49.941551,"lon":18.314381},"country":"PL","name":"Zabełków"},{"_id":3082359,"coord":{"lat":49.982578,"lon":17.86652},"country":"PL","name":"Wiechowice"},{"_id":7530730,"coord":{"lat":50.721401,"lon":23.24852},"country":"PL","name":"Zamość"},{"_id":7533365,"coord":{"lat":52.342602,"lon":21.2362},"country":"PL","name":"Wołomin"},{"_id":7530871,"coord":{"lat":51.124699,"lon":22.85397},"country":"PL","name":"Powiat świdnicki"},{"_id":7531487,"coord":{"lat":51.216709,"lon":22.68494},"country":"PL","name":"Świdnik"},{"_id":7532739,"coord":{"lat":51.122898,"lon":20.8752},"country":"PL","name":"Skarżysko-Kamienna"},{"_id":7532294,"coord":{"lat":52.420502,"lon":22.875099},"country":"PL","name":"Siemiatycze"},{"_id":7530940,"coord":{"lat":52.161751,"lon":22.275749},"country":"PL","name":"Siedlce"},{"_id":7531704,"coord":{"lat":52.172001,"lon":20.798599},"country":"PL","name":"Pruszków"},{"_id":7532584,"coord":{"lat":52.116001,"lon":21.289301},"country":"PL","name":"Otwock"},{"_id":7533381,"coord":{"lat":54.036098,"lon":22.4981},"country":"PL","name":"Olecko"},{"_id":7533317,"coord":{"lat":50.503201,"lon":22.129},"country":"PL","name":"Nisko"},{"_id":7531822,"coord":{"lat":52.124802,"lon":20.6703},"country":"PL","name":"Milanówek"},{"_id":7531123,"coord":{"lat":51.458408,"lon":22.605869},"country":"PL","name":"Lubartów"},{"_id":7530773,"coord":{"lat":53.182671,"lon":22.05888},"country":"PL","name":"Łomża"},{"_id":7531442,"coord":{"lat":53.182671,"lon":22.05888},"country":"PL","name":"Łomża"},{"_id":7531029,"coord":{"lat":52.268379,"lon":20.619129},"country":"PL","name":"Powiat warszawski zachodni"},{"_id":7531926,"coord":{"lat":52.233101,"lon":21.061399},"country":"PL","name":"Warszawa"},{"_id":7533507,"coord":{"lat":52.105202,"lon":20.6332},"country":"PL","name":"Grodzisk Mazowiecki"},{"_id":7531646,"coord":{"lat":53.823898,"lon":22.3598},"country":"PL","name":"Ełk"},{"_id":7532275,"coord":{"lat":51.567299,"lon":21.8743},"country":"PL","name":"Dęblin"},{"_id":7532583,"coord":{"lat":50.539001,"lon":22.711599},"country":"PL","name":"Biłgoraj"},{"_id":7532895,"coord":{"lat":49.706299,"lon":19.2097},"country":"PL","name":"Żywiec"},{"_id":7532319,"coord":{"lat":53.374001,"lon":17.066299},"country":"PL","name":"Złotów"},{"_id":3080071,"coord":{"lat":53.363461,"lon":17.040819},"country":"PL","name":"Zlotow"},{"_id":7532956,"coord":{"lat":52.665298,"lon":19.060801},"country":"PL","name":"Włocławek"},{"_id":7532411,"coord":{"lat":52.812199,"lon":17.1978},"country":"PL","name":"Wągrowiec"},{"_id":7531004,"coord":{"lat":51.995811,"lon":18.49301},"country":"PL","name":"Powiat turecki"},{"_id":7530992,"coord":{"lat":50.297958,"lon":18.910219},"country":"PL","name":"Świętochłowice"},{"_id":7533428,"coord":{"lat":52.244202,"lon":15.5311},"country":"PL","name":"Świebodzin"},{"_id":3084062,"coord":{"lat":52.247509,"lon":15.53355},"country":"PL","name":"Swiebodzin"},{"_id":7531011,"coord":{"lat":53.807579,"lon":15.89859},"country":"PL","name":"Powiat świdwiński"},{"_id":7533378,"coord":{"lat":52.0867,"lon":17.0187},"country":"PL","name":"Śrem"},{"_id":7533539,"coord":{"lat":49.973301,"lon":19.825001},"country":"PL","name":"Skawina"},{"_id":7530915,"coord":{"lat":53.066132,"lon":19.40975},"country":"PL","name":"Powiat rypiński"},{"_id":7530951,"coord":{"lat":50.270061,"lon":18.874241},"country":"PL","name":"Ruda Śląska"},{"_id":7531598,"coord":{"lat":54.608559,"lon":18.348881},"country":"PL","name":"Reda"},{"_id":7530844,"coord":{"lat":53.531139,"lon":14.45104},"country":"PL","name":"Powiat policki"},{"_id":7533330,"coord":{"lat":53.567699,"lon":14.5792},"country":"PL","name":"Police"},{"_id":7531521,"coord":{"lat":50.033649,"lon":19.256121},"country":"PL","name":"Oświęcim"},{"_id":3090433,"coord":{"lat":50.4575,"lon":17.31308},"country":"PL","name":"Nysa Zamlynie"},{"_id":7531586,"coord":{"lat":50.209621,"lon":19.153879},"country":"PL","name":"Mysłowice"},{"_id":7531571,"coord":{"lat":50.196091,"lon":18.861891},"country":"PL","name":"Mikołów"},{"_id":7533483,"coord":{"lat":52.448299,"lon":15.5914},"country":"PL","name":"Międzyrzecz"},{"_id":7531264,"coord":{"lat":54.028461,"lon":19.04435},"country":"PL","name":"Malbork"},{"_id":7532231,"coord":{"lat":52.054298,"lon":19.198999},"country":"PL","name":"Łęczyca"},{"_id":7533311,"coord":{"lat":50.478401,"lon":17.957399},"country":"PL","name":"Krapkowice"},{"_id":7530983,"coord":{"lat":54.207191,"lon":16.21661},"country":"PL","name":"Koszalin"},{"_id":7531076,"coord":{"lat":52.066158,"lon":16.715139},"country":"PL","name":"Powiat kościański"},{"_id":7531410,"coord":{"lat":52.19838,"lon":18.63546},"country":"PL","name":"Koło"},{"_id":7530761,"coord":{"lat":50.98576,"lon":18.15258},"country":"PL","name":"Powiat kluczborski"},{"_id":7530863,"coord":{"lat":51.74725,"lon":18.076059},"country":"PL","name":"Kalisz"},{"_id":7531679,"coord":{"lat":51.7472,"lon":18.076},"country":"PL","name":"Kalisz"},{"_id":3096880,"coord":{"lat":51.761089,"lon":18.091021},"country":"PL","name":"Kalisz"},{"_id":7531075,"coord":{"lat":52.00901,"lon":17.454969},"country":"PL","name":"Powiat jarociński"},{"_id":7532114,"coord":{"lat":51.957199,"lon":14.749},"country":"PL","name":"Gubin"},{"_id":7530928,"coord":{"lat":52.389881,"lon":19.62187},"country":"PL","name":"Powiat gostyniński"},{"_id":7532986,"coord":{"lat":50.313702,"lon":17.368401},"country":"PL","name":"Głuchołazy"},{"_id":7532274,"coord":{"lat":51.962002,"lon":19.714001},"country":"PL","name":"Głowno"},{"_id":7533185,"coord":{"lat":50.150341,"lon":18.678471},"country":"PL","name":"Czerwionka-Leszczyny"},{"_id":7531638,"coord":{"lat":52.9949,"lon":16.915701},"country":"PL","name":"Chodzież"},{"_id":7530986,"coord":{"lat":50.365211,"lon":18.876301},"country":"PL","name":"Bytom"},{"_id":7532536,"coord":{"lat":50.3652,"lon":18.876301},"country":"PL","name":"Bytom"},{"_id":7532249,"coord":{"lat":50.858898,"lon":17.462799},"country":"PL","name":"Brzeg"},{"_id":3102459,"coord":{"lat":50.86079,"lon":17.4674},"country":"PL","name":"Brzeg"},{"_id":7533560,"coord":{"lat":51.816002,"lon":19.303801},"country":"PL","name":"Aleksandrów Łódzki"},{"_id":7532997,"coord":{"lat":51.0327,"lon":17.33},"country":"PL","name":"Jelcz-Laskowice"},{"_id":7303641,"coord":{"lat":51.021339,"lon":17.31649},"country":"PL","name":"Jelcz Laskowice"},{"_id":3080925,"coord":{"lat":50.09449,"lon":19.40357},"country":"PL","name":"Zagorze"},{"_id":3080929,"coord":{"lat":52.16835,"lon":17.895611},"country":"PL","name":"Zagorow"},{"_id":858788,"coord":{"lat":50,"lon":22},"country":"PL","name":"Województwo Podkarpackie"},{"_id":7530770,"coord":{"lat":49.642632,"lon":21.446369},"country":"PL","name":"Powiat jasielski"},{"_id":7531301,"coord":{"lat":49.600689,"lon":21.527929},"country":"PL","name":"Nowy Żmigród"},{"_id":763519,"coord":{"lat":49.603531,"lon":21.52376},"country":"PL","name":"Nowy Zmigrod"},{"_id":858786,"coord":{"lat":49.75,"lon":20.5},"country":"PL","name":"Województwo Małopolskie"},{"_id":6690157,"coord":{"lat":49.63467,"lon":20.69824},"country":"PL","name":"Powiat nowosądecki"},{"_id":7532585,"coord":{"lat":49.610199,"lon":20.7066},"country":"PL","name":"Nowy Sącz"},{"_id":763534,"coord":{"lat":49.621769,"lon":20.69705},"country":"PL","name":"Nowy Sacz"},{"_id":769117,"coord":{"lat":49.662941,"lon":20.632231},"country":"PL","name":"Klęczany"},{"_id":7532613,"coord":{"lat":49.747002,"lon":21.471701},"country":"PL","name":"Jasło"},{"_id":770293,"coord":{"lat":49.74506,"lon":21.472521},"country":"PL","name":"Jaslo"},{"_id":7530769,"coord":{"lat":49.999229,"lon":21.353979},"country":"PL","name":"Powiat dębicki"},{"_id":7531275,"coord":{"lat":50.045952,"lon":21.4158},"country":"PL","name":"Dębica"},{"_id":773380,"coord":{"lat":50.05146,"lon":21.411409},"country":"PL","name":"Debica"},{"_id":761968,"coord":{"lat":50.04628,"lon":22.028191},"country":"PL","name":"Pobitno"},{"_id":3100883,"coord":{"lat":50.066669,"lon":19.98333},"country":"PL","name":"Dąbie"},{"_id":3337497,"coord":{"lat":50.25,"lon":19},"country":"PL","name":"Województwo Śląskie"},{"_id":3079920,"coord":{"lat":50.13707,"lon":19.0042},"country":"PL","name":"Zwierzyniec"},{"_id":3337492,"coord":{"lat":51,"lon":16.5},"country":"PL","name":"Województwo Dolnośląskie"},{"_id":3092005,"coord":{"lat":50.228981,"lon":16.76531},"country":"PL","name":"Międzgórze"},{"_id":7530895,"coord":{"lat":50.261589,"lon":22.43828},"country":"PL","name":"Powiat leżajski"},{"_id":7532578,"coord":{"lat":50.265499,"lon":22.4186},"country":"PL","name":"Leżajsk"},{"_id":766332,"coord":{"lat":50.262569,"lon":22.419319},"country":"PL","name":"Lezajsk"},{"_id":7531035,"coord":{"lat":50.542252,"lon":19.611919},"country":"PL","name":"Powiat zawierciański"},{"_id":7533249,"coord":{"lat":50.425201,"lon":19.392},"country":"PL","name":"Łazy"},{"_id":858790,"coord":{"lat":50.75,"lon":20.75},"country":"PL","name":"Województwo Świętokrzyskie"},{"_id":7531041,"coord":{"lat":50.517368,"lon":21.19594},"country":"PL","name":"Powiat staszowski"},{"_id":7533517,"coord":{"lat":50.562,"lon":21.190701},"country":"PL","name":"Staszów"},{"_id":758252,"coord":{"lat":50.563068,"lon":21.16593},"country":"PL","name":"Staszow"},{"_id":7530899,"coord":{"lat":50.59103,"lon":22.052031},"country":"PL","name":"Powiat stalowowolski"},{"_id":7531427,"coord":{"lat":50.56649,"lon":22.01749},"country":"PL","name":"Stalowa Wola"},{"_id":758445,"coord":{"lat":50.582859,"lon":22.053341},"country":"PL","name":"Stalowa Wola"},{"_id":3090289,"coord":{"lat":50.623798,"lon":19.508631},"country":"PL","name":"Ogorzelnik"},{"_id":3337495,"coord":{"lat":50.5,"lon":18},"country":"PL","name":"Województwo Opolskie"},{"_id":858785,"coord":{"lat":51,"lon":23},"country":"PL","name":"Województwo Lubelskie"},{"_id":7530816,"coord":{"lat":50.874561,"lon":15.66408},"country":"PL","name":"Powiat jeleniogórski"},{"_id":7532480,"coord":{"lat":50.763802,"lon":15.7442},"country":"PL","name":"Karpacz"},{"_id":3096576,"coord":{"lat":50.776691,"lon":15.75594},"country":"PL","name":"Karpacz"},{"_id":3086212,"coord":{"lat":50.788738,"lon":15.77878},"country":"PL","name":"Ściegny"},{"_id":7530837,"coord":{"lat":50.76688,"lon":17.106291},"country":"PL","name":"Powiat strzeliński"},{"_id":7531988,"coord":{"lat":50.857399,"lon":17.0065},"country":"PL","name":"Borów"},{"_id":3083956,"coord":{"lat":50.84996,"lon":17.059879},"country":"PL","name":"Świnobród"},{"_id":769250,"coord":{"lat":50.870331,"lon":20.62752},"country":"PL","name":"Kielce"},{"_id":7530829,"coord":{"lat":50.942322,"lon":21.407391},"country":"PL","name":"Powiat ostrowiecki"},{"_id":7531229,"coord":{"lat":51.018021,"lon":21.5411},"country":"PL","name":"Bałtów"},{"_id":776454,"coord":{"lat":51.018452,"lon":21.54385},"country":"PL","name":"Baltow"},{"_id":7530997,"coord":{"lat":51.06496,"lon":20.79228},"country":"PL","name":"Powiat skarżyski"},{"_id":7533074,"coord":{"lat":51.051601,"lon":20.831699},"country":"PL","name":"Suchedniów"},{"_id":757886,"coord":{"lat":51.04776,"lon":20.82922},"country":"PL","name":"Suchedniow"},{"_id":3091752,"coord":{"lat":51.166672,"lon":17.16667},"country":"PL","name":"Miłostów"},{"_id":3081366,"coord":{"lat":51.166672,"lon":16.91667},"country":"PL","name":"Wrocław Pracze"},{"_id":3088156,"coord":{"lat":51.174049,"lon":16.90534},"country":"PL","name":"Pracze Odrzańskie"},{"_id":858787,"coord":{"lat":52.25,"lon":21},"country":"PL","name":"Województwo Mazowieckie"},{"_id":761556,"coord":{"lat":51.225239,"lon":21.13858},"country":"PL","name":"Pomorzany"},{"_id":3085484,"coord":{"lat":51.236279,"lon":16.648479},"country":"PL","name":"Słup"},{"_id":769949,"coord":{"lat":51.32362,"lon":21.52887},"country":"PL","name":"Julianów"},{"_id":7531010,"coord":{"lat":51.368771,"lon":19.17791},"country":"PL","name":"Powiat bełchatowski"},{"_id":7531362,"coord":{"lat":51.320511,"lon":19.124689},"country":"PL","name":"Szczerców"},{"_id":3083788,"coord":{"lat":51.333191,"lon":19.10977},"country":"PL","name":"Szczercow"},{"_id":760778,"coord":{"lat":51.402531,"lon":21.147141},"country":"PL","name":"Radom"},{"_id":7530878,"coord":{"lat":51.335819,"lon":21.16193},"country":"PL","name":"Powiat radomski"},{"_id":7532054,"coord":{"lat":51.471699,"lon":21.447399},"country":"PL","name":"Pionki"},{"_id":762199,"coord":{"lat":51.47604,"lon":21.449949},"country":"PL","name":"Pionki"},{"_id":7533191,"coord":{"lat":51.585999,"lon":21.536501},"country":"PL","name":"Kozienice"},{"_id":767814,"coord":{"lat":51.582939,"lon":21.547791},"country":"PL","name":"Kozienice"},{"_id":3337498,"coord":{"lat":52.25,"lon":17},"country":"PL","name":"Województwo Wielkopolskie"},{"_id":3097078,"coord":{"lat":51.706001,"lon":19.49246},"country":"PL","name":"Józefów"},{"_id":3093133,"coord":{"lat":51.75,"lon":19.466669},"country":"PL","name":"Lodz"},{"_id":3079992,"coord":{"lat":51.783329,"lon":19.41667},"country":"PL","name":"Zubardź"},{"_id":3094508,"coord":{"lat":52.003189,"lon":19.10252},"country":"PL","name":"Krzepocinek"},{"_id":762925,"coord":{"lat":52.153431,"lon":20.82316},"country":"PL","name":"Ostoja"},{"_id":770155,"coord":{"lat":52.192558,"lon":21.72332},"country":"PL","name":"Jędrzejów"},{"_id":771973,"coord":{"lat":52.20319,"lon":20.859779},"country":"PL","name":"Gołąbki"},{"_id":3096937,"coord":{"lat":52.209999,"lon":16.57638},"country":"PL","name":"Kąkolewo"},{"_id":3080874,"coord":{"lat":52.23333,"lon":17.51667},"country":"PL","name":"Zajezierze"},{"_id":3100594,"coord":{"lat":52.366669,"lon":16.91667},"country":"PL","name":"Dębiec"},{"_id":7530926,"coord":{"lat":52.45179,"lon":20.94356},"country":"PL","name":"Powiat legionowski"},{"_id":7531479,"coord":{"lat":52.39362,"lon":20.870701},"country":"PL","name":"Jabłonna"},{"_id":770706,"coord":{"lat":52.378849,"lon":20.91745},"country":"PL","name":"Jablonna"},{"_id":7530858,"coord":{"lat":52.400631,"lon":16.901541},"country":"PL","name":"Poznań"},{"_id":7531836,"coord":{"lat":52.406189,"lon":16.92341},"country":"PL","name":"Poznań"},{"_id":3097127,"coord":{"lat":52.414669,"lon":16.896629},"country":"PL","name":"Jeżyce"},{"_id":3337500,"coord":{"lat":53,"lon":18.5},"country":"PL","name":"Województwo Kujawsko-Pomorskie"},{"_id":7530912,"coord":{"lat":52.661598,"lon":18.07424},"country":"PL","name":"Powiat mogileński"},{"_id":7532061,"coord":{"lat":52.530689,"lon":18.267349},"country":"PL","name":"Jeziora Wielkie"},{"_id":3081562,"coord":{"lat":52.507549,"lon":18.220831},"country":"PL","name":"Wola Kożuszkowa"},{"_id":3094083,"coord":{"lat":52.622169,"lon":18.04233},"country":"PL","name":"Kwieciszewo"},{"_id":753732,"coord":{"lat":52.700001,"lon":23.83333},"country":"PL","name":"Zastawa"},{"_id":3337494,"coord":{"lat":52.25,"lon":15.25},"country":"PL","name":"Województwo Lubuskie"},{"_id":3101497,"coord":{"lat":52.767609,"lon":15.2077},"country":"PL","name":"Chwalęcice"},{"_id":3083135,"coord":{"lat":52.864849,"lon":19.111601},"country":"PL","name":"Trzebiegoszcz"},{"_id":7530989,"coord":{"lat":53.02298,"lon":14.49912},"country":"PL","name":"Powiat gryfiński"},{"_id":7533173,"coord":{"lat":52.9562,"lon":14.4269},"country":"PL","name":"Chojna"},{"_id":3101675,"coord":{"lat":52.96389,"lon":14.42797},"country":"PL","name":"Chojna"},{"_id":3094960,"coord":{"lat":52.971771,"lon":17.72641},"country":"PL","name":"Kowalewo"},{"_id":858789,"coord":{"lat":53.25,"lon":23},"country":"PL","name":"Województwo Podlaskie"},{"_id":3090763,"coord":{"lat":53.250439,"lon":16.020439},"country":"PL","name":"Nowa Studnica"},{"_id":7288011,"coord":{"lat":53.478951,"lon":15.51094},"country":"PL","name":"Sarnikierz"},{"_id":7530969,"coord":{"lat":53.472462,"lon":18.77849},"country":"PL","name":"Grudziądz"},{"_id":7532955,"coord":{"lat":53.48233,"lon":18.755381},"country":"PL","name":"Grudziądz"},{"_id":3098218,"coord":{"lat":53.484112,"lon":18.75366},"country":"PL","name":"Grudziadz"},{"_id":3099568,"coord":{"lat":53.566212,"lon":15.78717},"country":"PL","name":"Gajewo"},{"_id":7532055,"coord":{"lat":53.699902,"lon":17.560101},"country":"PL","name":"Chojnice"},{"_id":3101672,"coord":{"lat":53.695541,"lon":17.557011},"country":"PL","name":"Chojnice"},{"_id":858791,"coord":{"lat":53.833328,"lon":21},"country":"PL","name":"Województwo Warmińsko-Mazurskie"},{"_id":3093293,"coord":{"lat":54.006241,"lon":19.070801},"country":"PL","name":"Lipki"},{"_id":3100041,"coord":{"lat":54.14505,"lon":18.3881},"country":"PL","name":"Drzewina"},{"_id":3098636,"coord":{"lat":54.223331,"lon":17.476},"country":"PL","name":"Gostkowo"},{"_id":3088045,"coord":{"lat":54.26667,"lon":18.66667},"country":"PL","name":"Pruska Plebanka"},{"_id":7530789,"coord":{"lat":54.32687,"lon":18.086321},"country":"PL","name":"Powiat kartuski"},{"_id":7531179,"coord":{"lat":54.39328,"lon":18.267179},"country":"PL","name":"Przodkowo"},{"_id":3085361,"coord":{"lat":54.356159,"lon":18.30254},"country":"PL","name":"Smołdzino"},{"_id":7530726,"coord":{"lat":52.029041,"lon":23.138309},"country":"PL","name":"Biała Podlaska"},{"_id":7530782,"coord":{"lat":49.87698,"lon":21.749491},"country":"PL","name":"Powiat strzyżowski"},{"_id":7533207,"coord":{"lat":52.384998,"lon":17.4058},"country":"PL","name":"Nekla"},{"_id":7530739,"coord":{"lat":50.745579,"lon":22.41147},"country":"PL","name":"Powiat janowski"},{"_id":7533529,"coord":{"lat":50.7006,"lon":22.413601},"country":"PL","name":"Janów Lubelski"},{"_id":7530849,"coord":{"lat":51.372021,"lon":16.613991},"country":"PL","name":"Powiat wołowski"},{"_id":7532743,"coord":{"lat":52.0555,"lon":20.4405},"country":"PL","name":"Żyrardów"},{"_id":7530933,"coord":{"lat":53.746899,"lon":19.031111},"country":"PL","name":"Powiat kwidzyński"},{"_id":7532624,"coord":{"lat":53.720501,"lon":18.945299},"country":"PL","name":"Kwidzyn"},{"_id":3094086,"coord":{"lat":53.724949,"lon":18.931141},"country":"PL","name":"Kwidzyn"},{"_id":3079850,"coord":{"lat":50.329239,"lon":19.104191},"country":"PL","name":"Powiat będziński"},{"_id":7532923,"coord":{"lat":50.3358,"lon":19.123899},"country":"PL","name":"Będzin"},{"_id":3098334,"coord":{"lat":50.362659,"lon":19.10557},"country":"PL","name":"Gródków"},{"_id":3098306,"coord":{"lat":50.347542,"lon":19.072269},"country":"PL","name":"Grodziec"},{"_id":7531038,"coord":{"lat":50.656761,"lon":20.18655},"country":"PL","name":"Powiat jędrzejowski"},{"_id":7533465,"coord":{"lat":50.6395,"lon":20.289301},"country":"PL","name":"Jędrzejów"},{"_id":770157,"coord":{"lat":50.63945,"lon":20.304541},"country":"PL","name":"Jedrzejow"},{"_id":7531046,"coord":{"lat":50.14846,"lon":17.832661},"country":"PL","name":"Powiat głubczycki"},{"_id":7531262,"coord":{"lat":50.056461,"lon":17.814251},"country":"PL","name":"Branice"},{"_id":3102679,"coord":{"lat":50.051079,"lon":17.793989},"country":"PL","name":"Branice"},{"_id":7287839,"coord":{"lat":53.41708,"lon":14.52242},"country":"PL","name":"Cmentarz Centralny"},{"_id":768780,"coord":{"lat":52.245739,"lon":20.94903},"country":"PL","name":"Koło"},{"_id":765159,"coord":{"lat":52.27993,"lon":20.96874},"country":"PL","name":"Marymont"},{"_id":3094374,"coord":{"lat":52.438332,"lon":16.795361},"country":"PL","name":"Krzyżowniki"},{"_id":7530824,"coord":{"lat":49.551319,"lon":20.730009},"country":"PL","name":"Powiat nowosądecki"},{"_id":7533472,"coord":{"lat":49.354542,"lon":20.895651},"country":"PL","name":"Muszyna"},{"_id":764241,"coord":{"lat":49.356609,"lon":20.897181},"country":"PL","name":"Muszyna"},{"_id":3098794,"coord":{"lat":50.392818,"lon":18.79744},"country":"PL","name":"Górniki"},{"_id":3087033,"coord":{"lat":50.369179,"lon":18.793261},"country":"PL","name":"Rokitnica"},{"_id":760462,"coord":{"lat":51.309811,"lon":22.131519},"country":"PL","name":"Rogalów"},{"_id":3103063,"coord":{"lat":50.309681,"lon":19.57732},"country":"PL","name":"Bogucin Mały"},{"_id":7532747,"coord":{"lat":49.597198,"lon":20.564501},"country":"PL","name":"Podegrodzie"},{"_id":763245,"coord":{"lat":49.567478,"lon":20.521259},"country":"PL","name":"Olszana"},{"_id":7530852,"coord":{"lat":51.162971,"lon":15.07863},"country":"PL","name":"Powiat zgorzelecki"},{"_id":7533031,"coord":{"lat":50.922298,"lon":14.9386},"country":"PL","name":"Bogatynia"},{"_id":3094480,"coord":{"lat":51.02034,"lon":14.95042},"country":"PL","name":"Krzewina"},{"_id":3083173,"coord":{"lat":50.947071,"lon":14.89969},"country":"PL","name":"Trzciniec Dolny"},{"_id":3092238,"coord":{"lat":53.17083,"lon":14.41694},"country":"PL","name":"Marwice"},{"_id":756507,"coord":{"lat":52.173828,"lon":20.81978},"country":"PL","name":"Tworki"},{"_id":756135,"coord":{"lat":52.229771,"lon":21.01178},"country":"PL","name":"Warsaw"},{"_id":764255,"coord":{"lat":52.243679,"lon":20.99021},"country":"PL","name":"Muranów"},{"_id":3099184,"coord":{"lat":52.423321,"lon":16.97394},"country":"PL","name":"Główna"},{"_id":7531002,"coord":{"lat":54.361118,"lon":18.68976},"country":"PL","name":"Gdańsk"},{"_id":7531890,"coord":{"lat":54.361099,"lon":18.689699},"country":"PL","name":"Gdańsk"},{"_id":3099434,"coord":{"lat":54.352051,"lon":18.64637},"country":"PL","name":"Gdansk"},{"_id":7530819,"coord":{"lat":50.005451,"lon":21.98848},"country":"PL","name":"Rzeszów"},{"_id":7532474,"coord":{"lat":50.005402,"lon":21.9884},"country":"PL","name":"Rzeszów"},{"_id":759734,"coord":{"lat":50.041321,"lon":21.99901},"country":"PL","name":"Rzeszow"},{"_id":6690153,"coord":{"lat":49.66452,"lon":21.168421},"country":"PL","name":"Powiat gorlicki"},{"_id":7532785,"coord":{"lat":49.666302,"lon":21.165899},"country":"PL","name":"Gorlice"},{"_id":771804,"coord":{"lat":49.655628,"lon":21.160351},"country":"PL","name":"Gorlice"},{"_id":3089966,"coord":{"lat":50.116669,"lon":18.533331},"country":"PL","name":"Orzepowice"},{"_id":7530808,"coord":{"lat":49.72628,"lon":18.79147},"country":"PL","name":"Powiat cieszyński"},{"_id":7531846,"coord":{"lat":49.718601,"lon":18.831301},"country":"PL","name":"Ustroń"},{"_id":3082751,"coord":{"lat":49.721531,"lon":18.801979},"country":"PL","name":"Ustron"},{"_id":7530791,"coord":{"lat":49.812038,"lon":19.03899},"country":"PL","name":"Bielsko-Biała"},{"_id":7532925,"coord":{"lat":49.812,"lon":19.0389},"country":"PL","name":"Bielsko-Biała"},{"_id":3103402,"coord":{"lat":49.822449,"lon":19.04686},"country":"PL","name":"Bielsko-Biala"},{"_id":3096053,"coord":{"lat":50.434879,"lon":16.661449},"country":"PL","name":"Klodzko"},{"_id":3094802,"coord":{"lat":50.083328,"lon":19.91667},"country":"PL","name":"Krakow"},{"_id":6690163,"coord":{"lat":50.015461,"lon":20.978571},"country":"PL","name":"Powiat tarnowski"},{"_id":7532542,"coord":{"lat":50.017559,"lon":20.986629},"country":"PL","name":"Tarnów"},{"_id":757026,"coord":{"lat":50.013809,"lon":20.98698},"country":"PL","name":"Tarnow"},{"_id":7530993,"coord":{"lat":51.844082,"lon":16.57593},"country":"PL","name":"Leszno"},{"_id":7532770,"coord":{"lat":51.844002,"lon":16.575899},"country":"PL","name":"Leszno"},{"_id":3093524,"coord":{"lat":51.84034,"lon":16.57494},"country":"PL","name":"Leszno"},{"_id":3083271,"coord":{"lat":53.013748,"lon":18.598141},"country":"PL","name":"Torun"},{"_id":3083267,"coord":{"lat":53.033329,"lon":18.6},"country":"PL","name":"Toruń Północny"},{"_id":3099759,"coord":{"lat":54.152199,"lon":19.40884},"country":"PL","name":"Elblag"},{"_id":7531017,"coord":{"lat":52.10611,"lon":19.194981},"country":"PL","name":"Powiat łęczycki"},{"_id":3095030,"coord":{"lat":50.271042,"lon":19.028669},"country":"PL","name":"Koszutka"},{"_id":7530988,"coord":{"lat":52.237991,"lon":15.48522},"country":"PL","name":"Powiat świebodziński"},{"_id":3098722,"coord":{"lat":52.73679,"lon":15.22878},"country":"PL","name":"Gorzow Wielkopolski"},{"_id":7530828,"coord":{"lat":53.02256,"lon":22.285049},"country":"PL","name":"Powiat zambrowski"},{"_id":7532422,"coord":{"lat":53.120998,"lon":22.438101},"country":"PL","name":"Rutki"},{"_id":759946,"coord":{"lat":53.099998,"lon":22.433331},"country":"PL","name":"Rutki"},{"_id":7530826,"coord":{"lat":53.391861,"lon":21.93631},"country":"PL","name":"Powiat kolneński"},{"_id":7532707,"coord":{"lat":53.401798,"lon":21.9361},"country":"PL","name":"Kolno"},{"_id":768785,"coord":{"lat":53.41148,"lon":21.92905},"country":"PL","name":"Kolno"},{"_id":765876,"coord":{"lat":51.25,"lon":22.566669},"country":"PL","name":"Lublin"},{"_id":759993,"coord":{"lat":51.25,"lon":22.566669},"country":"PL","name":"Rury Jezuickie"},{"_id":7530886,"coord":{"lat":53.113602,"lon":20.9394},"country":"PL","name":"Powiat przasnyski"},{"_id":761218,"coord":{"lat":53.01907,"lon":20.880289},"country":"PL","name":"Przasnysz"},{"_id":7530857,"coord":{"lat":50.301159,"lon":18.64983},"country":"PL","name":"Gliwice"},{"_id":7532030,"coord":{"lat":50.301102,"lon":18.649799},"country":"PL","name":"Gliwice"},{"_id":3099230,"coord":{"lat":50.297611,"lon":18.67658},"country":"PL","name":"Gliwice"},{"_id":7530968,"coord":{"lat":51.204731,"lon":16.15834},"country":"PL","name":"Legnica"},{"_id":7532013,"coord":{"lat":51.2047,"lon":16.1583},"country":"PL","name":"Legnica"},{"_id":3093692,"coord":{"lat":51.21006,"lon":16.1619},"country":"PL","name":"Legnica"},{"_id":7530803,"coord":{"lat":53.541759,"lon":21.070339},"country":"PL","name":"Powiat szczycieński"},{"_id":7532078,"coord":{"lat":53.546398,"lon":21.033001},"country":"PL","name":"Szczytno"},{"_id":757357,"coord":{"lat":53.562592,"lon":20.987471},"country":"PL","name":"Szczytno"},{"_id":3091804,"coord":{"lat":54.200001,"lon":16.183331},"country":"PL","name":"Miłakowo"},{"_id":764494,"coord":{"lat":50.84,"lon":20.682671},"country":"PL","name":"Mojcza"},{"_id":3100894,"coord":{"lat":53.141621,"lon":17.96105},"country":"PL","name":"Czyżkówko"},{"_id":3092750,"coord":{"lat":53.150002,"lon":17.98333},"country":"PL","name":"Ludwikowo"},{"_id":3099424,"coord":{"lat":54.51889,"lon":18.531879},"country":"PL","name":"Gdynia"},{"_id":3230651,"coord":{"lat":54.5,"lon":18.549999},"country":"PL","name":"Wzgórze Nowotki"},{"_id":763166,"coord":{"lat":53.779949,"lon":20.49416},"country":"PL","name":"Olsztyn"},{"_id":7530939,"coord":{"lat":52.535419,"lon":19.71497},"country":"PL","name":"Płock"},{"_id":7532723,"coord":{"lat":52.5354,"lon":19.714899},"country":"PL","name":"Płock"},{"_id":3088825,"coord":{"lat":52.546822,"lon":19.706381},"country":"PL","name":"Plock"},{"_id":3090048,"coord":{"lat":50.666672,"lon":17.950001},"country":"PL","name":"Opole"},{"_id":3083829,"coord":{"lat":53.42894,"lon":14.55302},"country":"PL","name":"Szczecin"},{"_id":758309,"coord":{"lat":53.13353,"lon":23.075291},"country":"PL","name":"Starosielce"},{"_id":7530963,"coord":{"lat":52.256222,"lon":18.26219},"country":"PL","name":"Konin"},{"_id":7532374,"coord":{"lat":52.256199,"lon":18.2621},"country":"PL","name":"Konin"},{"_id":3095321,"coord":{"lat":52.223381,"lon":18.251209},"country":"PL","name":"Konin"},{"_id":7531043,"coord":{"lat":51.607979,"lon":17.8503},"country":"PL","name":"Powiat ostrowski"},{"_id":7532713,"coord":{"lat":51.6469,"lon":17.8039},"country":"PL","name":"Ostrów Wielkopolski"},{"_id":3089684,"coord":{"lat":51.65501,"lon":17.80686},"country":"PL","name":"Ostrow Wielkopolski"},{"_id":7530809,"coord":{"lat":50.151329,"lon":18.836889},"country":"PL","name":"Powiat mikołowski"},{"_id":7532266,"coord":{"lat":50.143398,"lon":18.8528},"country":"PL","name":"Łaziska Górne"},{"_id":3093785,"coord":{"lat":50.149521,"lon":18.84215},"country":"PL","name":"Laziska Gorne"},{"_id":7530964,"coord":{"lat":50.809639,"lon":19.122169},"country":"PL","name":"Częstochowa"},{"_id":7532537,"coord":{"lat":50.809601,"lon":19.122101},"country":"PL","name":"Częstochowa"},{"_id":3100946,"coord":{"lat":50.796459,"lon":19.12409},"country":"PL","name":"Czestochowa"},{"_id":3092313,"coord":{"lat":53.738361,"lon":18.906281},"country":"PL","name":"Mareza"},{"_id":7531032,"coord":{"lat":49.805962,"lon":19.071739},"country":"PL","name":"Powiat bielski"},{"_id":7533112,"coord":{"lat":49.903999,"lon":19.000401},"country":"PL","name":"Czechowice-Dziedzice"},{"_id":3101076,"coord":{"lat":49.913422,"lon":19.004789},"country":"PL","name":"Czechowice-Dziedzice"},{"_id":766041,"coord":{"lat":52.35408,"lon":20.90514},"country":"PL","name":"Łomianki Dolne"},{"_id":762071,"coord":{"lat":50.569939,"lon":22.072769},"country":"PL","name":"Pławo"},{"_id":7530762,"coord":{"lat":50.878868,"lon":18.460369},"country":"PL","name":"Powiat oleski"},{"_id":7533314,"coord":{"lat":51.048302,"lon":18.4529},"country":"PL","name":"Praszka"},{"_id":3088135,"coord":{"lat":51.053749,"lon":18.453171},"country":"PL","name":"Praszka"},{"_id":758967,"coord":{"lat":52.349998,"lon":21.25},"country":"PL","name":"Sławek"},{"_id":7531048,"coord":{"lat":50.293839,"lon":18.169609},"country":"PL","name":"Powiat kędzierzyńsko-kozielski"},{"_id":7531299,"coord":{"lat":50.345329,"lon":18.245529},"country":"PL","name":"Kędzierzyn-Koźle"},{"_id":3096372,"coord":{"lat":50.349838,"lon":18.226061},"country":"PL","name":"Kedzierzyn-Kozle"},{"_id":6690156,"coord":{"lat":49.833939,"lon":19.94482},"country":"PL","name":"Powiat myślenicki"},{"_id":7533117,"coord":{"lat":49.833549,"lon":19.943621},"country":"PL","name":"Myślenice"},{"_id":3091256,"coord":{"lat":49.833832,"lon":19.938299},"country":"PL","name":"Myslenice"},{"_id":7530942,"coord":{"lat":54.460602,"lon":17.02787},"country":"PL","name":"Słupsk"},{"_id":7532359,"coord":{"lat":54.460499,"lon":17.0278},"country":"PL","name":"Słupsk"},{"_id":3085450,"coord":{"lat":54.46405,"lon":17.028721},"country":"PL","name":"Slupsk"},{"_id":7530731,"coord":{"lat":51.628578,"lon":14.9617},"country":"PL","name":"Powiat żarski"},{"_id":7532206,"coord":{"lat":51.6245,"lon":15.1455},"country":"PL","name":"Żary"},{"_id":3080644,"coord":{"lat":51.642052,"lon":15.13727},"country":"PL","name":"Zary"},{"_id":7530952,"coord":{"lat":50.314121,"lon":18.79656},"country":"PL","name":"Zabrze"},{"_id":7531590,"coord":{"lat":50.314121,"lon":18.79656},"country":"PL","name":"Zabrze"},{"_id":3080985,"coord":{"lat":50.324921,"lon":18.785761},"country":"PL","name":"Zabrze"},{"_id":6690164,"coord":{"lat":49.304199,"lon":19.948},"country":"PL","name":"Powiat tatrzański"},{"_id":7531513,"coord":{"lat":49.275761,"lon":19.971861},"country":"PL","name":"Zakopane"},{"_id":3080866,"coord":{"lat":49.298988,"lon":19.948851},"country":"PL","name":"Zakopane"},{"_id":7530796,"coord":{"lat":50.850159,"lon":15.72796},"country":"PL","name":"Jelenia Góra"},{"_id":7531868,"coord":{"lat":50.900871,"lon":15.72693},"country":"PL","name":"Jelenia Góra"},{"_id":3097257,"coord":{"lat":50.899731,"lon":15.72899},"country":"PL","name":"Jelenia Gora"},{"_id":6690149,"coord":{"lat":49.969109,"lon":20.43078},"country":"PL","name":"Powiat bocheński"},{"_id":7532635,"coord":{"lat":49.974701,"lon":20.429199},"country":"PL","name":"Bochnia"},{"_id":775758,"coord":{"lat":49.969051,"lon":20.430281},"country":"PL","name":"Bochnia"},{"_id":7530777,"coord":{"lat":50.08659,"lon":22.268921},"country":"PL","name":"Powiat łańcucki"},{"_id":7531339,"coord":{"lat":50.069698,"lon":22.224569},"country":"PL","name":"Łańcut"},{"_id":766810,"coord":{"lat":50.06871,"lon":22.22912},"country":"PL","name":"Lancut"},{"_id":6941021,"coord":{"lat":52.10627,"lon":19.94606},"country":"PL","name":"powiat Łowicki"},{"_id":6941022,"coord":{"lat":52.10614,"lon":19.944651},"country":"PL","name":"gmina Miasto Łowicz"},{"_id":3093066,"coord":{"lat":52.10714,"lon":19.94525},"country":"PL","name":"Lowicz"},{"_id":7530820,"coord":{"lat":54.441849,"lon":18.547819},"country":"PL","name":"Sopot"},{"_id":7531444,"coord":{"lat":54.441849,"lon":18.547819},"country":"PL","name":"Sopot"},{"_id":3085151,"coord":{"lat":54.441799,"lon":18.56003},"country":"PL","name":"Sopot"},{"_id":3081909,"coord":{"lat":52.551819,"lon":17.60885},"country":"PL","name":"Winiary"},{"_id":753865,"coord":{"lat":50.833328,"lon":23.183331},"country":"PL","name":"Zamość"},{"_id":763471,"coord":{"lat":51.416672,"lon":21.15},"country":"PL","name":"Obozisko"},{"_id":7530941,"coord":{"lat":54.102718,"lon":22.92914},"country":"PL","name":"Suwałki"},{"_id":7531587,"coord":{"lat":54.102718,"lon":22.92914},"country":"PL","name":"Suwałki"},{"_id":757718,"coord":{"lat":54.111752,"lon":22.93087},"country":"PL","name":"Suwalki"},{"_id":7531194,"coord":{"lat":52.029041,"lon":23.138309},"country":"PL","name":"Biała Podlaska"},{"_id":776175,"coord":{"lat":52.032379,"lon":23.11652},"country":"PL","name":"Biala Podlaska"},{"_id":7530976,"coord":{"lat":49.689251,"lon":21.753019},"country":"PL","name":"Krosno"},{"_id":7532430,"coord":{"lat":49.689201,"lon":21.753},"country":"PL","name":"Krosno"},{"_id":767470,"coord":{"lat":49.68866,"lon":21.77058},"country":"PL","name":"Krosno"},{"_id":7530746,"coord":{"lat":50.371029,"lon":19.32131},"country":"PL","name":"Dąbrowa Górnicza"},{"_id":7532331,"coord":{"lat":50.370998,"lon":19.321301},"country":"PL","name":"Dąbrowa Górnicza"},{"_id":3093646,"coord":{"lat":50.346008,"lon":19.21406},"country":"PL","name":"Łęknice"},{"_id":7530991,"coord":{"lat":51.937679,"lon":15.51216},"country":"PL","name":"Zielona Góra"},{"_id":7532225,"coord":{"lat":51.937599,"lon":15.5121},"country":"PL","name":"Zielona Góra"},{"_id":3080165,"coord":{"lat":51.935478,"lon":15.50643},"country":"PL","name":"Zielona Gora"},{"_id":7530804,"coord":{"lat":51.321739,"lon":15.53215},"country":"PL","name":"Powiat bolesławiecki"},{"_id":7532649,"coord":{"lat":51.321499,"lon":15.5488},"country":"PL","name":"Bolesławiec"},{"_id":3102987,"coord":{"lat":51.264179,"lon":15.5697},"country":"PL","name":"Boleslawiec"},{"_id":7533538,"coord":{"lat":49.853802,"lon":19.339199},"country":"PL","name":"Andrychów"},{"_id":3104115,"coord":{"lat":49.854969,"lon":19.338341},"country":"PL","name":"Andrychow"},{"_id":756349,"coord":{"lat":52.165588,"lon":22.297779},"country":"PL","name":"Ulica Starowiejska"},{"_id":7530771,"coord":{"lat":50.313869,"lon":21.391359},"country":"PL","name":"Powiat mielecki"},{"_id":7531899,"coord":{"lat":50.257301,"lon":21.564699},"country":"PL","name":"Mielec"},{"_id":764849,"coord":{"lat":50.28709,"lon":21.423901},"country":"PL","name":"Mielec"},{"_id":7530843,"coord":{"lat":54.050129,"lon":15.61394},"country":"PL","name":"Powiat kołobrzeski"},{"_id":7531681,"coord":{"lat":54.129101,"lon":15.514},"country":"PL","name":"Kołobrzeg"},{"_id":3095795,"coord":{"lat":54.175652,"lon":15.58342},"country":"PL","name":"Kolobrzeg"},{"_id":7530920,"coord":{"lat":53.282669,"lon":18.926491},"country":"PL","name":"Powiat wąbrzeski"},{"_id":7531618,"coord":{"lat":53.278358,"lon":18.952391},"country":"PL","name":"Wąbrzeźno"},{"_id":3082734,"coord":{"lat":53.279888,"lon":18.947729},"country":"PL","name":"Wabrzezno"},{"_id":3103524,"coord":{"lat":50.349998,"lon":18.966669},"country":"PL","name":"Biały Szarlej"},{"_id":3100911,"coord":{"lat":50.140362,"lon":18.99192},"country":"PL","name":"Czułów"},{"_id":7530924,"coord":{"lat":52.902069,"lon":20.576309},"country":"PL","name":"Powiat ciechanowski"},{"_id":7531644,"coord":{"lat":52.870998,"lon":20.614799},"country":"PL","name":"Ciechanów"},{"_id":774208,"coord":{"lat":52.881409,"lon":20.619961},"country":"PL","name":"Ciechanow"},{"_id":7531015,"coord":{"lat":54.15691,"lon":17.29147},"country":"PL","name":"Powiat bytowski"},{"_id":7533199,"coord":{"lat":54.179699,"lon":17.500601},"country":"PL","name":"Bytów"},{"_id":3101943,"coord":{"lat":54.17057,"lon":17.491871},"country":"PL","name":"Bytow"},{"_id":6690159,"coord":{"lat":50.27932,"lon":19.55772},"country":"PL","name":"Powiat olkuski"},{"_id":7533287,"coord":{"lat":50.285801,"lon":19.561701},"country":"PL","name":"Olkusz"},{"_id":3090146,"coord":{"lat":50.2813,"lon":19.565029},"country":"PL","name":"Olkusz"},{"_id":7530827,"coord":{"lat":53.20829,"lon":22.060329},"country":"PL","name":"Powiat łomżyński"},{"_id":762366,"coord":{"lat":53.196571,"lon":22.095909},"country":"PL","name":"Piatnica"},{"_id":7533264,"coord":{"lat":49.884201,"lon":19.495399},"country":"PL","name":"Wadowice"},{"_id":3082722,"coord":{"lat":49.88335,"lon":19.49292},"country":"PL","name":"Wadowice"},{"_id":7530743,"coord":{"lat":51.13419,"lon":22.466539},"country":"PL","name":"Powiat lubelski"},{"_id":7531398,"coord":{"lat":51.28072,"lon":22.684349},"country":"PL","name":"Wólka"},{"_id":757690,"coord":{"lat":51.256008,"lon":22.6805},"country":"PL","name":"Świdnik Mały"},{"_id":7531009,"coord":{"lat":51.60297,"lon":18.60309},"country":"PL","name":"Powiat sieradzki"},{"_id":7531129,"coord":{"lat":51.601719,"lon":18.7384},"country":"PL","name":"Sieradz"},{"_id":3085978,"coord":{"lat":51.59584,"lon":18.73023},"country":"PL","name":"Sieradz"},{"_id":7530902,"coord":{"lat":51.741741,"lon":17.421249},"country":"PL","name":"Powiat krotoszyński"},{"_id":7533246,"coord":{"lat":51.695099,"lon":17.443701},"country":"PL","name":"Krotoszyn"},{"_id":3094625,"coord":{"lat":51.698681,"lon":17.43738},"country":"PL","name":"Krotoszyn"},{"_id":7530848,"coord":{"lat":50.757191,"lon":16.280251},"country":"PL","name":"Powiat wałbrzyski"},{"_id":7532039,"coord":{"lat":50.785099,"lon":16.291201},"country":"PL","name":"Wałbrzych"},{"_id":6690150,"coord":{"lat":49.971699,"lon":20.605721},"country":"PL","name":"Powiat brzeski"},{"_id":7533116,"coord":{"lat":49.974499,"lon":20.610701},"country":"PL","name":"Brzesko"},{"_id":775183,"coord":{"lat":49.969109,"lon":20.60606},"country":"PL","name":"Brzesko"},{"_id":3097395,"coord":{"lat":49.950001,"lon":18.58333},"country":"PL","name":"Jastrzębie Dolne"},{"_id":3084850,"coord":{"lat":50.02718,"lon":19.22105},"country":"PL","name":"Stare Stawy"},{"_id":7530805,"coord":{"lat":50.735062,"lon":16.691919},"country":"PL","name":"Powiat dzierżoniowski"},{"_id":7531351,"coord":{"lat":50.729179,"lon":16.64731},"country":"PL","name":"Dzierżoniów"},{"_id":3099828,"coord":{"lat":50.728199,"lon":16.651409},"country":"PL","name":"Dzierzoniow"},{"_id":7530745,"coord":{"lat":51.412949,"lon":19.716619},"country":"PL","name":"Piotrków Trybunalski"},{"_id":7532758,"coord":{"lat":51.412899,"lon":19.7166},"country":"PL","name":"Piotrków Trybunalski"},{"_id":3088972,"coord":{"lat":51.405472,"lon":19.703211},"country":"PL","name":"Piotrkow Trybunalski"},{"_id":7531021,"coord":{"lat":51.677429,"lon":19.23782},"country":"PL","name":"Powiat pabianicki"},{"_id":7532602,"coord":{"lat":51.665699,"lon":19.354799},"country":"PL","name":"Pabianice"},{"_id":3089578,"coord":{"lat":51.664459,"lon":19.354731},"country":"PL","name":"Pabianice"},{"_id":7530775,"coord":{"lat":49.59959,"lon":21.76943},"country":"PL","name":"Powiat krośnieński"},{"_id":7533478,"coord":{"lat":49.716999,"lon":21.646999},"country":"PL","name":"Jedlicze"},{"_id":770169,"coord":{"lat":49.717491,"lon":21.648861},"country":"PL","name":"Jedlicze"},{"_id":3081025,"coord":{"lat":49.616669,"lon":19.966669},"country":"PL","name":"Zabornia"},{"_id":6690160,"coord":{"lat":50.03796,"lon":19.227711},"country":"PL","name":"Powiat oświęcimski"},{"_id":7533321,"coord":{"lat":49.879299,"lon":19.2097},"country":"PL","name":"Kęty"},{"_id":3096328,"coord":{"lat":49.882141,"lon":19.22333},"country":"PL","name":"Kety"},{"_id":7530945,"coord":{"lat":53.157532,"lon":16.91465},"country":"PL","name":"Powiat pilski"},{"_id":7531697,"coord":{"lat":53.1348,"lon":16.760099},"country":"PL","name":"Piła"},{"_id":3089033,"coord":{"lat":53.151451,"lon":16.73782},"country":"PL","name":"Pila"},{"_id":757033,"coord":{"lat":50.57304,"lon":21.679371},"country":"PL","name":"Tarnobrzeg"},{"_id":7530793,"coord":{"lat":53.315201,"lon":15.22684},"country":"PL","name":"Powiat stargardzki"},{"_id":7531735,"coord":{"lat":53.308998,"lon":15.0116},"country":"PL","name":"Stargard Szczeciński"},{"_id":3084840,"coord":{"lat":53.33672,"lon":15.0499},"country":"PL","name":"Stargard Szczecinski"},{"_id":6690158,"coord":{"lat":49.476631,"lon":20.043051},"country":"PL","name":"Powiat nowotarski"},{"_id":7532650,"coord":{"lat":49.489201,"lon":20.044201},"country":"PL","name":"Nowy Targ"},{"_id":763523,"coord":{"lat":49.477829,"lon":20.03228},"country":"PL","name":"Nowy Targ"},{"_id":3085075,"coord":{"lat":49.683331,"lon":19.23333},"country":"PL","name":"Sporysz"},{"_id":3090466,"coord":{"lat":49.73333,"lon":19.6},"country":"PL","name":"Nowy Świat"},{"_id":7531055,"coord":{"lat":50.362659,"lon":18.58107},"country":"PL","name":"Powiat gliwicki"},{"_id":7531741,"coord":{"lat":50.207199,"lon":18.6628},"country":"PL","name":"Knurów"},{"_id":3095971,"coord":{"lat":50.219711,"lon":18.650669},"country":"PL","name":"Knurow"},{"_id":7530975,"coord":{"lat":50.271191,"lon":19.19463},"country":"PL","name":"Sosnowiec"},{"_id":7532189,"coord":{"lat":50.271099,"lon":19.194599},"country":"PL","name":"Sosnowiec"},{"_id":3097090,"coord":{"lat":50.310501,"lon":19.178181},"country":"PL","name":"Józefów"},{"_id":7530935,"coord":{"lat":53.918949,"lon":18.71916},"country":"PL","name":"Powiat tczewski"},{"_id":7532586,"coord":{"lat":54.090698,"lon":18.781601},"country":"PL","name":"Tczew"},{"_id":3083426,"coord":{"lat":54.092419,"lon":18.77787},"country":"PL","name":"Tczew"},{"_id":7530972,"coord":{"lat":53.97686,"lon":16.088551},"country":"PL","name":"Powiat białogardzki"},{"_id":7531670,"coord":{"lat":54.014,"lon":15.9755},"country":"PL","name":"Białogard"},{"_id":3103556,"coord":{"lat":54.006962,"lon":15.98751},"country":"PL","name":"Bialogard"},{"_id":3080502,"coord":{"lat":52.666672,"lon":19.033331},"country":"PL","name":"Zazamcze"},{"_id":7530749,"coord":{"lat":53.850201,"lon":14.31313},"country":"PL","name":"Świnoujście"},{"_id":7532101,"coord":{"lat":53.850201,"lon":14.3131},"country":"PL","name":"Świnoujście"},{"_id":3083955,"coord":{"lat":53.91053,"lon":14.24712},"country":"PL","name":"Swinoujscie"},{"_id":3079876,"coord":{"lat":50.492859,"lon":18.94524},"country":"PL","name":"Zyglinek"},{"_id":3092082,"coord":{"lat":50.502621,"lon":18.939489},"country":"PL","name":"Miasteczko Slaskie"},{"_id":7530967,"coord":{"lat":50.28849,"lon":18.96283},"country":"PL","name":"Chorzów"},{"_id":7531851,"coord":{"lat":50.288399,"lon":18.962799},"country":"PL","name":"Chorzów"},{"_id":3101619,"coord":{"lat":50.30582,"lon":18.974199},"country":"PL","name":"Chorzow"},{"_id":3083784,"coord":{"lat":50.316669,"lon":18.83333},"country":"PL","name":"Szczęść Boże"},{"_id":7530882,"coord":{"lat":52.794949,"lon":22.032499},"country":"PL","name":"Powiat ostrowski"},{"_id":7531958,"coord":{"lat":52.807098,"lon":21.891001},"country":"PL","name":"Ostrów Mazowiecka"},{"_id":762850,"coord":{"lat":52.802448,"lon":21.895069},"country":"PL","name":"Ostrow Mazowiecka"},{"_id":7530781,"coord":{"lat":49.430012,"lon":22.13619},"country":"PL","name":"Powiat sanocki"},{"_id":7531370,"coord":{"lat":49.556541,"lon":22.2157},"country":"PL","name":"Sanok"},{"_id":759591,"coord":{"lat":49.555729,"lon":22.205601},"country":"PL","name":"Sanok"},{"_id":7533373,"coord":{"lat":49.983521,"lon":19.147449},"country":"PL","name":"Brzeszcze"},{"_id":3102444,"coord":{"lat":49.982029,"lon":19.151569},"country":"PL","name":"Brzeszcze"},{"_id":7530870,"coord":{"lat":51.662189,"lon":21.929291},"country":"PL","name":"Powiat rycki"},{"_id":7533198,"coord":{"lat":51.6259,"lon":21.9263},"country":"PL","name":"Ryki"},{"_id":759852,"coord":{"lat":51.62574,"lon":21.932739},"country":"PL","name":"Ryki"},{"_id":7531054,"coord":{"lat":50.08696,"lon":18.269159},"country":"PL","name":"Powiat raciborski"},{"_id":7532706,"coord":{"lat":50.090599,"lon":18.221701},"country":"PL","name":"Racibórz"},{"_id":3087584,"coord":{"lat":50.091949,"lon":18.21928},"country":"PL","name":"Raciborz"},{"_id":7532290,"coord":{"lat":52.4048,"lon":20.939301},"country":"PL","name":"Legionowo"},{"_id":766555,"coord":{"lat":52.401489,"lon":20.92664},"country":"PL","name":"Legionowo"},{"_id":3100871,"coord":{"lat":50.333328,"lon":19.133329},"country":"PL","name":"Dąbie Dolne"},{"_id":7530846,"coord":{"lat":50.87051,"lon":16.430429},"country":"PL","name":"Powiat świdnicki"},{"_id":7532248,"coord":{"lat":50.840599,"lon":16.4925},"country":"PL","name":"Świdnica"},{"_id":3084093,"coord":{"lat":50.843781,"lon":16.48859},"country":"PL","name":"Swidnica"},{"_id":7530910,"coord":{"lat":52.764629,"lon":18.296709},"country":"PL","name":"Powiat inowrocławski"},{"_id":7532534,"coord":{"lat":52.781601,"lon":18.249901},"country":"PL","name":"Inowrocław"},{"_id":3097872,"coord":{"lat":52.798859,"lon":18.26388},"country":"PL","name":"Inowroclaw"},{"_id":7533248,"coord":{"lat":50.875999,"lon":18.4132},"country":"PL","name":"Olesno"},{"_id":3090158,"coord":{"lat":50.87698,"lon":18.42094},"country":"PL","name":"Olesno"},{"_id":3086892,"coord":{"lat":53.91082,"lon":18.68943},"country":"PL","name":"Rożental"},{"_id":7530831,"coord":{"lat":51.441719,"lon":16.243179},"country":"PL","name":"Powiat lubiński"},{"_id":7532505,"coord":{"lat":51.399399,"lon":16.193899},"country":"PL","name":"Lubin"},{"_id":3092931,"coord":{"lat":51.40089,"lon":16.20149},"country":"PL","name":"Lubin"},{"_id":7530760,"coord":{"lat":52.000278,"lon":20.432751},"country":"PL","name":"Powiat żyrardowski"},{"_id":7533251,"coord":{"lat":51.9771,"lon":20.532101},"country":"PL","name":"Mszczonów"},{"_id":764269,"coord":{"lat":51.974152,"lon":20.52083},"country":"PL","name":"Mszczonow"},{"_id":3103313,"coord":{"lat":51.366501,"lon":19.374479},"country":"PL","name":"Binków"},{"_id":3091543,"coord":{"lat":50.24007,"lon":19.14831},"country":"PL","name":"Modrzejów"},{"_id":3103096,"coord":{"lat":50.907471,"lon":14.95634},"country":"PL","name":"Bogatynia"},{"_id":3080004,"coord":{"lat":50.045231,"lon":18.700621},"country":"PL","name":"Zory"},{"_id":7531062,"coord":{"lat":53.555092,"lon":22.48995},"country":"PL","name":"Powiat grajewski"},{"_id":7532934,"coord":{"lat":53.640099,"lon":22.450899},"country":"PL","name":"Grajewo"},{"_id":771506,"coord":{"lat":53.647282,"lon":22.45537},"country":"PL","name":"Grajewo"},{"_id":771381,"coord":{"lat":50.561981,"lon":22.70785},"country":"PL","name":"Gromada"},{"_id":7530756,"coord":{"lat":53.737659,"lon":16.589569},"country":"PL","name":"Powiat szczecinecki"},{"_id":7531675,"coord":{"lat":53.702702,"lon":16.694599},"country":"PL","name":"Szczecinek"},{"_id":3083826,"coord":{"lat":53.707909,"lon":16.699369},"country":"PL","name":"Szczecinek"},{"_id":7533105,"coord":{"lat":49.561798,"lon":20.635099},"country":"PL","name":"Stary Sącz"},{"_id":758282,"coord":{"lat":49.563641,"lon":20.63496},"country":"PL","name":"Stary Sacz"},{"_id":7533423,"coord":{"lat":53.256001,"lon":14.4967},"country":"PL","name":"Gryfino"},{"_id":3098200,"coord":{"lat":53.25243,"lon":14.48831},"country":"PL","name":"Gryfino"},{"_id":7531814,"coord":{"lat":50.386501,"lon":19.121901},"country":"PL","name":"Psary"},{"_id":3087743,"coord":{"lat":50.379639,"lon":19.11548},"country":"PL","name":"Psary"},{"_id":7530734,"coord":{"lat":50.460541,"lon":17.335461},"country":"PL","name":"Powiat nyski"},{"_id":7533409,"coord":{"lat":50.466099,"lon":17.003799},"country":"PL","name":"Paczków"},{"_id":3089566,"coord":{"lat":50.463951,"lon":17.00658},"country":"PL","name":"Paczkow"},{"_id":7531073,"coord":{"lat":51.8368,"lon":17.03471},"country":"PL","name":"Powiat gostyński"},{"_id":7533239,"coord":{"lat":51.882702,"lon":17.0091},"country":"PL","name":"Gostyń"},{"_id":3098625,"coord":{"lat":51.882469,"lon":17.01226},"country":"PL","name":"Gostyn"},{"_id":7531069,"coord":{"lat":54.422112,"lon":17.15917},"country":"PL","name":"Powiat słupski"},{"_id":7531163,"coord":{"lat":54.573181,"lon":16.86018},"country":"PL","name":"Ustka"},{"_id":3082756,"coord":{"lat":54.580479,"lon":16.86194},"country":"PL","name":"Ustka"},{"_id":7533360,"coord":{"lat":50.4702,"lon":20.716499},"country":"PL","name":"Busko-Zdrój"},{"_id":774747,"coord":{"lat":50.470779,"lon":20.71884},"country":"PL","name":"Busko-Zdroj"},{"_id":7530799,"coord":{"lat":54.018082,"lon":21.821911},"country":"PL","name":"Powiat giżycki"},{"_id":7531922,"coord":{"lat":54.025101,"lon":21.757299},"country":"PL","name":"Giżycko"},{"_id":772195,"coord":{"lat":54.038109,"lon":21.76441},"country":"PL","name":"Gizycko"},{"_id":7533299,"coord":{"lat":52.6982,"lon":21.880501},"country":"PL","name":"Brok"},{"_id":775304,"coord":{"lat":52.699478,"lon":21.85704},"country":"PL","name":"Brok"},{"_id":7530973,"coord":{"lat":51.958061,"lon":20.169121},"country":"PL","name":"Skierniewice"},{"_id":7531180,"coord":{"lat":51.958061,"lon":20.169121},"country":"PL","name":"Skierniewice"},{"_id":759123,"coord":{"lat":51.954849,"lon":20.158369},"country":"PL","name":"Skierniewice"},{"_id":7530977,"coord":{"lat":50.69508,"lon":21.608999},"country":"PL","name":"Powiat sandomierski"},{"_id":7532761,"coord":{"lat":50.679501,"lon":21.747},"country":"PL","name":"Sandomierz"},{"_id":759603,"coord":{"lat":50.682652,"lon":21.74898},"country":"PL","name":"Sandomierz"},{"_id":3087628,"coord":{"lat":50.400002,"lon":18.633329},"country":"PL","name":"Pyskowice"},{"_id":7530835,"coord":{"lat":50.960621,"lon":17.306009},"country":"PL","name":"Powiat oławski"},{"_id":7532481,"coord":{"lat":50.957401,"lon":17.294201},"country":"PL","name":"Oława"},{"_id":3090205,"coord":{"lat":50.946602,"lon":17.292601},"country":"PL","name":"Olawa"},{"_id":774843,"coord":{"lat":51.069721,"lon":21.06925},"country":"PL","name":"Bugaj"},{"_id":7530917,"coord":{"lat":53.481281,"lon":18.411631},"country":"PL","name":"Powiat świecki"},{"_id":7533276,"coord":{"lat":53.403099,"lon":18.418699},"country":"PL","name":"Świecie"},{"_id":3084074,"coord":{"lat":53.409531,"lon":18.44742},"country":"PL","name":"Swiecie"},{"_id":7530759,"coord":{"lat":52.266891,"lon":20.213381},"country":"PL","name":"Powiat sochaczewski"},{"_id":7532270,"coord":{"lat":52.236198,"lon":20.244499},"country":"PL","name":"Sochaczew"},{"_id":758682,"coord":{"lat":52.229439,"lon":20.23838},"country":"PL","name":"Sochaczew"},{"_id":7531008,"coord":{"lat":51.064629,"lon":19.630381},"country":"PL","name":"Powiat radomszczański"},{"_id":7532572,"coord":{"lat":51.071098,"lon":19.442699},"country":"PL","name":"Radomsko"},{"_id":3087497,"coord":{"lat":51.067131,"lon":19.444771},"country":"PL","name":"Radomsko"},{"_id":7530841,"coord":{"lat":53.797421,"lon":23.14275},"country":"PL","name":"Powiat augustowski"},{"_id":7531271,"coord":{"lat":53.83971,"lon":22.9492},"country":"PL","name":"Augustów"},{"_id":776597,"coord":{"lat":53.843208,"lon":22.97979},"country":"PL","name":"Augustow"},{"_id":7530732,"coord":{"lat":50.789299,"lon":17.484989},"country":"PL","name":"Powiat brzeski"},{"_id":7531919,"coord":{"lat":50.8647,"lon":17.491899},"country":"PL","name":"Skarbimierz"},{"_id":3080105,"coord":{"lat":50.842701,"lon":17.45813},"country":"PL","name":"Żłobizna"},{"_id":7530994,"coord":{"lat":52.415409,"lon":16.925249},"country":"PL","name":"Powiat poznański"},{"_id":7533462,"coord":{"lat":52.409401,"lon":17.0665},"country":"PL","name":"Swarzędz"},{"_id":3084130,"coord":{"lat":52.412891,"lon":17.08503},"country":"PL","name":"Swarzedz"},{"_id":7530855,"coord":{"lat":51.842178,"lon":15.72698},"country":"PL","name":"Powiat nowosolski"},{"_id":7532629,"coord":{"lat":51.803398,"lon":15.7118},"country":"PL","name":"Nowa Sól"},{"_id":3090764,"coord":{"lat":51.803329,"lon":15.71702},"country":"PL","name":"Nowa Sol"},{"_id":7530851,"coord":{"lat":50.55669,"lon":16.87221},"country":"PL","name":"Powiat ząbkowicki"},{"_id":7533200,"coord":{"lat":50.587299,"lon":16.8228},"country":"PL","name":"Ząbkowice Śląskie"},{"_id":3083469,"coord":{"lat":50.578491,"lon":16.790371},"country":"PL","name":"Tarnów"},{"_id":774534,"coord":{"lat":51.47187,"lon":22.64031},"country":"PL","name":"Chlewiska"},{"_id":7530876,"coord":{"lat":52.016338,"lon":20.983191},"country":"PL","name":"Powiat piaseczyński"},{"_id":7533319,"coord":{"lat":52.073399,"lon":21.017},"country":"PL","name":"Piaseczno"},{"_id":762423,"coord":{"lat":52.081402,"lon":21.02397},"country":"PL","name":"Piaseczno"},{"_id":7533235,"coord":{"lat":52.658699,"lon":17.9541},"country":"PL","name":"Mogilno"},{"_id":3091523,"coord":{"lat":52.658058,"lon":17.95578},"country":"PL","name":"Mogilno"},{"_id":3080525,"coord":{"lat":50.505909,"lon":19.41342},"country":"PL","name":"Zawiercie Nowe"},{"_id":3089012,"coord":{"lat":53.616791,"lon":16.464479},"country":"PL","name":"Pile"},{"_id":7531063,"coord":{"lat":52.70845,"lon":23.55719},"country":"PL","name":"Powiat hajnowski"},{"_id":7532457,"coord":{"lat":52.723598,"lon":23.5665},"country":"PL","name":"Hajnówka"},{"_id":771158,"coord":{"lat":52.743279,"lon":23.581221},"country":"PL","name":"Hajnowka"},{"_id":7530861,"coord":{"lat":53.44743,"lon":16.02132},"country":"PL","name":"Powiat drawski"},{"_id":7533023,"coord":{"lat":53.525101,"lon":16.0151},"country":"PL","name":"Złocieniec"},{"_id":3080102,"coord":{"lat":53.53286,"lon":16.01132},"country":"PL","name":"Zlocieniec"},{"_id":6695600,"coord":{"lat":52.12701,"lon":20.69309},"country":"PL","name":"Turczynek"},{"_id":6690151,"coord":{"lat":50.135651,"lon":19.404341},"country":"PL","name":"Powiat chrzanowski"},{"_id":7533327,"coord":{"lat":50.1292,"lon":19.359501},"country":"PL","name":"Chrzanów"},{"_id":3101547,"coord":{"lat":50.13546,"lon":19.402031},"country":"PL","name":"Chrzanow"},{"_id":7530905,"coord":{"lat":53.269821,"lon":19.422791},"country":"PL","name":"Powiat brodnicki"},{"_id":7532702,"coord":{"lat":53.2579,"lon":19.406401},"country":"PL","name":"Brodnica"},{"_id":3102627,"coord":{"lat":53.25967,"lon":19.39653},"country":"PL","name":"Brodnica"},{"_id":766376,"coord":{"lat":51.90115,"lon":21.64802},"country":"PL","name":"Leszczyny"},{"_id":7531058,"coord":{"lat":50.56287,"lon":21.7363},"country":"PL","name":"Powiat tarnobrzeski"},{"_id":7533295,"coord":{"lat":50.4198,"lon":21.754},"country":"PL","name":"Nowa Dęba"},{"_id":763783,"coord":{"lat":50.429741,"lon":21.75078},"country":"PL","name":"Nowa Deba"},{"_id":7530753,"coord":{"lat":53.729061,"lon":19.9144},"country":"PL","name":"Powiat ostródzki"},{"_id":7532473,"coord":{"lat":53.5308,"lon":20.1311},"country":"PL","name":"Grunwald"},{"_id":771336,"coord":{"lat":53.484219,"lon":20.09425},"country":"PL","name":"Grunwald"},{"_id":7531027,"coord":{"lat":51.620399,"lon":18.95085},"country":"PL","name":"Powiat zduńskowolski"},{"_id":7531684,"coord":{"lat":51.5952,"lon":18.964701},"country":"PL","name":"Zduńska Wola"},{"_id":3080414,"coord":{"lat":51.599152,"lon":18.939739},"country":"PL","name":"Zdunska Wola"},{"_id":7531016,"coord":{"lat":51.558842,"lon":19.03824},"country":"PL","name":"Powiat łaski"},{"_id":7533524,"coord":{"lat":51.601799,"lon":19.158199},"country":"PL","name":"Łask"},{"_id":3093902,"coord":{"lat":51.590561,"lon":19.13278},"country":"PL","name":"Lask"},{"_id":7531025,"coord":{"lat":51.232609,"lon":18.630329},"country":"PL","name":"Powiat wieluński"},{"_id":7533434,"coord":{"lat":51.2253,"lon":18.569},"country":"PL","name":"Wieluń"},{"_id":3082197,"coord":{"lat":51.22097,"lon":18.569639},"country":"PL","name":"Wielun"},{"_id":7530795,"coord":{"lat":53.942928,"lon":15.19082},"country":"PL","name":"Powiat gryficki"},{"_id":3083145,"coord":{"lat":54.06147,"lon":15.26475},"country":"PL","name":"Trzebiatow"},{"_id":764717,"coord":{"lat":50.894859,"lon":21.377529},"country":"PL","name":"Miłków"},{"_id":760087,"coord":{"lat":52.143242,"lon":21.328529},"country":"PL","name":"Rudka"},{"_id":7530785,"coord":{"lat":54.01939,"lon":18.004},"country":"PL","name":"Powiat kościerski"},{"_id":7532759,"coord":{"lat":54.120701,"lon":17.9846},"country":"PL","name":"Kościerzyna"},{"_id":3095126,"coord":{"lat":54.122261,"lon":17.98119},"country":"PL","name":"Koscierzyna"},{"_id":7531050,"coord":{"lat":50.673672,"lon":18.793779},"country":"PL","name":"Powiat lubliniecki"},{"_id":7531778,"coord":{"lat":50.6432,"lon":18.708599},"country":"PL","name":"Lubliniec"},{"_id":3092906,"coord":{"lat":50.668968,"lon":18.684401},"country":"PL","name":"Lubliniec"},{"_id":3080422,"coord":{"lat":52.026241,"lon":18.50532},"country":"PL","name":"Zdrojki"},{"_id":3087027,"coord":{"lat":50.43195,"lon":19.43293},"country":"PL","name":"Rokitno Szlacheckie"},{"_id":7530854,"coord":{"lat":49.993229,"lon":18.425039},"country":"PL","name":"Powiat wodzisławski"},{"_id":7531744,"coord":{"lat":50.0023,"lon":18.439899},"country":"PL","name":"Wodzisław Śląski"},{"_id":3081677,"coord":{"lat":50.003769,"lon":18.47205},"country":"PL","name":"Wodzislaw Slaski"},{"_id":7530884,"coord":{"lat":52.638939,"lon":20.347099},"country":"PL","name":"Powiat płoński"},{"_id":7531402,"coord":{"lat":52.626469,"lon":20.36301},"country":"PL","name":"Płońsk"},{"_id":762021,"coord":{"lat":52.623482,"lon":20.375521},"country":"PL","name":"Plonsk"},{"_id":3096605,"coord":{"lat":52.976089,"lon":19.90349},"country":"PL","name":"Karniszyn"},{"_id":7530978,"coord":{"lat":52.738628,"lon":15.08508},"country":"PL","name":"Powiat gorzowski"},{"_id":7531390,"coord":{"lat":52.61628,"lon":14.64042},"country":"PL","name":"Kostrzyn nad Odrą"},{"_id":3095057,"coord":{"lat":52.587132,"lon":14.64953},"country":"PL","name":"Kostrzyn nad Odra"},{"_id":7530752,"coord":{"lat":52.651371,"lon":21.44537},"country":"PL","name":"Powiat wyszkowski"},{"_id":7533316,"coord":{"lat":52.592201,"lon":21.4471},"country":"PL","name":"Wyszków"},{"_id":754454,"coord":{"lat":52.592781,"lon":21.458401},"country":"PL","name":"Wyszkow"},{"_id":753911,"coord":{"lat":52.173569,"lon":20.937321},"country":"PL","name":"Załuski"},{"_id":761471,"coord":{"lat":50.354031,"lon":22.32004},"country":"PL","name":"Poręba"},{"_id":7531024,"coord":{"lat":51.596668,"lon":20.06638},"country":"PL","name":"Powiat tomaszowski"},{"_id":7531284,"coord":{"lat":51.520599,"lon":20.025921},"country":"PL","name":"Tomaszów Mazowiecki"},{"_id":756867,"coord":{"lat":51.531311,"lon":20.008551},"country":"PL","name":"Tomaszow Mazowiecki"},{"_id":7530847,"coord":{"lat":51.371948,"lon":17.049891},"country":"PL","name":"Powiat trzebnicki"},{"_id":7533037,"coord":{"lat":51.3069,"lon":17.059099},"country":"PL","name":"Trzebnica"},{"_id":3083103,"coord":{"lat":51.31076,"lon":17.063311},"country":"PL","name":"Trzebnica"},{"_id":7531070,"coord":{"lat":54.617069,"lon":18.048809},"country":"PL","name":"Powiat wejherowski"},{"_id":7532619,"coord":{"lat":54.605999,"lon":18.2337},"country":"PL","name":"Wejherowo"},{"_id":3082473,"coord":{"lat":54.605679,"lon":18.23559},"country":"PL","name":"Wejherowo"},{"_id":7530788,"coord":{"lat":54.69659,"lon":18.369789},"country":"PL","name":"Powiat pucki"},{"_id":7531634,"coord":{"lat":54.715401,"lon":18.319401},"country":"PL","name":"Puck"},{"_id":3103267,"coord":{"lat":54.698238,"lon":18.430599},"country":"PL","name":"Błądzikowo"},{"_id":761920,"coord":{"lat":51.123718,"lon":20.903521},"country":"PL","name":"Podemłynek"},{"_id":7533335,"coord":{"lat":50.179501,"lon":19.438},"country":"PL","name":"Trzebinia"},{"_id":3083111,"coord":{"lat":50.159309,"lon":19.46966},"country":"PL","name":"Trzebinia"},{"_id":3089231,"coord":{"lat":50.305752,"lon":19.090839},"country":"PL","name":"Piaski"},{"_id":7533042,"coord":{"lat":50.777699,"lon":17.0767},"country":"PL","name":"Strzelin"},{"_id":3084404,"coord":{"lat":50.78157,"lon":17.06477},"country":"PL","name":"Strzelin"},{"_id":7531482,"coord":{"lat":50.573502,"lon":16.51955},"country":"PL","name":"Nowa Ruda"},{"_id":3090768,"coord":{"lat":50.580078,"lon":16.50164},"country":"PL","name":"Nowa Ruda"},{"_id":7530892,"coord":{"lat":52.223629,"lon":22.8451},"country":"PL","name":"Powiat łosicki"},{"_id":7533149,"coord":{"lat":52.1959,"lon":22.719801},"country":"PL","name":"Łosice"},{"_id":765976,"coord":{"lat":52.211288,"lon":22.71801},"country":"PL","name":"Losice"},{"_id":7531045,"coord":{"lat":51.645069,"lon":16.94944},"country":"PL","name":"Powiat rawicki"},{"_id":7533203,"coord":{"lat":51.616901,"lon":16.878201},"country":"PL","name":"Rawicz"},{"_id":3087307,"coord":{"lat":51.609459,"lon":16.858521},"country":"PL","name":"Rawicz"},{"_id":7530887,"coord":{"lat":52.67207,"lon":21.02401},"country":"PL","name":"Powiat pułtuski"},{"_id":7533092,"coord":{"lat":52.701302,"lon":21.0832},"country":"PL","name":"Pułtusk"},{"_id":760917,"coord":{"lat":52.702499,"lon":21.08276},"country":"PL","name":"Pultusk"},{"_id":7530880,"coord":{"lat":53.054958,"lon":20.377081},"country":"PL","name":"Powiat mławski"},{"_id":7532889,"coord":{"lat":53.134102,"lon":20.381201},"country":"PL","name":"Mława"},{"_id":764634,"coord":{"lat":53.112782,"lon":20.3841},"country":"PL","name":"Mlawa"},{"_id":7530936,"coord":{"lat":53.28883,"lon":20.04817},"country":"PL","name":"Powiat działdowski"},{"_id":7532449,"coord":{"lat":53.2883,"lon":20.151899},"country":"PL","name":"Działdowo"},{"_id":772748,"coord":{"lat":53.239578,"lon":20.17004},"country":"PL","name":"Dzialdowo"},{"_id":7530955,"coord":{"lat":51.76228,"lon":20.3853},"country":"PL","name":"Powiat rawski"},{"_id":7532155,"coord":{"lat":51.758202,"lon":20.254999},"country":"PL","name":"Rawa Mazowiecka"},{"_id":760584,"coord":{"lat":51.76437,"lon":20.25493},"country":"PL","name":"Rawa Mazowiecka"},{"_id":7533362,"coord":{"lat":52.401199,"lon":19.730801},"country":"PL","name":"Gąbin"},{"_id":3099619,"coord":{"lat":52.398491,"lon":19.73509},"country":"PL","name":"Gabin"},{"_id":7530825,"coord":{"lat":50.01292,"lon":20.991779},"country":"PL","name":"Powiat tarnowski"},{"_id":7533072,"coord":{"lat":49.877499,"lon":21.1416},"country":"PL","name":"Ryglice"},{"_id":759859,"coord":{"lat":49.878868,"lon":21.13748},"country":"PL","name":"Ryglice"},{"_id":7533455,"coord":{"lat":49.8274,"lon":20.660999},"country":"PL","name":"Czchów"},{"_id":773832,"coord":{"lat":49.837261,"lon":20.680559},"country":"PL","name":"Czchow"},{"_id":7530856,"coord":{"lat":51.594711,"lon":15.42253},"country":"PL","name":"Powiat żagański"},{"_id":7532682,"coord":{"lat":51.614899,"lon":15.3156},"country":"PL","name":"Żagań"},{"_id":3080944,"coord":{"lat":51.617592,"lon":15.31486},"country":"PL","name":"Zagan"},{"_id":7532244,"coord":{"lat":51.151699,"lon":15.0171},"country":"PL","name":"Zgorzelec"},{"_id":3080231,"coord":{"lat":51.149422,"lon":15.00835},"country":"PL","name":"Zgorzelec"},{"_id":6690155,"coord":{"lat":49.707611,"lon":20.42444},"country":"PL","name":"Powiat limanowski"},{"_id":7532380,"coord":{"lat":49.714901,"lon":20.4107},"country":"PL","name":"Limanowa"},{"_id":766301,"coord":{"lat":49.70594,"lon":20.422041},"country":"PL","name":"Limanowa"},{"_id":7530922,"coord":{"lat":52.822552,"lon":17.737431},"country":"PL","name":"Powiat żniński"},{"_id":7533226,"coord":{"lat":52.844601,"lon":17.73},"country":"PL","name":"Żnin"},{"_id":3080047,"coord":{"lat":52.849579,"lon":17.719919},"country":"PL","name":"Znin"},{"_id":7530906,"coord":{"lat":53.190289,"lon":18.03808},"country":"PL","name":"Powiat bydgoski"},{"_id":7533412,"coord":{"lat":53.0746,"lon":18.242599},"country":"PL","name":"Solec Kujawski"},{"_id":3085172,"coord":{"lat":53.08371,"lon":18.225719},"country":"PL","name":"Solec Kujawski"},{"_id":7531053,"coord":{"lat":50.472641,"lon":18.86265},"country":"PL","name":"Powiat tarnogórski"},{"_id":7531827,"coord":{"lat":50.4655,"lon":18.841999},"country":"PL","name":"Tarnowskie Góry"},{"_id":3083440,"coord":{"lat":50.44548,"lon":18.861469},"country":"PL","name":"Tarnowskie Gory"},{"_id":766919,"coord":{"lat":50.9179,"lon":22.24124},"country":"PL","name":"Kwiatkowice"},{"_id":7530798,"coord":{"lat":54.212528,"lon":20.740761},"country":"PL","name":"Powiat bartoszycki"},{"_id":7531673,"coord":{"lat":54.253399,"lon":20.810301},"country":"PL","name":"Bartoszyce"},{"_id":776337,"coord":{"lat":54.25354,"lon":20.808189},"country":"PL","name":"Bartoszyce"},{"_id":7531652,"coord":{"lat":53.702599,"lon":19.9529},"country":"PL","name":"Ostróda"},{"_id":3089779,"coord":{"lat":53.696709,"lon":19.964861},"country":"PL","name":"Ostroda"},{"_id":7530800,"coord":{"lat":54.105808,"lon":20.380449},"country":"PL","name":"Powiat lidzbarski"},{"_id":7531391,"coord":{"lat":54.130779,"lon":20.567341},"country":"PL","name":"Lidzbark Warmiński"},{"_id":766307,"coord":{"lat":54.125881,"lon":20.57954},"country":"PL","name":"Lidzbark Warminski"},{"_id":7531000,"coord":{"lat":53.372398,"lon":20.498581},"country":"PL","name":"Powiat nidzicki"},{"_id":7532990,"coord":{"lat":53.362999,"lon":20.422899},"country":"PL","name":"Nidzica"},{"_id":764039,"coord":{"lat":53.360519,"lon":20.42749},"country":"PL","name":"Nidzica"},{"_id":7530860,"coord":{"lat":54.136509,"lon":21.31217},"country":"PL","name":"Powiat kętrzyński"},{"_id":7531147,"coord":{"lat":54.082321,"lon":21.37496},"country":"PL","name":"Kętrzyn"},{"_id":769274,"coord":{"lat":54.076759,"lon":21.375271},"country":"PL","name":"Ketrzyn"},{"_id":7530873,"coord":{"lat":51.522671,"lon":23.38279},"country":"PL","name":"Powiat włodawski"},{"_id":7532229,"coord":{"lat":51.541199,"lon":23.5336},"country":"PL","name":"Włodawa"},{"_id":755474,"coord":{"lat":51.549999,"lon":23.549999},"country":"PL","name":"Wlodawa"},{"_id":7532222,"coord":{"lat":52.976002,"lon":22.2472},"country":"PL","name":"Zambrów"},{"_id":753895,"coord":{"lat":52.9855,"lon":22.243191},"country":"PL","name":"Zambrow"},{"_id":7531028,"coord":{"lat":51.904099,"lon":19.48024},"country":"PL","name":"Powiat zgierski"},{"_id":7531886,"coord":{"lat":51.855499,"lon":19.393999},"country":"PL","name":"Zgierz"},{"_id":3080251,"coord":{"lat":51.85561,"lon":19.406231},"country":"PL","name":"Zgierz"},{"_id":7530754,"coord":{"lat":54.109699,"lon":16.302311},"country":"PL","name":"Powiat koszaliński"},{"_id":7533270,"coord":{"lat":54.224201,"lon":16.319201},"country":"PL","name":"Sianów"},{"_id":3086134,"coord":{"lat":54.22646,"lon":16.291269},"country":"PL","name":"Sianow"},{"_id":7530755,"coord":{"lat":54.379101,"lon":16.53986},"country":"PL","name":"Powiat sławieński"},{"_id":7532657,"coord":{"lat":54.428501,"lon":16.410601},"country":"PL","name":"Darłowo"},{"_id":3100637,"coord":{"lat":54.420952,"lon":16.4107},"country":"PL","name":"Darlowo"},{"_id":7530786,"coord":{"lat":54.568298,"lon":17.651779},"country":"PL","name":"Powiat lęborski"},{"_id":7532621,"coord":{"lat":54.5355,"lon":17.757799},"country":"PL","name":"Lębork"},{"_id":3093739,"coord":{"lat":54.539211,"lon":17.75012},"country":"PL","name":"Lebork"},{"_id":7530913,"coord":{"lat":53.094799,"lon":17.58988},"country":"PL","name":"Powiat nakielski"},{"_id":7533425,"coord":{"lat":53.009602,"lon":17.7423},"country":"PL","name":"Szubin"},{"_id":3083611,"coord":{"lat":53.00967,"lon":17.74},"country":"PL","name":"Szubin"},{"_id":7530919,"coord":{"lat":53.581459,"lon":17.939671},"country":"PL","name":"Powiat tucholski"},{"_id":7533414,"coord":{"lat":53.586948,"lon":17.86162},"country":"PL","name":"Tuchola"},{"_id":3083043,"coord":{"lat":53.587921,"lon":17.859051},"country":"PL","name":"Tuchola"},{"_id":7531051,"coord":{"lat":50.452629,"lon":17.95768},"country":"PL","name":"Powiat krapkowicki"},{"_id":7533124,"coord":{"lat":50.421299,"lon":18.114799},"country":"PL","name":"Zdzieszowice"},{"_id":3080389,"coord":{"lat":50.42482,"lon":18.123489},"country":"PL","name":"Zdzieszowice"},{"_id":7530965,"coord":{"lat":50.380939,"lon":18.92841},"country":"PL","name":"Piekary Śląskie"},{"_id":7532298,"coord":{"lat":50.380501,"lon":18.926531},"country":"PL","name":"Piekary Śląskie"},{"_id":3094865,"coord":{"lat":50.411201,"lon":18.94841},"country":"PL","name":"Kozłowa Góra"},{"_id":7532831,"coord":{"lat":52.077801,"lon":20.3487},"country":"PL","name":"Wiskitki"},{"_id":767772,"coord":{"lat":52.084782,"lon":20.42968},"country":"PL","name":"Nowe Kozłowice"},{"_id":3097064,"coord":{"lat":50.286961,"lon":19.01016},"country":"PL","name":"Józefowiec"},{"_id":3098020,"coord":{"lat":50.593498,"lon":19.36342},"country":"PL","name":"Helenówka"},{"_id":3092630,"coord":{"lat":54.383331,"lon":19.450001},"country":"PL","name":"Łysica"},{"_id":7530979,"coord":{"lat":52.498909,"lon":15.58284},"country":"PL","name":"Powiat międzyrzecki"},{"_id":7533417,"coord":{"lat":52.591202,"lon":15.5058},"country":"PL","name":"Skwierzyna"},{"_id":3085656,"coord":{"lat":52.59914,"lon":15.50652},"country":"PL","name":"Skwierzyna"},{"_id":7530768,"coord":{"lat":50.099918,"lon":19.937071},"country":"PL","name":"Powiat krakowski"},{"_id":7533033,"coord":{"lat":49.932301,"lon":19.954599},"country":"PL","name":"Świątniki Górne"},{"_id":3084107,"coord":{"lat":49.934292,"lon":19.95364},"country":"PL","name":"Swiatniki Gorne"},{"_id":7530817,"coord":{"lat":50.18914,"lon":19.301331},"country":"PL","name":"Jaworzno"},{"_id":7531790,"coord":{"lat":50.189098,"lon":19.3013},"country":"PL","name":"Jaworzno"},{"_id":3097333,"coord":{"lat":50.20528,"lon":19.274981},"country":"PL","name":"Jaworzno"},{"_id":3086682,"coord":{"lat":52.834572,"lon":19.200109},"country":"PL","name":"Rumunki Lipnowskie"},{"_id":7530883,"coord":{"lat":52.048981,"lon":21.372511},"country":"PL","name":"Powiat otwocki"},{"_id":7533165,"coord":{"lat":52.065701,"lon":21.277399},"country":"PL","name":"Karczew"},{"_id":769539,"coord":{"lat":52.07655,"lon":21.24962},"country":"PL","name":"Karczew"},{"_id":7531061,"coord":{"lat":52.746288,"lon":23.006689},"country":"PL","name":"Powiat bielski"},{"_id":7531759,"coord":{"lat":52.764099,"lon":23.190201},"country":"PL","name":"Bielsk Podlaski"},{"_id":775986,"coord":{"lat":52.765121,"lon":23.18647},"country":"PL","name":"Bielsk Podlaski"},{"_id":7531001,"coord":{"lat":53.680759,"lon":21.857229},"country":"PL","name":"Powiat piski"},{"_id":7533139,"coord":{"lat":53.6273,"lon":21.809601},"country":"PL","name":"Pisz"},{"_id":762120,"coord":{"lat":53.627441,"lon":21.812531},"country":"PL","name":"Pisz"},{"_id":7530971,"coord":{"lat":54.22493,"lon":18.58157},"country":"PL","name":"Powiat gdański"},{"_id":7531202,"coord":{"lat":54.257778,"lon":18.6453},"country":"PL","name":"Pruszcz Gdański"},{"_id":3088034,"coord":{"lat":54.262169,"lon":18.63625},"country":"PL","name":"Pruszcz Gdanski"},{"_id":7532573,"coord":{"lat":54.569099,"lon":18.384701},"country":"PL","name":"Rumia"},{"_id":3086706,"coord":{"lat":54.570919,"lon":18.38802},"country":"PL","name":"Rumia"},{"_id":7533057,"coord":{"lat":54.33532,"lon":18.19726},"country":"PL","name":"Kartuzy"},{"_id":3096525,"coord":{"lat":54.33424,"lon":18.19735},"country":"PL","name":"Kartuzy"},{"_id":3083614,"coord":{"lat":54.033329,"lon":19.066669},"country":"PL","name":"Sztumskie Przedmicście"},{"_id":7530879,"coord":{"lat":52.465851,"lon":20.664049},"country":"PL","name":"Powiat nowodworski"},{"_id":7532456,"coord":{"lat":52.4342,"lon":20.6917},"country":"PL","name":"Nowy Dwór Mazowiecki"},{"_id":763556,"coord":{"lat":52.430222,"lon":20.71652},"country":"PL","name":"Nowy Dwor Mazowiecki"},{"_id":7530834,"coord":{"lat":51.254581,"lon":17.51679},"country":"PL","name":"Powiat oleśnicki"},{"_id":7531860,"coord":{"lat":51.210499,"lon":17.386},"country":"PL","name":"Oleśnica"},{"_id":3090170,"coord":{"lat":51.213379,"lon":17.38986},"country":"PL","name":"Olesnica"},{"_id":7530996,"coord":{"lat":52.24091,"lon":17.590191},"country":"PL","name":"Powiat wrzesiński"},{"_id":7533329,"coord":{"lat":52.325802,"lon":17.568501},"country":"PL","name":"Września"},{"_id":3081324,"coord":{"lat":52.325119,"lon":17.565189},"country":"PL","name":"Wrzesnia"},{"_id":7530995,"coord":{"lat":52.583912,"lon":16.37726},"country":"PL","name":"Powiat szamotulski"},{"_id":7533141,"coord":{"lat":52.6092,"lon":16.5791},"country":"PL","name":"Szamotuły"},{"_id":3083878,"coord":{"lat":52.612011,"lon":16.57794},"country":"PL","name":"Szamotuly"},{"_id":7530802,"coord":{"lat":52.717049,"lon":16.85437},"country":"PL","name":"Powiat obornicki"},{"_id":7533554,"coord":{"lat":52.652699,"lon":16.8053},"country":"PL","name":"Oborniki"},{"_id":3090403,"coord":{"lat":52.647388,"lon":16.81406},"country":"PL","name":"Oborniki"},{"_id":7531079,"coord":{"lat":52.180099,"lon":17.30686},"country":"PL","name":"Powiat średzki"},{"_id":7533339,"coord":{"lat":52.2299,"lon":17.2803},"country":"PL","name":"Środa Wielkopolska"},{"_id":3085045,"coord":{"lat":52.228432,"lon":17.276171},"country":"PL","name":"Sroda Wielkopolska"},{"_id":7533073,"coord":{"lat":50.2953,"lon":16.6499},"country":"PL","name":"Bystrzyca Kłodzka"},{"_id":3101968,"coord":{"lat":50.301788,"lon":16.642309},"country":"PL","name":"Bystrzyca Klodzka"},{"_id":7530751,"coord":{"lat":52.406158,"lon":21.401211},"country":"PL","name":"Powiat wołomiński"},{"_id":7532677,"coord":{"lat":52.2924,"lon":21.112499},"country":"PL","name":"Ząbki"},{"_id":754351,"coord":{"lat":52.292709,"lon":21.105391},"country":"PL","name":"Zabki"},{"_id":772410,"coord":{"lat":52.433411,"lon":20.63335},"country":"PL","name":"Gałachy"},{"_id":753854,"coord":{"lat":52.15456,"lon":21.327551},"country":"PL","name":"Zanęcin"},{"_id":759180,"coord":{"lat":52.316669,"lon":21.133329},"country":"PL","name":"Siwki"},{"_id":7532455,"coord":{"lat":52.128502,"lon":21.219999},"country":"PL","name":"Józefów"},{"_id":769981,"coord":{"lat":52.13707,"lon":21.235889},"country":"PL","name":"Jozefow"},{"_id":753276,"coord":{"lat":52.303761,"lon":21.160179},"country":"PL","name":"Zielonka"},{"_id":7530765,"coord":{"lat":51.151451,"lon":20.34186},"country":"PL","name":"Powiat konecki"},{"_id":7533030,"coord":{"lat":51.184399,"lon":20.405399},"country":"PL","name":"Końskie"},{"_id":768218,"coord":{"lat":51.191662,"lon":20.406071},"country":"PL","name":"Konskie"},{"_id":7530869,"coord":{"lat":51.782551,"lon":22.707581},"country":"PL","name":"Powiat radzyński"},{"_id":7531307,"coord":{"lat":51.776829,"lon":22.626369},"country":"PL","name":"Radzyń Podlaski"},{"_id":760680,"coord":{"lat":51.783329,"lon":22.616671},"country":"PL","name":"Radzyn Podlaski"},{"_id":7530948,"coord":{"lat":53.412609,"lon":16.915159},"country":"PL","name":"Powiat złotowski"},{"_id":7533179,"coord":{"lat":53.4076,"lon":16.7887},"country":"PL","name":"Jastrowie"},{"_id":3097420,"coord":{"lat":53.420479,"lon":16.81756},"country":"PL","name":"Jastrowie"},{"_id":7531020,"coord":{"lat":51.392651,"lon":20.1943},"country":"PL","name":"Powiat opoczyński"},{"_id":7533039,"coord":{"lat":51.377399,"lon":20.274599},"country":"PL","name":"Opoczno"},{"_id":763111,"coord":{"lat":51.37569,"lon":20.278271},"country":"PL","name":"Opoczno"},{"_id":761131,"coord":{"lat":50.05912,"lon":22.49408},"country":"PL","name":"Przeworsk"},{"_id":764977,"coord":{"lat":51.57756,"lon":21.8295},"country":"PL","name":"Michalinów"},{"_id":7531617,"coord":{"lat":50.365929,"lon":19.031521},"country":"PL","name":"Wojkowice"},{"_id":3085675,"coord":{"lat":50.36813,"lon":19.05081},"country":"PL","name":"Skrzynówek"},{"_id":7530960,"coord":{"lat":53.236328,"lon":16.338511},"country":"PL","name":"Powiat wałecki"},{"_id":7532617,"coord":{"lat":53.272598,"lon":16.4494},"country":"PL","name":"Wałcz"},{"_id":3082704,"coord":{"lat":53.27787,"lon":16.47122},"country":"PL","name":"Walcz"},{"_id":3103476,"coord":{"lat":50.69075,"lon":16.622999},"country":"PL","name":"Bielawa"},{"_id":7530850,"coord":{"lat":51.042782,"lon":16.971149},"country":"PL","name":"Powiat wrocławski"},{"_id":7533109,"coord":{"lat":51.0271,"lon":16.761499},"country":"PL","name":"Kąty Wrocławskie"},{"_id":3096444,"coord":{"lat":51.030979,"lon":16.76767},"country":"PL","name":"Katy Wroclawskie"},{"_id":7530925,"coord":{"lat":52.063911,"lon":20.59408},"country":"PL","name":"Powiat grodziski"},{"_id":7531437,"coord":{"lat":52.110981,"lon":20.74695},"country":"PL","name":"Podkowa Leśna"},{"_id":761878,"coord":{"lat":52.122372,"lon":20.72665},"country":"PL","name":"Podkowa Lesna"},{"_id":762414,"coord":{"lat":50.030022,"lon":20.23436},"country":"PL","name":"Piaski"},{"_id":7531033,"coord":{"lat":49.989868,"lon":18.881769},"country":"PL","name":"Powiat pszczyński"},{"_id":7533068,"coord":{"lat":49.985901,"lon":18.932899},"country":"PL","name":"Pszczyna"},{"_id":3087705,"coord":{"lat":49.98037,"lon":18.953819},"country":"PL","name":"Pszczyna"},{"_id":7533553,"coord":{"lat":53.841,"lon":18.811399},"country":"PL","name":"Gniew"},{"_id":3099127,"coord":{"lat":53.836021,"lon":18.823099},"country":"PL","name":"Gniew"},{"_id":7533172,"coord":{"lat":50.434399,"lon":16.871799},"country":"PL","name":"Złoty Stok"},{"_id":3080061,"coord":{"lat":50.444721,"lon":16.87586},"country":"PL","name":"Zloty Stok"},{"_id":3089645,"coord":{"lat":50.483639,"lon":17.975309},"country":"PL","name":"Otmęt"},{"_id":7530872,"coord":{"lat":50.478249,"lon":23.52083},"country":"PL","name":"Powiat tomaszowski"},{"_id":7531659,"coord":{"lat":50.4478,"lon":23.426399},"country":"PL","name":"Tomaszów Lubelski"},{"_id":756868,"coord":{"lat":50.44767,"lon":23.416161},"country":"PL","name":"Tomaszow Lubelski"},{"_id":7531060,"coord":{"lat":53.11729,"lon":23.20767},"country":"PL","name":"Powiat białostocki"},{"_id":7533545,"coord":{"lat":53.302299,"lon":23.267799},"country":"PL","name":"Czarna Białostocka"},{"_id":773941,"coord":{"lat":53.305092,"lon":23.28146},"country":"PL","name":"Czarna Bialostocka"},{"_id":7533514,"coord":{"lat":52.391701,"lon":20.191099},"country":"PL","name":"Wyszogród"},{"_id":754451,"coord":{"lat":52.389881,"lon":20.190809},"country":"PL","name":"Wyszogrod"},{"_id":7530733,"coord":{"lat":51.016281,"lon":17.763041},"country":"PL","name":"Powiat namysłowski"},{"_id":7533527,"coord":{"lat":51.076801,"lon":17.6954},"country":"PL","name":"Namysłów"},{"_id":3091141,"coord":{"lat":51.07592,"lon":17.722839},"country":"PL","name":"Namyslow"},{"_id":7530900,"coord":{"lat":52.488419,"lon":22.886419},"country":"PL","name":"Powiat siemiatycki"},{"_id":7533298,"coord":{"lat":52.406399,"lon":22.653999},"country":"PL","name":"Drohiczyn"},{"_id":772959,"coord":{"lat":52.400108,"lon":22.658529},"country":"PL","name":"Drohiczyn"},{"_id":7530980,"coord":{"lat":52.32267,"lon":14.78921},"country":"PL","name":"Powiat słubicki"},{"_id":7533426,"coord":{"lat":52.3437,"lon":14.8363},"country":"PL","name":"Rzepin"},{"_id":3086435,"coord":{"lat":52.346401,"lon":14.83227},"country":"PL","name":"Rzepin"},{"_id":7530998,"coord":{"lat":50.756031,"lon":16.004709},"country":"PL","name":"Powiat kamiennogórski"},{"_id":7532304,"coord":{"lat":50.784599,"lon":16.0336},"country":"PL","name":"Kamienna Góra"},{"_id":3096779,"coord":{"lat":50.783138,"lon":16.030371},"country":"PL","name":"Kamienna Gora"},{"_id":7531967,"coord":{"lat":50.872501,"lon":16.338499},"country":"PL","name":"Świebodzice"},{"_id":3084084,"coord":{"lat":50.85976,"lon":16.328199},"country":"PL","name":"Swiebodzice"},{"_id":7533369,"coord":{"lat":50.5924,"lon":17.035101},"country":"PL","name":"Ziębice"},{"_id":3080226,"coord":{"lat":50.601219,"lon":17.040649},"country":"PL","name":"Ziebice"},{"_id":3091609,"coord":{"lat":50.099998,"lon":19.25},"country":"PL","name":"Młyny"},{"_id":7533372,"coord":{"lat":50.9599,"lon":16.3442},"country":"PL","name":"Strzegom"},{"_id":3084440,"coord":{"lat":50.962639,"lon":16.35006},"country":"PL","name":"Strzegom"},{"_id":7531034,"coord":{"lat":50.093559,"lon":19.1427},"country":"PL","name":"Powiat bieruńsko-lędziński"},{"_id":7531497,"coord":{"lat":50.084381,"lon":19.14328},"country":"PL","name":"Bieruń"},{"_id":3103365,"coord":{"lat":50.09,"lon":19.092911},"country":"PL","name":"Bierun"},{"_id":7531620,"coord":{"lat":54.762749,"lon":18.104191},"country":"PL","name":"Krokowa"},{"_id":3091728,"coord":{"lat":54.782181,"lon":18.17293},"country":"PL","name":"Minkowice"},{"_id":7530811,"coord":{"lat":50.099339,"lon":18.517929},"country":"PL","name":"Powiat rybnicki"},{"_id":7532592,"coord":{"lat":50.02026,"lon":18.58046},"country":"PL","name":"Świerklany"},{"_id":3084030,"coord":{"lat":50.018269,"lon":18.577021},"country":"PL","name":"Swierklany Dolne"},{"_id":7530949,"coord":{"lat":51.972221,"lon":23.15328},"country":"PL","name":"Powiat bialski"},{"_id":7531692,"coord":{"lat":52.018101,"lon":22.7731},"country":"PL","name":"Międzyrzec Podlaski"},{"_id":764862,"coord":{"lat":51.986401,"lon":22.78248},"country":"PL","name":"Miedzyrzec Podlaski"},{"_id":7530867,"coord":{"lat":51.599819,"lon":22.99629},"country":"PL","name":"Powiat parczewski"},{"_id":7533089,"coord":{"lat":51.634701,"lon":22.893},"country":"PL","name":"Parczew"},{"_id":762643,"coord":{"lat":51.640209,"lon":22.90057},"country":"PL","name":"Parczew"},{"_id":7533237,"coord":{"lat":53.054798,"lon":16.727699},"country":"PL","name":"Ujście"},{"_id":3082838,"coord":{"lat":53.053391,"lon":16.73201},"country":"PL","name":"Ujscie"},{"_id":7531077,"coord":{"lat":52.952888,"lon":17.01545},"country":"PL","name":"Powiat chodzieski"},{"_id":7533285,"coord":{"lat":52.970501,"lon":17.0998},"country":"PL","name":"Margonin"},{"_id":3092312,"coord":{"lat":52.973351,"lon":17.094641},"country":"PL","name":"Margonin"},{"_id":7533523,"coord":{"lat":50.6213,"lon":19.8277},"country":"PL","name":"Szczekociny"},{"_id":3083814,"coord":{"lat":50.62669,"lon":19.825001},"country":"PL","name":"Szczekociny"},{"_id":6690162,"coord":{"lat":49.744621,"lon":19.59103},"country":"PL","name":"Powiat suski"},{"_id":7532983,"coord":{"lat":49.739799,"lon":19.6607},"country":"PL","name":"Maków Podhalański"},{"_id":3092517,"coord":{"lat":49.73008,"lon":19.677111},"country":"PL","name":"Makow Podhalanski"},{"_id":7530832,"coord":{"lat":51.015591,"lon":15.52144},"country":"PL","name":"Powiat lwówecki"},{"_id":7533128,"coord":{"lat":51.111118,"lon":15.5866},"country":"PL","name":"Lwówek Śląski"},{"_id":3092638,"coord":{"lat":51.110741,"lon":15.58582},"country":"PL","name":"Lwowek Slaski"},{"_id":3093725,"coord":{"lat":52.307949,"lon":16.87517},"country":"PL","name":"Łęczyca"},{"_id":770059,"coord":{"lat":52.083328,"lon":21.116671},"country":"PL","name":"Jeziorna Oborska"},{"_id":7531199,"coord":{"lat":51.757179,"lon":19.31012},"country":"PL","name":"Konstantynów Łódzki"},{"_id":3095277,"coord":{"lat":51.747761,"lon":19.32564},"country":"PL","name":"Konstantynow Lodzki"},{"_id":7530888,"coord":{"lat":52.49538,"lon":22.26897},"country":"PL","name":"Powiat sokołowski"},{"_id":7532606,"coord":{"lat":52.4142,"lon":22.233999},"country":"PL","name":"Sokołów Podlaski"},{"_id":758626,"coord":{"lat":52.406769,"lon":22.253071},"country":"PL","name":"Sokolow Podlaski"},{"_id":7530932,"coord":{"lat":53.751122,"lon":17.18936},"country":"PL","name":"Powiat człuchowski"},{"_id":7531776,"coord":{"lat":53.6647,"lon":17.368},"country":"PL","name":"Człuchów"},{"_id":3100933,"coord":{"lat":53.667221,"lon":17.358829},"country":"PL","name":"Czluchow"},{"_id":7532989,"coord":{"lat":53.321899,"lon":17.947901},"country":"PL","name":"Koronowo"},{"_id":3095192,"coord":{"lat":53.313702,"lon":17.936979},"country":"PL","name":"Koronowo"},{"_id":7532260,"coord":{"lat":49.64518,"lon":19.543989},"country":"PL","name":"Zawoja"},{"_id":7576320,"coord":{"lat":49.692402,"lon":19.572399},"country":"PL","name":"Przysłop"},{"_id":3100353,"coord":{"lat":54.19994,"lon":16.05386},"country":"PL","name":"Dobre"},{"_id":7530766,"coord":{"lat":50.83205,"lon":19.976959},"country":"PL","name":"Powiat włoszczowski"},{"_id":7533374,"coord":{"lat":50.8573,"lon":19.986601},"country":"PL","name":"Włoszczowa"},{"_id":3081699,"coord":{"lat":50.852558,"lon":19.965931},"country":"PL","name":"Wloszczowa"},{"_id":7530904,"coord":{"lat":52.784649,"lon":18.719299},"country":"PL","name":"Powiat aleksandrowski"},{"_id":7532648,"coord":{"lat":52.876301,"lon":18.700399},"country":"PL","name":"Aleksandrów Kujawski"},{"_id":3104133,"coord":{"lat":52.876591,"lon":18.693451},"country":"PL","name":"Aleksandrow Kujawski"},{"_id":7533398,"coord":{"lat":51.3032,"lon":17.729401},"country":"PL","name":"Syców"},{"_id":3083921,"coord":{"lat":51.30814,"lon":17.71979},"country":"PL","name":"Sycow"},{"_id":7530740,"coord":{"lat":50.984859,"lon":23.17514},"country":"PL","name":"Powiat krasnostawski"},{"_id":7532093,"coord":{"lat":50.984959,"lon":23.1724},"country":"PL","name":"Krasnystaw"},{"_id":767605,"coord":{"lat":50.984638,"lon":23.1742},"country":"PL","name":"Krasnystaw"},{"_id":7530836,"coord":{"lat":51.499821,"lon":16.01528},"country":"PL","name":"Powiat polkowicki"},{"_id":7533252,"coord":{"lat":51.4175,"lon":15.906},"country":"PL","name":"Chocianów"},{"_id":3101722,"coord":{"lat":51.418671,"lon":15.90172},"country":"PL","name":"Chocianow"},{"_id":7531969,"coord":{"lat":50.521301,"lon":16.9105},"country":"PL","name":"Kamieniec Ząbkowicki"},{"_id":3096795,"coord":{"lat":50.52541,"lon":16.87921},"country":"PL","name":"Kamieniec Zabkowicki"},{"_id":7530875,"coord":{"lat":52.947701,"lon":21.179501},"country":"PL","name":"Powiat makowski"},{"_id":7531204,"coord":{"lat":52.861759,"lon":21.093109},"country":"PL","name":"Maków Mazowiecki"},{"_id":765430,"coord":{"lat":52.864929,"lon":21.100531},"country":"PL","name":"Makow Mazowiecki"},{"_id":7531935,"coord":{"lat":50.442261,"lon":18.936569},"country":"PL","name":"Świerklaniec"},{"_id":3089976,"coord":{"lat":50.427441,"lon":18.92275},"country":"PL","name":"Orzech"},{"_id":3099063,"coord":{"lat":53.05946,"lon":19.48056},"country":"PL","name":"Godziszewy"},{"_id":7531678,"coord":{"lat":50.3703,"lon":16.3818},"country":"PL","name":"Duszniki-Zdrój"},{"_id":3099992,"coord":{"lat":50.403271,"lon":16.390909},"country":"PL","name":"Duszniki-Zdroj"},{"_id":7532515,"coord":{"lat":50.703602,"lon":16.553801},"country":"PL","name":"Pieszyce"},{"_id":3089065,"coord":{"lat":50.712872,"lon":16.582319},"country":"PL","name":"Pieszyce"},{"_id":7532932,"coord":{"lat":50.5975,"lon":16.6766},"country":"PL","name":"Stoszowice"},{"_id":3084569,"coord":{"lat":50.599861,"lon":16.73896},"country":"PL","name":"Stoszowice"},{"_id":7533453,"coord":{"lat":50.297001,"lon":16.878901},"country":"PL","name":"Stronie Śląskie"},{"_id":3084515,"coord":{"lat":50.29554,"lon":16.87397},"country":"PL","name":"Stronie Slaskie"},{"_id":7533306,"coord":{"lat":50.094898,"lon":19.3179},"country":"PL","name":"Libiąż"},{"_id":3080675,"coord":{"lat":50.082588,"lon":19.35199},"country":"PL","name":"Zarki"},{"_id":7533558,"coord":{"lat":53.730099,"lon":22.679899},"country":"PL","name":"Rajgród"},{"_id":760672,"coord":{"lat":53.731022,"lon":22.705151},"country":"PL","name":"Rajgrod"},{"_id":7533350,"coord":{"lat":50.473499,"lon":17.336901},"country":"PL","name":"Nysa"},{"_id":3090436,"coord":{"lat":50.473789,"lon":17.33437},"country":"PL","name":"Nysa"},{"_id":7531018,"coord":{"lat":51.840729,"lon":19.83037},"country":"PL","name":"Powiat brzeziński"},{"_id":7531224,"coord":{"lat":51.800659,"lon":19.749439},"country":"PL","name":"Brzeziny"},{"_id":3102390,"coord":{"lat":51.800228,"lon":19.75144},"country":"PL","name":"Brzeziny"},{"_id":3080242,"coord":{"lat":50.283329,"lon":18.91667},"country":"PL","name":"Zgoda"},{"_id":7533130,"coord":{"lat":51.472599,"lon":19.224899},"country":"PL","name":"Zelów"},{"_id":3080295,"coord":{"lat":51.46452,"lon":19.219721},"country":"PL","name":"Zelow"},{"_id":7530859,"coord":{"lat":54.207279,"lon":21.77861},"country":"PL","name":"Powiat węgorzewski"},{"_id":7533387,"coord":{"lat":54.208,"lon":21.748899},"country":"PL","name":"Węgorzewo"},{"_id":756048,"coord":{"lat":54.215672,"lon":21.7372},"country":"PL","name":"Wegorzewo"},{"_id":766774,"coord":{"lat":52.985561,"lon":22.86302},"country":"PL","name":"Łapy Zięciuki"},{"_id":3092797,"coord":{"lat":53.260719,"lon":17.27346},"country":"PL","name":"Luchowo"},{"_id":7533410,"coord":{"lat":49.918499,"lon":18.7542},"country":"PL","name":"Strumień"},