{"countryCityList":[{"_id":4037930,"coord":{"lat":7.494,"lon":134.634506},"country":"PW","name":"State of Melekeok"},{"_id":7303944,"coord":{"lat":7.50043,"lon":134.62355},"country":"PW","name":"Melekeok"},{"_id":4037645,"coord":{"lat":7.36698,"lon":134.518661},"country":"PW","name":"State of Airai"},{"_id":4038353,"coord":{"lat":7.36051,"lon":134.5457},"country":"PW","name":"Yelch - New Village"},{"_id":1559582,"coord":{"lat":7.503,"lon":134.621002},"country":"PW","name":"Republic of Palau"},{"_id":1559446,"coord":{"lat":7.33978,"lon":134.473267},"country":"PW","name":"Koror State"},{"_id":1559543,"coord":{"lat":7.62416,"lon":134.642075},"country":"PW","name":"Ulimang"},{"_id":1559804,"coord":{"lat":7.49567,"lon":134.636703},"country":"PW","name":"Melekeok Village"},{"_id":1559820,"coord":{"lat":7.48826,"lon":134.485626},"country":"PW","name":"Ngereklmadel"},{"_id":1559864,"coord":{"lat":7.53134,"lon":134.52713},"country":"PW","name":"Imeong Hamlet"},{"_id":4038014,"coord":{"lat":7.55456,"lon":134.636124},"c