{"countryCode":"RS","countryName":"Serbia","countryFilePath":"RS.json","countryCityList":[{"_id":790698,"name":"Glogovac","country":"RS","coord":{"lon":21.316389,"lat":44.039719}},{"_id":793760,"name":"Golovša","country":"RS","coord":{"lon":20.35611,"lat":43.476391}},{"_id":3188434,"name":"Uzice","country":"RS","coord":{"lon":19.84878,"lat":43.858608}},{"_id":7581797,"name":"Juzhno Banatski Okrug","country":"RS","coord":{"lon":20.96583,"lat":45.08083}},{"_id":793111,"name":"Arangelovac","country":"RS","coord":{"lon":20.559999,"lat":44.306938}},{"_id":6619277,"name":"Knjazevac","country":"RS","coord":{"lon":22.250231,"lat":43.564838}},{"_id":6290252,"name":"Serbia","country":"RS","coord":{"lon":20.45998,"lat":44.81892}},{"_id":784344,"name":"Vlajkovac","country":"RS","coord":{"lon":21.200279,"lat":45.074718}},{"_id":787607,"name":"Novi Beograd","country":"RS","coord":{"lon":20.42417,"lat":44.805561}},{"_id":3204390,"name":"Opština Bečej","country":"RS","coord":{"lon":19.995279,"lat":45.609718}},{"_id":792814,"name":"Becej","country":"RS","coord":{"lon":20.03331,"lat":45.616322}},{"_id":788993,"name":"Krstur","country":"RS","coord":{"lon":20.1,"lat":46.133331}},{"_id":785973,"name":"Senjak (historical)","country":"RS","coord":{"lon":20.433331,"lat":44.783329}},{"_id":3189595,"name":"Subotica","country":"RS","coord":{"lon":19.66667,"lat":46.099998}},{"_id":791148,"name":"Dorćol (historical)","country":"RS","coord":{"lon":20.466669,"lat":44.816669}},{"_id":784272,"name":"Autonomna Pokrajina Vojvodina","country":"RS","coord":{"lon":20.0,"lat":45.0}},{"_id":7581796,"name":"Juzhno Bački Okrug","country":"RS","coord":{"lon":19.88917,"lat":45.408611}},{"_id":3194360,"name":"Novi Sad","country":"RS","coord":{"lon":19.836941,"lat":45.251671}},{"_id":783814,"name":"Zrenjanin","country":"RS","coord":{"lon":20.381941,"lat":45.38361}},{"_id":784135,"name":"Opština Vršac","country":"RS","coord":{"lon":21.302219,"lat":45.08889}},{"_id":784136,"name":"Vrsac","country":"RS","coord":{"lon":21.30361,"lat":45.116669}},{"_id":789128,"name":"Kragujevac","country":"RS","coord":{"lon":20.91667,"lat":44.01667}},{"_id":785756,"name":"Smederevo","country":"RS","coord":{"lon":20.93,"lat":44.662781}},{"_id":7581911,"name":"Zapadno Bački Okrug","country":"RS","coord":{"lon":19.112221,"lat":45.77417}},{"_id":3196973,"name":"Kula","country":"RS","coord":{"lon":19.52639,"lat":45.608891}},{"_id":787236,"name":"Opština Pančevo","country":"RS","coord":{"lon":20.718889,"lat":44.838329}},{"_id":787237,"name":"Pancevo","country":"RS","coord":{"lon":20.64028,"lat":44.870831}},{"_id":3190103,"name":"Sremska Mitrovica","country":"RS","coord":{"lon":19.612221,"lat":44.976391}},{"_id":784141,"name":"Vrnjacka Banja","country":"RS","coord":{"lon":20.9,"lat":43.616669}},{"_id":3190342,"name":"Sombor","country":"RS","coord":{"lon":19.112221,"lat":45.77417}},{"_id":792078,"name":"Cacak","country":"RS","coord":{"lon":20.34972,"lat":43.891392}},{"_id":3191376,"name":"Sabac","country":"RS","coord":{"lon":19.690001,"lat":44.74667}},{"_id":789600,"name":"Kanjiza","country":"RS","coord":{"lon":20.049999,"lat":46.066669}},{"_id":3204673,"name":"Opština Bačka Palanka","country":"RS","coord":{"lon":19.408331,"lat":45.28944}},{"_id":3204674,"name":"Backa Palanka","country":"RS","coord":{"lon":19.391939,"lat":45.250832}},{"_id":785753,"name":"Smederevska Palanka","country":"RS","coord":{"lon":20.958851,"lat":44.365479}},{"_id":3187297,"name":"Vrbas","country":"RS","coord":{"lon":19.640829,"lat":45.571388}},{"_id":784227,"name":"Vranje","country":"RS","coord":{"lon":21.90028,"lat":42.551392}},{"_id":792851,"name":"Basaid","country":"RS","coord":{"lon":20.414169,"lat":45.641109}},{"_id":785965,"name":"Senta","country":"RS","coord":{"lon":20.077221,"lat":45.927502}},{"_id":786690,"name":"Prokuplje","country":"RS","coord":{"lon":21.58806,"lat":43.234169}},{"_id":3204672,"name":"Backa Topola","country":"RS","coord":{"lon":19.6318,"lat":45.815159}},{"_id":788709,"name":"Leskovac","country":"RS","coord":{"lon":21.94611,"lat":42.998058}},{"_id":793093,"name":"Arilje","country":"RS","coord":{"lon":20.09556,"lat":43.753059}},{"_id":789107,"name":"Kraljevo","country":"RS","coord":{"lon":20.68944,"lat":43.72583}},{"_id":784024,"name":"Zajecar","country":"RS","coord":{"lon":22.26405,"lat":43.90358}},{"_id":788975,"name":"Krusevac","country":"RS","coord":{"lon":21.333891,"lat":43.580002}},{"_id":788852,"name":"Kursumlija","country":"RS","coord":{"lon":21.26861,"lat":43.145828}},{"_id":3204793,"name":"Apatin","country":"RS","coord":{"lon":18.98472,"lat":45.671108}},{"_id":786772,"name":"Presevo","country":"RS","coord":{"lon":21.64917,"lat":42.30917}},{"_id":784318,"name":"Vlasotince","country":"RS","coord":{"lon":22.12306,"lat":42.963612}},{"_id":787050,"name":"Pirot","country":"RS","coord":{"lon":22.586109,"lat":43.153061}},{"_id":3202798,"name":"Celarevo","country":"RS","coord":{"lon":19.52528,"lat":45.26944}},{"_id":787516,"name":"Obrenovac","country":"RS","coord":{"lon":20.200171,"lat":44.654861}},{"_id":783920,"name":"Zemun","country":"RS","coord":{"lon":20.40111,"lat":44.84306}},{"_id":790015,"name":"Ingija","country":"RS","coord":{"lon":20.07917,"lat":45.049171}},{"_id":789019,"name":"Krnjevo","country":"RS","coord":{"lon":21.04694,"lat":44.409439}},{"_id":786827,"name":"Pozarevac","country":"RS","coord":{"lon":21.182501,"lat":44.61528}},{"_id":3190947,"name":"Sevojno","country":"RS","coord":{"lon":19.898609,"lat":43.845001}},{"_id":3216381,"name":"Popare","country":"RS","coord":{"lon":19.878889,"lat":44.26194}},{"_id":792241,"name":"Brus","country":"RS","coord":{"lon":21.033609,"lat":43.38361}},{"_id":3196153,"name":"Loznica","country":"RS","coord":{"lon":19.224171,"lat":44.534168}},{"_id":791704,"name":"Cukarica","country":"RS","coord":{"lon":20.42028,"lat":44.782501}},{"_id":792784,"name":"Bela Palanka","country":"RS","coord":{"lon":22.31111,"lat":43.21833}},{"_id":791678,"name":"Cuprija","country":"RS","coord":{"lon":21.370001,"lat":43.927502}},{"_id":786824,"name":"Pozega","country":"RS","coord":{"lon":20.041389,"lat":43.84639}},{"_id":790132,"name":"Grocka","country":"RS","coord":{"lon":20.717501,"lat":44.672218}},{"_id":3192450,"name":"Priboj","country":"RS","coord":{"lon":19.525829,"lat":43.583611}},{"_id":785013,"name":"Topola","country":"RS","coord":{"lon":20.682501,"lat":44.254169}},{"_id":3204667,"name":"Bački Jarak","country":"RS","coord":{"lon":19.875,"lat":45.370281}},{"_id":789168,"name":"Kovin","country":"RS","coord":{"lon":20.97611,"lat":44.747501}},{"_id":789021,"name":"Krnješevci","country":"RS","coord":{"lon":20.135281,"lat":44.886391}},{"_id":790106,"name":"Guča","country":"RS","coord":{"lon":20.225281,"lat":43.776669}},{"_id":792892,"name":"Barajevo","country":"RS","coord":{"lon":20.415831,"lat":44.578892}},{"_id":787615,"name":"bar","country":"RS","coord":{"lon":20.219311,"lat":44.943661}},{"_id":791949,"name":"Česta","country":"RS","coord":{"lon":21.653891,"lat":43.430561}},{"_id":787718,"name":"Negotin","country":"RS","coord":{"lon":22.53083,"lat":44.226391}},{"_id":790035,"name":"Tiszahegyes","country":"RS","coord":{"lon":20.316111,"lat":45.828892}},{"_id":791321,"name":"Dolovo","country":"RS","coord":{"lon":20.877501,"lat":44.901112}},{"_id":3191429,"name":"Ruma","country":"RS","coord":{"lon":19.82222,"lat":45.00806}},{"_id":784091,"name":"Vučje","country":"RS","coord":{"lon":21.91139,"lat":42.86528}},{"_id":787215,"name":"Paracin","country":"RS","coord":{"lon":21.40778,"lat":43.860828}},{"_id":789485,"name":"Kladovo","country":"RS","coord":{"lon":22.61194,"lat":44.60667}},{"_id":787595,"name":"Novi Pazar","country":"RS","coord":{"lon":20.51222,"lat":43.136669}},{"_id":792173,"name":"Bujanovac","country":"RS","coord":{"lon":21.76667,"lat":42.459171}},{"_id":790367,"name":"Gornji Milanovac","country":"RS","coord":{"lon":20.450001,"lat":44.033329}},{"_id":787893,"name":"Mladenovac","country":"RS","coord":{"lon":20.699169,"lat":44.43861}},{"_id":785559,"name":"Stara Pazova","country":"RS","coord":{"lon":20.16083,"lat":44.985001}},{"_id":3190335,"name":"Sonta","country":"RS","coord":{"lon":19.098061,"lat":45.594719}},{"_id":785704,"name":"Soko Banja","country":"RS","coord":{"lon":21.871111,"lat":43.64333}},{"_id":792794,"name":"Bela Crkva","country":"RS","coord":{"lon":21.417219,"lat":44.897499}},{"_id":792651,"name":"Beska","country":"RS","coord":{"lon":20.066111,"lat":45.129719}},{"_id":788762,"name":"Lebane","country":"RS","coord":{"lon":21.737499,"lat":42.923889}},{"_id":789923,"name":"Jagodina","country":"RS","coord":{"lon":21.26222,"lat":43.981392}},{"_id":3343730,"name":"Opština Sremski Karlovci","country":"RS","coord":{"lon":19.924721,"lat":45.200001}},{"_id":3190101,"name":"Sremski Karlovci","country":"RS","coord":{"lon":19.934441,"lat":45.202499}},{"_id":3204623,"name":"Bajina Basta","country":"RS","coord":{"lon":19.567499,"lat":43.970829}},{"_id":793138,"name":"Aleksinac","country":"RS","coord":{"lon":21.707781,"lat":43.541672}},{"_id":785958,"name":"Central Serbia","country":"RS","coord":{"lon":21.0,"lat":44.0}},{"_id":789988,"name":"Ivanjica","country":"RS","coord":{"lon":20.23111,"lat":43.58028}},{"_id":791672,"name":"Curug","country":"RS","coord":{"lon":20.07139,"lat":45.473061}},{"_id":784779,"name":"Ugrinovci","country":"RS","coord":{"lon":20.186939,"lat":44.87833}},{"_id":791471,"name":"Dobanovci","country":"RS","coord":{"lon":20.225559,"lat":44.826939}},{"_id":784288,"name":"Vojka","country":"RS","coord":{"lon":20.153891,"lat":44.93972}},{"_id":785061,"name":"Opština Titel","country":"RS","coord":{"lon":20.29361,"lat":45.196388}},{"_id":785062,"name":"Titel","country":"RS","coord":{"lon":20.294439,"lat":45.206108}},{"_id":789176,"name":"Opština Kovačica","country":"RS","coord":{"lon":20.62389,"lat":45.100559}},{"_id":789178,"name":"Kovacica","country":"RS","coord":{"lon":20.621389,"lat":45.111671}},{"_id":787657,"name":"Nis","country":"RS","coord":{"lon":21.90333,"lat":43.324718}},{"_id":784427,"name":"Vinča","country":"RS","coord":{"lon":20.61972,"lat":44.759998}},{"_id":3193406,"name":"Petrovaradin","country":"RS","coord":{"lon":19.87944,"lat":45.24667}},{"_id":3202318,"name":"Crvenka","country":"RS","coord":{"lon":19.455561,"lat":45.658611}},{"_id":787471,"name":"Omoljica","country":"RS","coord":{"lon":20.72806,"lat":44.760559}},{"_id":784592,"name":"Veliki Crljeni","country":"RS","coord":{"lon":20.284439,"lat":44.467499}},{"_id":792477,"name":"Boleč","country":"RS","coord":{"lon":20.603331,"lat":44.72472}},{"_id":786358,"name":"Rekovac","country":"RS","coord":{"lon":21.09667,"lat":43.861671}},{"_id":793171,"name":"Ada","country":"RS","coord":{"lon":20.12583,"lat":45.802502}},{"_id":3199103,"name":"Irig","country":"RS","coord":{"lon":19.85833,"lat":45.101109}},{"_id":3192404,"name":"Prijepolje","country":"RS","coord":{"lon":19.64056,"lat":43.371941}},{"_id":784630,"name":"Velika Plana","country":"RS","coord":{"lon":21.076759,"lat":44.333889}},{"_id":790702,"name":"Glogonj","country":"RS","coord":{"lon":20.52611,"lat":44.987499}},{"_id":792819,"name":"Bavanište","country":"RS","coord":{"lon":20.87583,"lat":44.81889}},{"_id":788040,"name":"Melenci","country":"RS","coord":{"lon":20.317221,"lat":45.513889}},{"_id":787271,"name":"Padina","country":"RS","coord":{"lon":20.727221,"lat":45.118061}},{"_id":788848,"name":"Kusadak","country":"RS","coord":{"lon":20.803329,"lat":44.399719}},{"_id":792502,"name":"Bogovina","country":"RS","coord":{"lon":21.940281,"lat":43.895}},{"_id":793015,"name":"Backo Gradiste","country":"RS","coord":{"lon":20.02833,"lat":45.53278}},{"_id":790394,"name":"Gornji Breg","country":"RS","coord":{"lon":20.01667,"lat":45.91917}},{"_id":784795,"name":"Ub","country":"RS","coord":{"lon":20.073891,"lat":44.456108}},{"_id":785288,"name":"Surcin","country":"RS","coord":{"lon":20.280279,"lat":44.79306}},{"_id":3190005,"name":"Stara Moravica","country":"RS","coord":{"lon":19.46611,"lat":45.868889}},{"_id":787058,"name":"Pinosava","country":"RS","coord":{"lon":20.480829,"lat":44.695278}},{"_id":791900,"name":"Coka","country":"RS","coord":{"lon":20.14333,"lat":45.942501}},{"_id":3196827,"name":"Laćarak","country":"RS","coord":{"lon":19.568609,"lat":45.00222}},{"_id":792421,"name":"Bosilegrad","country":"RS","coord":{"lon":22.47238,"lat":42.501099}},{"_id":787610,"name":"Novi Becej","country":"RS","coord":{"lon":20.135559,"lat":45.59861}},{"_id":3192420,"name":"Prigrevica","country":"RS","coord":{"lon":19.08667,"lat":45.678612}},{"_id":3204376,"name":"Begeč","country":"RS","coord":{"lon":19.62306,"lat":45.236671}},{"_id":792937,"name":"Banatsko Veliko Selo","country":"RS","coord":{"lon":20.599171,"lat":45.827221}},{"_id":3204664,"name":"Opština Bački Petrovac","country":"RS","coord":{"lon":19.60944,"lat":45.365559}},{"_id":3204665,"name":"Backi Petrovac","country":"RS","coord":{"lon":19.591669,"lat":45.360561}},{"_id":3198267,"name":"Karavukovo","country":"RS","coord":{"lon":19.188061,"lat":45.494999}},{"_id":784222,"name":"Vranjska Banja","country":"RS","coord":{"lon":21.99222,"lat":42.555}},{"_id":784535,"name":"Veliko Gradiste","country":"RS","coord":{"lon":21.513611,"lat":44.756672}},{"_id":7581582,"name":"Borski Okrug","country":"RS","coord":{"lon":22.25,"lat":44.366669}},{"_id":792456,"name":"Bor","country":"RS","coord":{"lon":22.09528,"lat":44.078331}},{"_id":792945,"name":"Banatski Karlovac","country":"RS","coord":{"lon":21.016109,"lat":45.047218}},{"_id":793790,"name":"Raska","country":"RS","coord":{"lon":20.61528,"lat":43.28722}},{"_id":787855,"name":"Mol","country":"RS","coord":{"lon":20.131109,"lat":45.764172}},{"_id":792043,"name":"Carevac","country":"RS","coord":{"lon":21.49333,"lat":44.679169}},{"_id":785450,"name":"Stragari","country":"RS","coord":{"lon":21.137779,"lat":43.65361}},{"_id":793034,"name":"Babušnica","country":"RS","coord":{"lon":22.411671,"lat":43.059719}},{"_id":784352,"name":"Vladimirovac","country":"RS","coord":{"lon":20.86389,"lat":45.033058}},{"_id":784800,"name":"Tutin","country":"RS","coord":{"lon":20.33139,"lat":42.99028}},{"_id":3199872,"name":"Gospođinci","country":"RS","coord":{"lon":19.987221,"lat":45.40361}},{"_id":791887,"name":"Crepaja","country":"RS","coord":{"lon":20.635559,"lat":45.009441}},{"_id":784745,"name":"Uzdin","country":"RS","coord":{"lon":20.620001,"lat":45.204441}},{"_id":3194243,"name":"Obrovac","country":"RS","coord":{"lon":19.350281,"lat":45.320278}},{"_id":3194498,"name":"Nikinci","country":"RS","coord":{"lon":19.821939,"lat":44.851669}},{"_id":792838,"name":"Batajnica","country":"RS","coord":{"lon":20.27639,"lat":44.90472}},{"_id":3191397,"name":"Ruski Krstur","country":"RS","coord":{"lon":19.415831,"lat":45.562778}},{"_id":3204690,"name":"Opština Bač","country":"RS","coord":{"lon":19.189171,"lat":45.400558}},{"_id":3204692,"name":"Bac","country":"RS","coord":{"lon":19.23667,"lat":45.391941}},{"_id":3319247,"name":"Šinovik","country":"RS","coord":{"lon":19.72167,"lat":43.74556}},{"_id":3199348,"name":"Horgoš","country":"RS","coord":{"lon":19.9725,"lat":46.15556}},{"_id":787123,"name":"Perlez","country":"RS","coord":{"lon":20.38139,"lat":45.208061}},{"_id":790033,"name":"Idvor","country":"RS","coord":{"lon":20.51417,"lat":45.188889}},{"_id":3190776,"name":"Sjenica","country":"RS","coord":{"lon":19.999439,"lat":43.27306}},{"_id":3195962,"name":"Macvanska Mitrovica","country":"RS","coord":{"lon":19.598061,"lat":44.965561}},{"_id":784666,"name":"Velika Drenova","country":"RS","coord":{"lon":21.13278,"lat":43.628059}},{"_id":3190922,"name":"Sid","country":"RS","coord":{"lon":19.226391,"lat":45.12833}},{"_id":3200746,"name":"Gakovo","country":"RS","coord":{"lon":19.06361,"lat":45.903332}},{"_id":787592,"name":"Novi Slankamen","country":"RS","coord":{"lon":20.239441,"lat":45.125278}},{"_id":3194196,"name":"Ogar","country":"RS","coord":{"lon":19.946939,"lat":44.7925}},{"_id":792811,"name":"Becmen","country":"RS","coord":{"lon":20.208611,"lat":44.779442}},{"_id":785614,"name":"Sremski Mihaljevci","country":"RS","coord":{"lon":20.044439,"lat":44.85833}},{"_id":787689,"name":"Neresnica","country":"RS","coord":{"lon":21.72583,"lat":44.442501}},{"_id":785305,"name":"Šumarak","country":"RS","coord":{"lon":21.139999,"lat":44.821388}},{"_id":786035,"name":"Secanj","country":"RS","coord":{"lon":20.772221,"lat":45.366669}},{"_id":787384,"name":"Orom Breg","country":"RS","coord":{"lon":20.022779,"lat":45.860001}},{"_id":3204615,"name":"Bajša","country":"RS","coord":{"lon":19.584999,"lat":45.779171}},{"_id":786620,"name":"Radaljevo","country":"RS","coord":{"lon":20.15,"lat":43.650002}},{"_id":785285,"name":"Surdulica","country":"RS","coord":{"lon":22.17083,"lat":42.690559}},{"_id":836988,"name":"Deliblato","country":"RS","coord":{"lon":21.03694,"lat":44.8325}},{"_id":784661,"name":"Velika Greda","country":"RS","coord":{"lon":21.029169,"lat":45.243328}},{"_id":791998,"name":"Centa","country":"RS","coord":{"lon":20.387779,"lat":45.10833}},{"_id":787600,"name":"Novi Knezevac","country":"RS","coord":{"lon":20.1,"lat":46.049999}},{"_id":783887,"name":"Zitiste","country":"RS","coord":{"lon":20.549721,"lat":45.485001}},{"_id":3188955,"name":"Tornjoš","country":"RS","coord":{"lon":19.831671,"lat":45.87833}},{"_id":3191060,"name":"Trešnjevac","country":"RS","coord":{"lon":19.986111,"lat":45.979439}},{"_id":788120,"name":"Martonoš","country":"RS","coord":{"lon":20.049999,"lat":46.116669}},{"_id":3200859,"name":"Feketić","country":"RS","coord":{"lon":19.699169,"lat":45.664169}},{"_id":786498,"name":"Ralja","country":"RS","coord":{"lon":20.56222,"lat":44.57222}},{"_id":787925,"name":"Mirijevo","country":"RS","coord":{"lon":20.526939,"lat":44.793892}},{"_id":3199475,"name":"Gunaroš","country":"RS","coord":{"lon":19.82917,"lat":45.759171}},{"_id":792394,"name":"Boževac","country":"RS","coord":{"lon":21.39278,"lat":44.538059}},{"_id":793141,"name":"Aleksandrovac","country":"RS","coord":{"lon":21.21167,"lat":44.445}},{"_id":787601,"name":"Novi Karlovci","country":"RS","coord":{"lon":20.17667,"lat":45.08028}},{"_id":785077,"name":"Tićevac","country":"RS","coord":{"lon":21.25639,"lat":44.461941}},{"_id":3191124,"name":"Selenča","country":"RS","coord":{"lon":19.29833,"lat":45.409168}},{"_id":792952,"name":"Banatska Palanka","country":"RS","coord":{"lon":21.32667,"lat":44.842499}},{"_id":789076,"name":"Krcedin","country":"RS","coord":{"lon":20.132219,"lat":45.139999}},{"_id":792308,"name":"Brestovac","country":"RS","coord":{"lon":22.083059,"lat":44.040001}},{"_id":836698,"name":"Rusko Selo","country":"RS","coord":{"lon":20.571939,"lat":45.762779}},{"_id":3202059,"name":"Despotovo","country":"RS","coord":{"lon":19.524719,"lat":45.457779}},{"_id":790426,"name":"Gornje Međurovo","country":"RS","coord":{"lon":21.846939,"lat":43.277222}},{"_id":3302765,"name":"Zlatibor","country":"RS","coord":{"lon":19.700029,"lat":43.716839}},{"_id":785574,"name":"Stanovo","country":"RS","coord":{"lon":20.883329,"lat":44.006939}},{"_id":862839,"name":"Dragobraća","country":"RS","coord":{"lon":20.824169,"lat":43.977219}},{"_id":3194608,"name":"Nadalj","country":"RS","coord":{"lon":19.92194,"lat":45.506939}},{"_id":3200560,"name":"Glozan","country":"RS","coord":{"lon":19.568609,"lat":45.277222}},{"_id":792807,"name":"Begejci","country":"RS","coord":{"lon":20.60639,"lat":45.50861}},{"_id":865958,"name":"Savski Venac","country":"RS","coord":{"lon":20.45389,"lat":44.779171}},{"_id":845271,"name":"Vozdovac","country":"RS","coord":{"lon":20.47583,"lat":44.778332}},{"_id":791589,"name":"Debeljaca","country":"RS","coord":{"lon":20.6,"lat":45.07111}},{"_id":793134,"name":"Alibunar","country":"RS","coord":{"lon":20.96583,"lat":45.08083}},{"_id":3189185,"name":"Tavankut","country":"RS","coord":{"lon":19.48333,"lat":46.033329}},{"_id":786021,"name":"Sefkerin","country":"RS","coord":{"lon":20.48278,"lat":45.004719}},{"_id":3193295,"name":"Pivnice","country":"RS","coord":{"lon":19.45528,"lat":45.46944}},{"_id":3192185,"name":"Putinci","country":"RS","coord":{"lon":19.971939,"lat":44.99194}},{"_id":788439,"name":"Lugavcina","country":"RS","coord":{"lon":21.068331,"lat":44.51889}},{"_id":788507,"name":"Lokve","country":"RS","coord":{"lon":21.031111,"lat":45.152779}},{"_id":792949,"name":"Banatski Brestovac","country":"RS","coord":{"lon":20.805281,"lat":44.727219}},{"_id":3197397,"name":"Kraljevci","country":"RS","coord":{"lon":19.88389,"lat":44.97694}},{"_id":3189891,"name":"Stepanovicevo","country":"RS","coord":{"lon":19.69833,"lat":45.413891}},{"_id":786697,"name":"Progar","country":"RS","coord":{"lon":20.16139,"lat":44.715}},{"_id":3214575,"name":"Bešenovački Prnjavor","country":"RS","coord":{"lon":19.70611,"lat":45.11306}},{"_id":3188949,"name":"Tovariševo","country":"RS","coord":{"lon":19.325001,"lat":45.353611}},{"_id":3197109,"name":"Veprovac","country":"RS","coord":{"lon":19.364441,"lat":45.614719}},{"_id":784519,"name":"Veliko Srediste","country":"RS","coord":{"lon":21.40583,"lat":45.17778}},{"_id":3318867,"name":"Doline","country":"RS","coord":{"lon":19.873329,"lat":45.960281}},{"_id":792934,"name":"Bancarevo","country":"RS","coord":{"lon":22.113331,"lat":43.271671}},{"_id":786146,"name":"Sajan","country":"RS","coord":{"lon":20.27833,"lat":45.84444}},{"_id":3200886,"name":"Erdevik","country":"RS","coord":{"lon":19.407499,"lat":45.11694}},{"_id":787274,"name":"Padej","country":"RS","coord":{"lon":20.166109,"lat":45.828892}},{"_id":3189893,"name":"Stejanovci","country":"RS","coord":{"lon":19.72333,"lat":45.056671}},{"_id":786884,"name":"Popinci","country":"RS","coord":{"lon":20.01306,"lat":44.92778}},{"_id":3194918,"name":"Mokra Gora","country":"RS","coord":{"lon":19.506109,"lat":43.790829}},{"_id":3188417,"name":"Vajska","country":"RS","coord":{"lon":19.11194,"lat":45.410831}},{"_id":791948,"name":"Cestereg","country":"RS","coord":{"lon":20.53194,"lat":45.56361}},{"_id":3195939,"name":"Maglic","country":"RS","coord":{"lon":19.53167,"lat":45.362221}},{"_id":792317,"name":"Bresno Polje","country":"RS","coord":{"lon":21.16889,"lat":43.57917}},{"_id":3194480,"name":"Njegoševo","country":"RS","coord":{"lon":19.75222,"lat":45.763329}},{"_id":3214591,"name":"Dobrodol","country":"RS","coord":{"lon":19.93972,"lat":45.041111}},{"_id":792453,"name":"Borča","country":"RS","coord":{"lon":20.458611,"lat":44.870281}},{"_id":790475,"name":"Gornja Peščanica","country":"RS","coord":{"lon":21.594999,"lat":43.521111}},{"_id":790986,"name":"Dubočka","country":"RS","coord":{"lon":21.375,"lat":44.444439}},{"_id":784570,"name":"Veliki Mokri Lug","country":"RS","coord":{"lon":20.529169,"lat":44.75861}},{"_id":3195520,"name":"Maradik","country":"RS","coord":{"lon":19.9925,"lat":45.102219}},{"_id":787857,"name":"Mokrin","country":"RS","coord":{"lon":20.407221,"lat":45.935829}},{"_id":3186376,"name":"Zmajevo","country":"RS","coord":{"lon":19.685829,"lat":45.453609}},{"_id":3204662,"name":"Bački Vinogradi","country":"RS","coord":{"lon":19.866671,"lat":46.133331}},{"_id":788890,"name":"Kumane","country":"RS","coord":{"lon":20.228331,"lat":45.538891}},{"_id":862706,"name":"Mrčajevci","country":"RS","coord":{"lon":20.52944,"lat":43.8675}},{"_id":3337474,"name":"Morović","country":"RS","coord":{"lon":19.210279,"lat":44.997501}},{"_id":784644,"name":"Velika Krsna","country":"RS","coord":{"lon":20.805,"lat":44.478329}},{"_id":3204663,"name":"Bački Sokolac","country":"RS","coord":{"lon":19.53944,"lat":45.849442}},{"_id":3201418,"name":"Donji Petrovci","country":"RS","coord":{"lon":19.975559,"lat":44.965}},{"_id":3191877,"name":"Ratkovo","country":"RS","coord":{"lon":19.3325,"lat":45.454441}},{"_id":788038,"name":"Meljak","country":"RS","coord":{"lon":20.36306,"lat":44.618061}},{"_id":792479,"name":"Boka","country":"RS","coord":{"lon":20.82972,"lat":45.354439}},{"_id":788421,"name":"Lukicevo","country":"RS","coord":{"lon":20.49889,"lat":45.338612}},{"_id":3202130,"name":"Debrc","country":"RS","coord":{"lon":19.903061,"lat":44.623058}},{"_id":786100,"name":"Šapine","country":"RS","coord":{"lon":21.363331,"lat":44.572498}},{"_id":3186764,"name":"Žarkovac","country":"RS","coord":{"lon":19.934719,"lat":45.003609}},{"_id":3204635,"name":"Badovinci","country":"RS","coord":{"lon":19.371389,"lat":44.785831}},{"_id":3188009,"name":"Veliki Radinci","country":"RS","coord":{"lon":19.673611,"lat":45.045559}},{"_id":785839,"name":"Skorenovac","country":"RS","coord":{"lon":20.90444,"lat":44.764721}},{"_id":3199251,"name":"Hrtkovci","country":"RS","coord":{"lon":19.770559,"lat":44.878891}},{"_id":3191256,"name":"Sasinci","country":"RS","coord":{"lon":19.742781,"lat":44.97028}},{"_id":789879,"name":"Jarkovci","country":"RS","coord":{"lon":20.025,"lat":45.054169}},{"_id":789982,"name":"Ivanovo","country":"RS","coord":{"lon":20.6975,"lat":44.73917}},{"_id":3204661,"name":"Bačko Dobro Polje","country":"RS","coord":{"lon":19.689171,"lat":45.497501}},{"_id":3201935,"name":"Dobrinci","country":"RS","coord":{"lon":19.9275,"lat":44.95306}},{"_id":3194474,"name":"Noćaj","country":"RS","coord":{"lon":19.556669,"lat":44.927219}},{"_id":3198908,"name":"Jamena","country":"RS","coord":{"lon":19.0625,"lat":44.885281}},{"_id":791487,"name":"Dimitrovgrad","country":"RS","coord":{"lon":22.77556,"lat":43.014172}},{"_id":790795,"name":"Gadzin Han","country":"RS","coord":{"lon":22.03194,"lat":43.222778}},{"_id":786109,"name":"Samos","country":"RS","coord":{"lon":20.772221,"lat":45.203892}},{"_id":789471,"name":"Klek","country":"RS","coord":{"lon":20.48,"lat":45.42194}},{"_id":792721,"name":"Beljevac","country":"RS","coord":{"lon":20.664169,"lat":44.359169}},{"_id":3200189,"name":"Gornja Rogatica","country":"RS","coord":{"lon":19.46833,"lat":45.80722}},{"_id":790772,"name":"Gardinovci","country":"RS","coord":{"lon":20.135281,"lat":45.203331}},{"_id":3189363,"name":"Svetićevo","country":"RS","coord":{"lon":19.85556,"lat":45.80278}},{"_id":791231,"name":"Donje Međurovo","country":"RS","coord":{"lon":21.82222,"lat":43.296669}},{"_id":786806,"name":"Predejane","country":"RS","coord":{"lon":22.131109,"lat":42.829441}},{"_id":789421,"name":"Knežica","country":"RS","coord":{"lon":21.878611,"lat":43.259441}},{"_id":793146,"name":"Aldinac","country":"RS","coord":{"lon":22.44556,"lat":43.529442}},{"_id":3193635,"name":"Parage","country":"RS","coord":{"lon":19.403061,"lat":45.413891}},{"_id":3203628,"name":"Bosut","country":"RS","coord":{"lon":19.362499,"lat":44.93222}},{"_id":789234,"name":"Kosmovac","country":"RS","coord":{"lon":22.203609,"lat":43.190559}},{"_id":3197095,"name":"Krušedol","country":"RS","coord":{"lon":19.94722,"lat":45.113609}},{"_id":788147,"name":"Marina Kutina","country":"RS","coord":{"lon":22.023331,"lat":43.200001}},{"_id":787598,"name":"Novi Kozarci","country":"RS","coord":{"lon":20.622219,"lat":45.78167}},{"_id":793053,"name":"Babičko","country":"RS","coord":{"lon":22.00083,"lat":43.137779}},{"_id":3194986,"name":"Mladenovo","country":"RS","coord":{"lon":19.261669,"lat":45.303059}},{"_id":3202085,"name":"Deronje","country":"RS","coord":{"lon":19.21833,"lat":45.45417}},{"_id":792940,"name":"Banatsko Karadordevo","country":"RS","coord":{"lon":20.563061,"lat":45.583328}},{"_id":792297,"name":"Brežane","country":"RS","coord":{"lon":21.076389,"lat":44.649441}},{"_id":788804,"name":"Lalinac","country":"RS","coord":{"lon":21.78528,"lat":43.341942}},{"_id":792821,"name":"Batušinac","country":"RS","coord":{"lon":21.822781,"lat":43.261108}},{"_id":837045,"name":"Trnovče","country":"RS","coord":{"lon":21.105829,"lat":44.410831}},{"_id":786819,"name":"Prahovo","country":"RS","coord":{"lon":22.592779,"lat":44.292221}},{"_id":3303212,"name":"Rogići","country":"RS","coord":{"lon":19.691389,"lat":43.88472}},{"_id":787612,"name":"Novi Banovci","country":"RS","coord":{"lon":20.28194,"lat":44.95472}},{"_id":838920,"name":"Ledine","country":"RS","coord":{"lon":20.34833,"lat":44.802502}},{"_id":784873,"name":"Trstenik","country":"RS","coord":{"lon":21.002501,"lat":43.61694}},{"_id":785615,"name":"Sremcica","country":"RS","coord":{"lon":20.392321,"lat":44.676529}},{"_id":788771,"name":"Lazarevac","country":"RS","coord":{"lon":20.255699,"lat":44.385342}},{"_id":789518,"name":"Kikinda","country":"RS","coord":{"lon":20.465281,"lat":45.82972}},{"_id":792680,"name":"Belgrade","country":"RS","coord":{"lon":20.46513,"lat":44.804008}},{"_id":3188402,"name":"Valjevo","country":"RS","coord":{"lon":19.898211,"lat":44.275131}},{"_id":783768,"name":"Zvecka","country":"RS","coord":{"lon":20.164721,"lat":44.638889}},{"_id":783793,"name":"Zujince","country":"RS","coord":{"lon":21.701941,"lat":42.315281}},{"_id":783880,"name":"Zitoraga","country":"RS","coord":{"lon":21.71306,"lat":43.189999}},{"_id":784031,"name":"Zagubica","country":"RS","coord":{"lon":21.78838,"lat":44.19685}},{"_id":784064,"name":"Zabari","country":"RS","coord":{"lon":21.215,"lat":44.35611}},{"_id":784068,"name":"Zabalj","country":"RS","coord":{"lon":20.06389,"lat":45.372219}},{"_id":784236,"name":"Vranic","country":"RS","coord":{"lon":20.326111,"lat":44.601391}},{"_id":784252,"name":"Vracar","country":"RS","coord":{"lon":20.474911,"lat":44.792561}},{"_id":784274,"name":"Vojvoda Stepa","country":"RS","coord":{"lon":20.654169,"lat":45.680828}},{"_id":784355,"name":"Vladicin Han","country":"RS","coord":{"lon":22.06333,"lat":42.707779}},{"_id":784434,"name":"Vilovo","country":"RS","coord":{"lon":20.157499,"lat":45.247501}},{"_id":784588,"name":"Veliki Gaj","country":"RS","coord":{"lon":21.172501,"lat":45.285561}},{"_id":784604,"name":"Aleksandrovo","country":"RS","coord":{"lon":20.592779,"lat":45.63694}},{"_id":784635,"name":"Velika Mostanica","country":"RS","coord":{"lon":20.353609,"lat":44.66333}},{"_id":784704,"name":"Varvarin","country":"RS","coord":{"lon":21.3624,"lat":43.723969}},{"_id":784764,"name":"Umka","country":"RS","coord":{"lon":20.30472,"lat":44.678059}},{"_id":784771,"name":"Uljma","country":"RS","coord":{"lon":21.156111,"lat":45.041111}},{"_id":784820,"name":"Turija","country":"RS","coord":{"lon":21.64028,"lat":44.524441}},{"_id":784946,"name":"Trgoviste","country":"RS","coord":{"lon":22.0825,"lat":42.36417}},{"_id":784991,"name":"Torda","country":"RS","coord":{"lon":20.4575,"lat":45.58556}},{"_id":785041,"name":"Tomasevac","country":"RS","coord":{"lon":20.620831,"lat":45.26778}},{"_id":785053,"name":"Toba","country":"RS","coord":{"lon":20.55611,"lat":45.687778}},{"_id":785125,"name":"Taras","country":"RS","coord":{"lon":20.198059,"lat":45.46806}},{"_id":785164,"name":"Svrljig","country":"RS","coord":{"lon":22.121111,"lat":43.41333}},{"_id":785184,"name":"Svilajnac","country":"RS","coord":{"lon":21.196699,"lat":44.2337}},{"_id":785252,"name":"Sutjeska","country":"RS","coord":{"lon":20.698891,"lat":45.384171}},{"_id":785287,"name":"Surduk","country":"RS","coord":{"lon":20.31889,"lat":45.075279}},{"_id":785358,"name":"Stubline","country":"RS","coord":{"lon":20.14139,"lat":44.573891}},{"_id":785489,"name":"Stepojevac","country":"RS","coord":{"lon":20.295,"lat":44.512779}},{"_id":785530,"name":"Stari Lec","country":"RS","coord":{"lon":20.96306,"lat":45.283611}},{"_id":785541,"name":"Stari Banovci","country":"RS","coord":{"lon":20.286671,"lat":44.986389}},{"_id":785598,"name":"Stajicevo","country":"RS","coord":{"lon":20.456671,"lat":45.293892}},{"_id":785600,"name":"Srpski Itebej","country":"RS","coord":{"lon":20.71361,"lat":45.57}},{"_id":785603,"name":"Srpska Crnja","country":"RS","coord":{"lon":20.68861,"lat":45.723331}},{"_id":785671,"name":"Sopot","country":"RS","coord":{"lon":20.57361,"lat":44.519718}},{"_id":785903,"name":"Simanovci","country":"RS","coord":{"lon":20.091669,"lat":44.872501}},{"_id":785941,"name":"Sevica","country":"RS","coord":{"lon":21.726669,"lat":44.5}},{"_id":786001,"name":"Seleus","country":"RS","coord":{"lon":20.915831,"lat":45.12722}},{"_id":786106,"name":"Sanad","country":"RS","coord":{"lon":20.10778,"lat":45.976109}},{"_id":786111,"name":"Samoljica","country":"RS","coord":{"lon":21.74472,"lat":42.381939}},{"_id":786137,"name":"Sakule","country":"RS","coord":{"lon":20.485559,"lat":45.146111}},{"_id":786142,"name":"Sajkas","country":"RS","coord":{"lon":20.08972,"lat":45.272221}},{"_id":786175,"name":"Rusanj","country":"RS","coord":{"lon":20.44993,"lat":44.684769}},{"_id":786390,"name":"Razanj","country":"RS","coord":{"lon":21.54944,"lat":43.672218}},{"_id":786395,"name":"Ravni Topolovac","country":"RS","coord":{"lon":20.56917,"lat":45.458889}},{"_id":786500,"name":"Rakovica","country":"RS","coord":{"lon":20.441389,"lat":44.74194}},{"_id":786532,"name":"Rajince","country":"RS","coord":{"lon":21.69556,"lat":42.379169}},{"_id":786562,"name":"Radovnica","country":"RS","coord":{"lon":22.22694,"lat":42.415562}},{"_id":786583,"name":"Radojevo","country":"RS","coord":{"lon":20.789169,"lat":45.746941}},{"_id":786615,"name":"Radenka","country":"RS","coord":{"lon":21.764441,"lat":44.583611}},{"_id":786624,"name":"Raca","country":"RS","coord":{"lon":20.977539,"lat":44.227119}},{"_id":787032,"name":"Plandiste","country":"RS","coord":{"lon":21.12167,"lat":45.227219}},{"_id":787078,"name":"Petrovac","country":"RS","coord":{"lon":21.41917,"lat":44.376942}},{"_id":787164,"name":"Pavlis","country":"RS","coord":{"lon":21.240829,"lat":45.102779}},{"_id":787296,"name":"Ovca","country":"RS","coord":{"lon":20.53336,"lat":44.883492}},{"_id":787306,"name":"Ostruznica","country":"RS","coord":{"lon":20.31917,"lat":44.728329}},{"_id":787341,"name":"Ostojicevo","country":"RS","coord":{"lon":20.164169,"lat":45.890831}},{"_id":787391,"name":"Orlovat","country":"RS","coord":{"lon":20.58222,"lat":45.243328}},{"_id":787461,"name":"Opovo","country":"RS","coord":{"lon":20.430281,"lat":45.052219}},{"_id":787584,"name":"Novo Milosevo","country":"RS","coord":{"lon":20.303061,"lat":45.721668}},{"_id":787597,"name":"Kozjak","country":"RS","coord":{"lon":20.864719,"lat":45.184441}},{"_id":787602,"name":"Novi Itebej","country":"RS","coord":{"lon":20.694441,"lat":45.559441}},{"_id":787621,"name":"Nova Crnja","country":"RS","coord":{"lon":20.605,"lat":45.668331}},{"_id":787663,"name":"Nikolinci","country":"RS","coord":{"lon":21.067221,"lat":45.049438}},{"_id":787682,"name":"Neuzina","country":"RS","coord":{"lon":20.712219,"lat":45.34417}},{"_id":787743,"name":"Nakovo","country":"RS","coord":{"lon":20.567221,"lat":45.87389}},{"_id":787747,"name":"Adorjan","country":"RS","coord":{"lon":20.040279,"lat":45.997219}},{"_id":787837,"name":"Mosorin","country":"RS","coord":{"lon":20.164721,"lat":45.302502}},{"_id":787929,"name":"Miratovac","country":"RS","coord":{"lon":21.66361,"lat":42.259441}},{"_id":787935,"name":"Mionica","country":"RS","coord":{"lon":20.081671,"lat":44.251942}},{"_id":787998,"name":"Mihajlovo","country":"RS","coord":{"lon":20.41444,"lat":45.47028}},{"_id":788026,"name":"Merosina","country":"RS","coord":{"lon":21.7204,"lat":43.283581}},{"_id":788057,"name":"Medvega","country":"RS","coord":{"lon":21.58333,"lat":42.84306}},{"_id":788073,"name":"Meda","country":"RS","coord":{"lon":20.80694,"lat":45.535831}},{"_id":788153,"name":"Margita","country":"RS","coord":{"lon":21.17556,"lat":45.21806}},{"_id":788218,"name":"Malo Crnice","country":"RS","coord":{"lon":21.285561,"lat":44.55611}},{"_id":788315,"name":"Mala Mostanica","country":"RS","coord":{"lon":20.30278,"lat":44.646111}},{"_id":788357,"name":"Majdanpek","country":"RS","coord":{"lon":21.945959,"lat":44.427711}},{"_id":788452,"name":"Lucani","country":"RS","coord":{"lon":20.13806,"lat":43.860828}},{"_id":788515,"name":"Lok","country":"RS","coord":{"lon":20.212219,"lat":45.215832}},{"_id":788539,"name":"Ljukovo","country":"RS","coord":{"lon":20.025,"lat":45.025829}},{"_id":788584,"name":"Ljig","country":"RS","coord":{"lon":20.23819,"lat":44.230068}},{"_id":788768,"name":"Lazarevo","country":"RS","coord":{"lon":20.538891,"lat":45.388329}},{"_id":788792,"name":"Lapovo","country":"RS","coord":{"lon":21.097269,"lat":44.184238}},{"_id":788812,"name":"Lajkovac","country":"RS","coord":{"lon":20.165279,"lat":44.369438}},{"_id":788838,"name":"Kustilj","country":"RS","coord":{"lon":21.37722,"lat":45.035278}},{"_id":788868,"name":"Kupinovo","country":"RS","coord":{"lon":20.048059,"lat":44.705559}},{"_id":788937,"name":"Kucevo","country":"RS","coord":{"lon":21.67,"lat":44.477501}},{"_id":789124,"name":"Krajisnik","country":"RS","coord":{"lon":20.72917,"lat":45.452782}},{"_id":789170,"name":"Kovilj","country":"RS","coord":{"lon":20.021669,"lat":45.227779}},{"_id":789346,"name":"Konak","country":"RS","coord":{"lon":20.91361,"lat":45.314999}},{"_id":789415,"name":"Knicanin","country":"RS","coord":{"lon":20.31889,"lat":45.1875}},{"_id":789787,"name":"Jermenovci","country":"RS","coord":{"lon":21.047779,"lat":45.188061}},{"_id":789828,"name":"Jazovo","country":"RS","coord":{"lon":20.216391,"lat":45.9025}},{"_id":789875,"name":"Jasa Tomic","country":"RS","coord":{"lon":20.85528,"lat":45.446941}},{"_id":789880,"name":"Jarkovac","country":"RS","coord":{"lon":20.758329,"lat":45.26889}},{"_id":789888,"name":"Janosik","country":"RS","coord":{"lon":21.008329,"lat":45.173611}},{"_id":789972,"name":"Izbiste","country":"RS","coord":{"lon":21.18639,"lat":45.019718}},{"_id":790028,"name":"Ilandza","country":"RS","coord":{"lon":20.919439,"lat":45.169441}},{"_id":790053,"name":"Hetin","country":"RS","coord":{"lon":20.791389,"lat":45.661388}},{"_id":790063,"name":"Hajducica","country":"RS","coord":{"lon":20.95722,"lat":45.249168}},{"_id":790104,"name":"Gudurica","country":"RS","coord":{"lon":21.44306,"lat":45.17028}},{"_id":790277,"name":"Grabovac","country":"RS","coord":{"lon":20.104719,"lat":44.601391}},{"_id":790557,"name":"Golubinci","country":"RS","coord":{"lon":20.06889,"lat":44.985001}},{"_id":790560,"name":"Golubac","country":"RS","coord":{"lon":21.63199,"lat":44.652962}},{"_id":790823,"name":"Farkazdin","country":"RS","coord":{"lon":20.471939,"lat":45.191669}},{"_id":790842,"name":"Elemir","country":"RS","coord":{"lon":20.298059,"lat":45.44278}},{"_id":790847,"name":"Ecka","country":"RS","coord":{"lon":20.44278,"lat":45.318611}},{"_id":790898,"name":"Durdevo","country":"RS","coord":{"lon":20.06472,"lat":45.324718}},{"_id":790983,"name":"Duboka","country":"RS","coord":{"lon":21.76083,"lat":44.521389}},{"_id":791373,"name":"Doljevac","country":"RS","coord":{"lon":21.832581,"lat":43.19817}},{"_id":791452,"name":"Dobrica","country":"RS","coord":{"lon":20.84944,"lat":45.215}},{"_id":791516,"name":"Despotovac","country":"RS","coord":{"lon":21.446939,"lat":44.092499}},{"_id":791840,"name":"Crna Trava","country":"RS","coord":{"lon":22.298809,"lat":42.809879}},{"_id":791890,"name":"Cortanovci","country":"RS","coord":{"lon":20.020559,"lat":45.154442}},{"_id":791936,"name":"Cicevac","country":"RS","coord":{"lon":21.440849,"lat":43.718819}},{"_id":792404,"name":"Botos","country":"RS","coord":{"lon":20.63611,"lat":45.308331}},{"_id":792467,"name":"Boljevci","country":"RS","coord":{"lon":20.2225,"lat":44.722221}},{"_id":792470,"name":"Boljevac","country":"RS","coord":{"lon":21.95306,"lat":43.83028}},{"_id":792481,"name":"Bojnik","country":"RS","coord":{"lon":21.721001,"lat":43.012241}},{"_id":792530,"name":"Bocar","country":"RS","coord":{"lon":20.282221,"lat":45.771111}},{"_id":792564,"name":"Blace","country":"RS","coord":{"lon":21.28583,"lat":43.29528}},{"_id":792623,"name":"Biljaca","country":"RS","coord":{"lon":21.749439,"lat":42.355831}},{"_id":792718,"name":"Belo Blato","country":"RS","coord":{"lon":20.375,"lat":45.272781}},{"_id":792764,"name":"Belegis","country":"RS","coord":{"lon":20.33556,"lat":45.021671}},{"_id":792830,"name":"Batocina","country":"RS","coord":{"lon":21.081671,"lat":44.15361}},{"_id":792864,"name":"Barice","country":"RS","coord":{"lon":21.08333,"lat":45.183331}},{"_id":792866,"name":"Baric","country":"RS","coord":{"lon":20.259439,"lat":44.652222}},{"_id":792888,"name":"Baranda","country":"RS","coord":{"lon":20.443331,"lat":45.085281}},{"_id":792946,"name":"Banatski Dvor","country":"RS","coord":{"lon":20.51417,"lat":45.520561}},{"_id":792948,"name":"Banatski Despotovac","country":"RS","coord":{"lon":20.664169,"lat":45.36528}},{"_id":792950,"name":"Banatska Topola","country":"RS","coord":{"lon":20.465561,"lat":45.672501}},{"_id":793014,"name":"Backo Petrovo Selo","country":"RS","coord":{"lon":20.075279,"lat":45.708061}},{"_id":793112,"name":"Aradac","country":"RS","coord":{"lon":20.30139,"lat":45.38306}},{"_id":793142,"name":"Aleksandrovac","country":"RS","coord":{"lon":21.0525,"lat":43.458611}},{"_id":834855,"name":"Niska Banja","country":"RS","coord":{"lon":22.005699,"lat":43.295071}},{"_id":836063,"name":"Sokolovica","country":"RS","coord":{"lon":20.315559,"lat":43.215279}},{"_id":845667,"name":"Zvezdara","country":"RS","coord":{"lon":20.53207,"lat":44.774651}},{"_id":862740,"name":"Prislonica","country":"RS","coord":{"lon":20.43778,"lat":43.95306}},{"_id":862831,"name":"Knic","country":"RS","coord":{"lon":20.718889,"lat":43.926941}},{"_id":865964,"name":"Palilula","country":"RS","coord":{"lon":20.516109,"lat":44.811668}},{"_id":865971,"name":"Stari Grad","country":"RS","coord":{"lon":20.461861,"lat":44.81789}},{"_id":3186366,"name":"Zminjak","country":"RS","coord":{"lon":19.47056,"lat":44.754719}},{"_id":3187548,"name":"Vladimirci","country":"RS","coord":{"lon":19.78528,"lat":44.614719}},{"_id":3187641,"name":"Visnjicevo","country":"RS","coord":{"lon":19.290001,"lat":44.965832}},{"_id":3187829,"name":"Veternik","country":"RS","coord":{"lon":19.759439,"lat":45.25333}},{"_id":3188361,"name":"Varna","country":"RS","coord":{"lon":19.65139,"lat":44.67778}},{"_id":3188429,"name":"Uzvece","country":"RS","coord":{"lon":19.602501,"lat":44.88028}},{"_id":3188725,"name":"Trsic","country":"RS","coord":{"lon":19.26889,"lat":44.50806}},{"_id":3189166,"name":"Temerin","country":"RS","coord":{"lon":19.88917,"lat":45.408611}},{"_id":3189229,"name":"Tabanovic","country":"RS","coord":{"lon":19.64139,"lat":44.81361}},{"_id":3189859,"name":"Stitar","country":"RS","coord":{"lon":19.592779,"lat":44.791389}},{"_id":3190042,"name":"Stanisic","country":"RS","coord":{"lon":19.165279,"lat":45.939999}},{"_id":3190169,"name":"Srbobran","country":"RS","coord":{"lon":19.80278,"lat":45.55389}},{"_id":3190855,"name":"Sinosevic","country":"RS","coord":{"lon":19.63917,"lat":44.615559}},{"_id":3190958,"name":"Sevarice","country":"RS","coord":{"lon":19.65917,"lat":44.867222}},{"_id":3191339,"name":"Salas Nocajski","country":"RS","coord":{"lon":19.586109,"lat":44.94722}},{"_id":3191340,"name":"Salas Crnobarski","country":"RS","coord":{"lon":19.39222,"lat":44.826111}},{"_id":3191425,"name":"Rumenka","country":"RS","coord":{"lon":19.743891,"lat":45.29306}},{"_id":3191660,"name":"Ridica","country":"RS","coord":{"lon":19.105,"lat":45.986389}},{"_id":3191699,"name":"Ribari","country":"RS","coord":{"lon":19.423889,"lat":44.709999}},{"_id":3191802,"name":"Ravno Selo","country":"RS","coord":{"lon":19.619169,"lat":45.450279}},{"_id":3191810,"name":"Ravnje","country":"RS","coord":{"lon":19.421671,"lat":44.943611}},{"_id":3192138,"name":"Radenkovic","country":"RS","coord":{"lon":19.49333,"lat":44.924438}},{"_id":3192328,"name":"Prnjavor","country":"RS","coord":{"lon":19.388611,"lat":44.698891}},{"_id":3193230,"name":"Platicevo","country":"RS","coord":{"lon":19.79528,"lat":44.82111}},{"_id":3193437,"name":"Petkovica","country":"RS","coord":{"lon":19.439171,"lat":44.665562}},{"_id":3193540,"name":"Pecinci","country":"RS","coord":{"lon":19.966391,"lat":44.90889}},{"_id":3193944,"name":"Osecina","country":"RS","coord":{"lon":19.601391,"lat":44.373058}},{"_id":3194209,"name":"Odzaci","country":"RS","coord":{"lon":19.26111,"lat":45.506672}},{"_id":3194334,"name":"Novo Selo","country":"RS","coord":{"lon":19.34417,"lat":44.670559}},{"_id":3194407,"name":"Nova Varos","country":"RS","coord":{"lon":19.81139,"lat":43.46056}},{"_id":3195220,"name":"Metkovic","country":"RS","coord":{"lon":19.54611,"lat":44.855282}},{"_id":3195591,"name":"Mali Zvornik","country":"RS","coord":{"lon":19.10651,"lat":44.37344}},{"_id":3195707,"name":"Mali Igos","country":"RS","coord":{"lon":19.665279,"lat":45.708328}},{"_id":3195895,"name":"Majur","country":"RS","coord":{"lon":19.65444,"lat":44.769718}},{"_id":3196331,"name":"Ljubovija","country":"RS","coord":{"lon":19.376671,"lat":44.189442}},{"_id":3196511,"name":"Lipolist","country":"RS","coord":{"lon":19.50444,"lat":44.706669}},{"_id":3196517,"name":"Lipnicki Sor","country":"RS","coord":{"lon":19.26667,"lat":44.58028}},{"_id":3196638,"name":"Lesnica","country":"RS","coord":{"lon":19.309999,"lat":44.6525}},{"_id":3196910,"name":"Kupusina","country":"RS","coord":{"lon":19.00972,"lat":45.736111}},{"_id":3196959,"name":"Kulpin","country":"RS","coord":{"lon":19.586941,"lat":45.400829}},{"_id":3197111,"name":"Krupanj","country":"RS","coord":{"lon":19.36194,"lat":44.365559}},{"_id":3197266,"name":"Krivaja","country":"RS","coord":{"lon":19.60194,"lat":44.555279}},{"_id":3197451,"name":"Kozjak","country":"RS","coord":{"lon":19.28417,"lat":44.58667}},{"_id":3197622,"name":"Kosjeric","country":"RS","coord":{"lon":19.90694,"lat":43.996109}},{"_id":3197862,"name":"Kolut","country":"RS","coord":{"lon":18.92972,"lat":45.89278}},{"_id":3197946,"name":"Koceljeva","country":"RS","coord":{"lon":19.81167,"lat":44.47361}},{"_id":3198080,"name":"Klenje","country":"RS","coord":{"lon":19.434441,"lat":44.80722}},{"_id":3198082,"name":"Klenak","country":"RS","coord":{"lon":19.71056,"lat":44.788059}},{"_id":3198140,"name":"Kisac","country":"RS","coord":{"lon":19.728609,"lat":45.350281}},{"_id":3198410,"name":"Kamenica","country":"RS","coord":{"lon":19.7225,"lat":44.342499}},{"_id":3198582,"name":"Joseva","country":"RS","coord":{"lon":19.408331,"lat":44.586391}},{"_id":3198637,"name":"Jevremovac","country":"RS","coord":{"lon":19.663891,"lat":44.720829}},{"_id":3198711,"name":"Jelenca","country":"RS","coord":{"lon":19.74667,"lat":44.721111}},{"_id":3198859,"name":"Jarebice","country":"RS","coord":{"lon":19.42417,"lat":44.538891}},{"_id":3198868,"name":"Jarak","country":"RS","coord":{"lon":19.757219,"lat":44.916672}},{"_id":3198963,"name":"Jadranska Lesnica","country":"RS","coord":{"lon":19.353609,"lat":44.599171}},{"_id":3200272,"name":"Gornja Bukovica","country":"RS","coord":{"lon":19.78083,"lat":44.35194}},{"_id":3200547,"name":"Glusci","country":"RS","coord":{"lon":19.54833,"lat":44.89056}},{"_id":3201108,"name":"Dublje","country":"RS","coord":{"lon":19.50806,"lat":44.80056}},{"_id":3201216,"name":"Drenovac","country":"RS","coord":{"lon":19.70944,"lat":44.8675}},{"_id":3201307,"name":"Draginje","country":"RS","coord":{"lon":19.759439,"lat":44.533611}},{"_id":3201353,"name":"Doroslovo","country":"RS","coord":{"lon":19.190559,"lat":45.608608}},{"_id":3201487,"name":"Donji Dobric","country":"RS","coord":{"lon":19.330561,"lat":44.610828}},{"_id":3201946,"name":"Dobric","country":"RS","coord":{"lon":19.58139,"lat":44.701939}},{"_id":3202477,"name":"Crna Bara","country":"RS","coord":{"lon":19.39472,"lat":44.873611}},{"_id":3202545,"name":"Cokesina","country":"RS","coord":{"lon":19.390829,"lat":44.653061}},{"_id":3202900,"name":"Cajetina","country":"RS","coord":{"lon":19.71273,"lat":43.749771}},{"_id":3203083,"name":"Bukor","country":"RS","coord":{"lon":19.591391,"lat":44.5}},{"_id":3203139,"name":"Budanovci","country":"RS","coord":{"lon":19.862221,"lat":44.892502}},{"_id":3203497,"name":"Brdarica","country":"RS","coord":{"lon":19.770559,"lat":44.553329}},{"_id":3203817,"name":"Bogosavac","country":"RS","coord":{"lon":19.59528,"lat":44.718891}},{"_id":3203822,"name":"Bogojevo","country":"RS","coord":{"lon":19.13278,"lat":45.53056}},{"_id":3203840,"name":"Bogatic","country":"RS","coord":{"lon":19.48056,"lat":44.837502}},{"_id":3204289,"name":"Beocin","country":"RS","coord":{"lon":19.720631,"lat":45.20829}},{"_id":3204307,"name":"Belotic","country":"RS","coord":{"lon":19.547779,"lat":44.817501}},{"_id":3204517,"name":"Banovo Polje","country":"RS","coord":{"lon":19.446939,"lat":44.911388}},{"_id":3204670,"name":"Backi Breg","country":"RS","coord":{"lon":18.92889,"lat":45.921391}},{"_id":3217047,"name":"Pocerski Pricinovic","country":"RS","coord":{"lon":19.70722,"lat":44.722221}},{"_id":3300709,"name":"Durici","country":"RS","coord":{"lon":19.41139,"lat":43.824718}},{"_id":3318618,"name":"Sokolovo Brdo","country":"RS","coord":{"lon":19.805559,"lat":43.13694}},{"_id":3318643,"name":"Osjecenik","country":"RS","coord":{"lon":19.858891,"lat":43.145279}},{"_id":3318985,"name":"Rumska","country":"RS","coord":{"lon":19.575279,"lat":44.571671}},{"_id":7577033,"name":"Sumulice","country":"RS","coord":{"lon":21.733999,"lat":42.386822}}]}
