{"countryCityList":[{"_id":790698,"coord":{"lat":44.039719,"lon":21.316389},"country":"RS","name":"Glogovac"},{"_id":793760,"coord":{"lat":43.476391,"lon":20.35611},"country":"RS","name":"Golovša"},{"_id":3188434,"coord":{"lat":43.858608,"lon":19.84878},"country":"RS","name":"Uzice"},{"_id":7581797,"coord":{"lat":45.08083,"lon":20.96583},"country":"RS","name":"Juzhno Banatski Okrug"},{"_id":793111,"coord":{"lat":44.306938,"lon":20.559999},"country":"RS","name":"Arangelovac"},{"_id":6619277,"coord":{"lat":43.564838,"lon":22.250231},"country":"RS","name":"Knjazevac"},{"_id":6290252,"coord":{"lat":44.81892,"lon":20.45998},"country":"RS","name":"Serbia"},{"_id":784344,"coord":{"lat":45.074718,"lon":21.200279},"country":"RS","name":"Vlajkovac"},{"_id":787607,"coord":{"lat":44.805561,"lon":20.42417},"country":"RS","name":"Novi Beograd"},{"_id":3204390,"coord":{"lat":45.609718,"lon":19.995279},"country":"RS","name":"Opština Bečej"},{"_id":792814,"coord":{"lat":45.616322,"lon":20.03331},"country":"RS","name":"Becej"},{"_id":788993,"coord":{"lat":46.133331,"lon":20.1},"country":"RS","name":"Krstur"},{"_id":785973,"coord":{"lat":44.783329,"lon":20.433331},"country":"RS","name":"Senjak (historical)"},{"_id":3189595,"coord":{"lat":46.099998,"lon":19.66667},"country":"RS","name":"Subotica"},{"_id":791148,"coord":{"lat":44.816669,"lon":20.466669},"country":"RS","name":"Dorćol (historical)"},{"_id":784272,"coord":{"lat":45,"lon":20},"country":"RS","name":"Autonomna Pokrajina Vojvodina"},{"_id":7581796,"coord":{"lat":45.408611,"lon":19.88917},"country":"RS","name":"Juzhno Bački Okrug"},{"_id":3194360,"coord":{"lat":45.251671,"lon":19.836941},"country":"RS","name":"Novi Sad"},{"_id":783814,"coord":{"lat":45.38361,"lon":20.381941},"country":"RS","name":"Zrenjanin"},{"_id":784135,"coord":{"lat":45.08889,"lon":21.302219},"country":"RS","name":"Opština Vršac"},{"_id":784136,"coord":{"lat":45.116669,"lon":21.30361},"country":"RS","name":"Vrsac"},{"_id":789128,"coord":{"lat":44.01667,"lon":20.91667},"country":"RS","name":"Kragujevac"},{"_id":785756,"coord":{"lat":44.662781,"lon":20.93},"country":"RS","name":"Smederevo"},{"_id":7581911,"coord":{"lat":45.77417,"lon":19.112221},"country":"RS","name":"Zapadno Bački Okrug"},{"_id":3196973,"coord":{"lat":45.608891,"lon":19.52639},"country":"RS","name":"Kula"},{"_id":787236,"coord":{"lat":44.838329,"lon":20.718889},"country":"RS","name":"Opština Pančevo"},{"_id":787237,"coord":{"lat":44.870831,"lon":20.64028},"country":"RS","name":"Pancevo"},{"_id":3190103,"coord":{"lat":44.976391,"lon":19.612221},"country":"RS","name":"Sremska Mitrovica"},{"_id":784141,"coord":{"lat":43.616669,"lon":20.9},"country":"RS","name":"Vrnjacka Banja"},{"_id":3190342,"coord":{"lat":45.77417,"lon":19.112221},"country":"RS","name":"Sombor"},{"_id":792078,"coord":{"lat":43.891392,"lon":20.34972},"country":"RS","name":"Cacak"},{"_id":3191376,"coord":{"lat":44.74667,"lon":19.690001},"country":"RS","name":"Sabac"},{"_id":789600,"coord":{"lat":46.066669,"lon":20.049999},"country":"RS","name":"Kanjiza"},{"_id":3204673,"coord":{"lat":45.28944,"lon":19.408331},"country":"RS","name":"Opština Bačka Palanka"},{"_id":3204674,"coord":{"lat":45.250832,"lon":19.391939},"country":"RS","name":"Backa Palanka"},{"_id":785753,"coord":{"lat":44.365479,"lon":20.958851},"country":"RS","name":"Smederevska Palanka"},{"_id":3187297,"coord":{"lat":45.571388,"lon":19.640829},"country":"RS","name":"Vrbas"},{"_id":784227,"coord":{"lat":42.551392,"lon":21.90028},"country":"RS","name":"Vranje"},{"_id":792851,"coord":{"lat":45.641109,"lon":20.414169},"country":"RS","name":"Basaid"},{"_id":785965,"coord":{"lat":45.927502,"lon":20.077221},"country":"RS","name":"Senta"},{"_id":786690,"coord":{"lat":43.234169,"lon":21.58806},"country":"RS","name":"Prokuplje"},{"_id":3204672,"coord":{"lat":45.815159,"lon":19.6318},"country":"RS","name":"Backa Topola"},{"_id":788709,"coord":{"lat":42.998058,"lon":21.94611},"country":"RS","name":"Leskovac"},{"_id":793093,"coord":{"lat":43.753059,"lon":20.09556},"country":"RS","name":"Arilje"},{"_id":789107,"coord":{"lat":43.72583,"lon":20.68944},"country":"RS","name":"Kraljevo"},{"_id":784024,"coord":{"lat":43.90358,"lon":22.26405},"country":"RS","name":"Zajecar"},{"_id":788975,"coord":{"lat":43.580002,"lon":21.333891},"country":"RS","name":"Krusevac"},{"_id":788852,"coord":{"lat":43.145828,"lon":21.26861},"country":"RS","name":"Kursumlija"},{"_id":3204793,"coord":{"lat":45.671108,"lon":18.98472},"country":"RS","name":"Apatin"},{"_id":786772,"coord":{"lat":42.30917,"lon":21.64917},"country":"RS","name":"Presevo"},{"_id":784318,"coord":{"lat":42.963612,"lon":22.12306},"country":"RS","name":"Vlasotince"},{"_id":787050,"coord":{"lat":43.153061,"lon":22.586109},"country":"RS","name":"Pirot"},{"_id":3202798,"coord":{"lat":45.26944,"lon":19.52528},"country":"RS","name":"Celarevo"},{"_id":787516,"coord":{"lat":44.654861,"lon":20.200171},"country":"RS","name":"Obrenovac"},{"_id":783920,"coord":{"lat":44.84306,"lon":20.40111},"country":"RS","name":"Zemun"},{"_id":790015,"coord":{"lat":45.049171,"lon":20.07917},"country":"RS","name":"Ingija"},{"_id":789019,"coord":{"lat":44.409439,"lon":21.04694},"country":"RS","name":"Krnjevo"},{"_id":786827,"coord":{"lat":44.61528,"lon":21.182501},"country":"RS","name":"Pozarevac"},{"_id":3190947,"coord":{"lat":43.845001,"lon":19.898609},"country":"RS","name":"Sevojno"},{"_id":3216381,"coord":{"lat":44.26194,"lon":19.878889},"country":"RS","name":"Popare"},{"_id":792241,"coord":{"lat":43.38361,"lon":21.033609},"country":"RS","name":"Brus"},{"_id":3196153,"coord":{"lat":44.534168,"lon":19.224171},"country":"RS","name":"Loznica"},{"_id":791704,"coord":{"lat":44.782501,"lon":20.42028},"country":"RS","name":"Cukarica"},{"_id":792784,"coord":{"lat":43.21833,"lon":22.31111},"country":"RS","name":"Bela Palanka"},{"_id":791678,"coord":{"lat":43.927502,"lon":21.370001},"country":"RS","name":"Cuprija"},{"_id":786824,"coord":{"lat":43.84639,"lon":20.041389},"country":"RS","name":"Pozega"},{"_id":790132,"coord":{"lat":44.672218,"lon":20.717501},"country":"RS","name":"Grocka"},{"_id":3192450,"coord":{"lat":43.583611,"lon":19.525829},"country":"RS","name":"Priboj"},{"_id":785013,"coord":{"lat":44.254169,"lon":20.682501},"country":"RS","name":"Topola"},{"_id":3204667,"coord":{"lat":45.370281,"lon":19.875},"country":"RS","name":"Bački Jarak"},{"_id":789168,"coord":{"lat":44.747501,"lon":20.97611},"country":"RS","name":"Kovin"},{"_id":789021,"coord":{"lat":44.886391,"lon":20.135281},"country":"RS","name":"Krnješevci"},{"_id":790106,"coord":{"lat":43.776669,"lon":20.225281},"country":"RS","name":"Guča"},{"_id":792892,"coord":{"lat":44.578892,"lon":20.415831},"country":"RS","name":"Barajevo"},{"_id":787615,"coord":{"lat":44.943661,"lon":20.219311},"country":"RS","name":"bar"},{"_id":791949,"coord":{"lat":43.430561,"lon":21.653891},"country":"RS","name":"Česta"},{"_id":787718,"coord":{"lat":44.226391,"lon":22.53083},"country":"RS","name":"Negotin"},{"_id":790035,"coord":{"lat":45.828892,"lon":20.316111},"country":"RS","name":"Tiszahegyes"},{"_id":791321,"coord":{"lat":44.901112,"lon":20.877501},"country":"RS","name":"Dolovo"},{"_id":3191429,"coord":{"lat":45.00806,"lon":19.82222},"country":"RS","name":"Ruma"},{"_id":784091,"coord":{"lat":42.86528,"lon":21.91139},"country":"RS","name":"Vučje"},{"_id":787215,"coord":{"lat":43.860828,"lon":21.40778},"country":"RS","name":"Paracin"},{"_id":789485,"coord":{"lat":44.60667,"lon":22.61194},"country":"RS","name":"Kladovo"},{"_id":787595,"coord":{"lat":43.136669,"lon":20.51222},"country":"RS","name":"Novi Pazar"},{"_id":792173,"coord":{"lat":42.459171,"lon":21.76667},"country":"RS","name":"Bujanovac"},{"_id":790367,"coord":{"lat":44.033329,"lon":20.450001},"country":"RS","name":"Gornji Milanovac"},{"_id":787893,"coord":{"lat":44.43861,"lon":20.699169},"country":"RS","name":"Mladenovac"},{"_id":785559,"coord":{"lat":44.985001,"lon":20.16083},"country":"RS","name":"Stara Pazova"},{"_id":3190335,"coord":{"lat":45.594719,"lon":19.098061},"country":"RS","name":"Sonta"},{"_id":785704,"coord":{"lat":43.64333,"lon":21.871111},"country":"RS","name":"Soko Banja"},{"_id":792794,"coord":{"lat":44.897499,"lon":21.417219},"country":"RS","name":"Bela Crkva"},{"_id":792651,"coord":{"lat":45.129719,"lon":20.066111},"country":"RS","name":"Beska"},{"_id":788762,"coord":{"lat":42.923889,"lon":21.737499},"country":"RS","name":"Lebane"},{"_id":789923,"coord":{"lat":43.981392,"lon":21.26222},"country":"RS","name":"Jagodina"},{"_id":3343730,"coord":{"lat":45.200001,"lon":19.924721},"country":"RS","name":"Opština Sremski Karlovci"},{"_id":3190101,"coord":{"lat":45.202499,"lon":19.934441},"country":"RS","name":"Sremski Karlovci"},{"_id":3204623,"coord":{"lat":43.970829,"lon":19.567499},"country":"RS","name":"Bajina Basta"},{"_id":793138,"coord":{"lat":43.541672,"lon":21.707781},"country":"RS","name":"Aleksinac"},{"_id":785958,"coord":{"lat":44,"lon":21},"country":"RS","name":"Central Serbia"},{"_id":789988,"coord":{"lat":43.58028,"lon":20.23111},"country":"RS","name":"Ivanjica"},{"_id":791672,"coord":{"lat":45.473061,"lon":20.07139},"country":"RS","name":"Curug"},{"_id":784779,"coord":{"lat":44.87833,"lon":20.186939},"country":"RS","name":"Ugrinovci"},{"_id":791471,"coord":{"lat":44.826939,"lon":20.225559},"country":"RS","name":"Dobanovci"},{"_id":784288,"coord":{"lat":44.93972,"lon":20.153891},"country":"RS","name":"Vojka"},{"_id":785061,"coord":{"lat":45.196388,"lon":20.29361},"country":"RS","name":"Opština Titel"},{"_id":785062,"coord":{"lat":45.206108,"lon":20.294439},"country":"RS","name":"Titel"},{"_id":789176,"coord":{"lat":45.100559,"lon":20.62389},"country":"RS","name":"Opština Kovačica"},{"_id":789178,"coord":{"lat":45.111671,"lon":20.621389},"country":"RS","name":"Kovacica"},{"_id":787657,"coord":{"lat":43.324718,"lon":21.90333},"country":"RS","name":"Nis"},{"_id":784427,"coord":{"lat":44.759998,"lon":20.61972},"country":"RS","name":"Vinča"},{"_id":3193406,"coord":{"lat":45.24667,"lon":19.87944},"country":"RS","name":"Petrovaradin"},{"_id":3202318,"coord":{"lat":45.658611,"lon":19.455561},"country":"RS","name":"Crvenka"},{"_id":787471,"coord":{"lat":44.760559,"lon":20.72806},"country":"RS","name":"Omoljica"},{"_id":784592,"coord":{"lat":44.467499,"lon":20.284439},"country":"RS","name":"Veliki Crljeni"},{"_id":792477,"coord":{"lat":44.72472,"lon":20.603331},"country":"RS","name":"Boleč"},{"_id":786358,"coord":{"lat":43.861671,"lon":21.09667},"country":"RS","name":"Rekovac"},{"_id":793171,"coord":{"lat":45.802502,"lon":20.12583},"country":"RS","name":"Ada"},{"_id":3199103,"coord":{"lat":45.101109,"lon":19.85833},"country":"RS","name":"Irig"},{"_id":3192404,"coord":{"lat":43.371941,"lon":19.64056},"country":"RS","name":"Prijepolje"},{"_id":784630,"coord":{"lat":44.333889,"lon":21.076759},"country":"RS","name":"Velika Plana"},{"_id":790702,"coord":{"lat":44.987499,"lon":20.52611},"country":"RS","name":"Glogonj"},{"_id":792819,"coord":{"lat":44.81889,"lon":20.87583},"country":"RS","name":"Bavanište"},{"_id":788040,"coord":{"lat":45.513889,"lon":20.317221},"country":"RS","name":"Melenci"},{"_id":787271,"coord":{"lat":45.118061,"lon":20.727221},"country":"RS","name":"Padina"},{"_id":788848,"coord":{"lat":44.399719,"lon":20.803329},"country":"RS","name":"Kusadak"},{"_id":792502,"coord":{"lat":43.895,"lon":21.940281},"country":"RS","name":"Bogovina"},{"_id":793015,"coord":{"lat":45.53278,"lon":20.02833},"country":"RS","name":"Backo Gradiste"},{"_id":790394,"coord":{"lat":45.91917,"lon":20.01667},"country":"RS","name":"Gornji Breg"},{"_id":784795,"coord":{"lat":44.456108,"lon":20.073891},"country":"RS","name":"Ub"},{"_id":785288,"coord":{"lat":44.79306,"lon":20.280279},"country":"RS","name":"Surcin"},{"_id":3190005,"coord":{"lat":45.868889,"lon":19.46611},"country":"RS","name":"Stara Moravica"},{"_id":787058,"coord":{"lat":44.695278,"lon":20.480829},"country":"RS","name":"Pinosava"},{"_id":791900,"coord":{"lat":45.942501,"lon":20.14333},"country":"RS","name":"Coka"},{"_id":3196827,"coord":{"lat":45.00222,"lon":19.568609},"country":"RS","name":"Laćarak"},{"_id":792421,"coord":{"lat":42.501099,"lon":22.47238},"country":"RS","name":"Bosilegrad"},{"_id":787610,"coord":{"lat":45.59861,"lon":20.135559},"country":"RS","name":"Novi Becej"},{"_id":3192420,"coord":{"lat":45.678612,"lon":19.08667},"country":"RS","name":"Prigrevica"},{"_id":3204376,"coord":{"lat":45.236671,"lon":19.62306},"country":"RS","name":"Begeč"},{"_id":792937,"coord":{"lat":45.827221,"lon":20.599171},"country":"RS","name":"Banatsko Veliko Selo"},{"_id":3204664,"coord":{"lat":45.365559,"lon":19.60944},"country":"RS","name":"Opština Bački Petrovac"},{"_id":3204665,"coord":{"lat":45.360561,"lon":19.591669},"country":"RS","name":"Backi Petrovac"},{"_id":3198267,"coord":{"lat":45.494999,"lon":19.188061},"country":"RS","name":"Karavukovo"},{"_id":784222,"coord":{"lat":42.555,"lon":21.99222},"country":"RS","name":"Vranjska Banja"},{"_id":784535,"coord":{"lat":44.756672,"lon":21.513611},"country":"RS","name":"Veliko Gradiste"},{"_id":7581582,"coord":{"lat":44.366669,"lon":22.25},"country":"RS","name":"Borski Okrug"},{"_id":792456,"coord":{"lat":44.078331,"lon":22.09528},"country":"RS","name":"Bor"},{"_id":792945,"coord":{"lat":45.047218,"lon":21.016109},"country":"RS","name":"Banatski Karlovac"},{"_id":793790,"coord":{"lat":43.28722,"lon":20.61528},"country":"RS","name":"Raska"},{"_id":787855,"coord":{"lat":45.764172,"lon":20.131109},"country":"RS","name":"Mol"},{"_id":792043,"coord":{"lat":44.679169,"lon":21.49333},"country":"RS","name":"Carevac"},{"_id":785450,"coord":{"lat":43.65361,"lon":21.137779},"country":"RS","name":"Stragari"},{"_id":793034,"coord":{"lat":43.059719,"lon":22.411671},"country":"RS","name":"Babušnica"},{"_id":784352,"coord":{"lat":45.033058,"lon":20.86389},"country":"RS","name":"Vladimirovac"},{"_id":784800,"coord":{"lat":42.99028,"lon":20.33139},"country":"RS","name":"Tutin"},{"_id":3199872,"coord":{"lat":45.40361,"lon":19.987221},"country":"RS","name":"Gospođinci"},{"_id":791887,"coord":{"lat":45.009441,"lon":20.635559},"country":"RS","name":"Crepaja"},{"_id":784745,"coord":{"lat":45.204441,"lon":20.620001},"country":"RS","name":"Uzdin"},{"_id":3194243,"coord":{"lat":45.320278,"lon":19.350281},"country":"RS","name":"Obrovac"},{"_id":3194498,"coord":{"lat":44.851669,"lon":19.821939},"country":"RS","name":"Nikinci"},{"_id":792838,"coord":{"lat":44.90472,"lon":20.27639},"country":"RS","name":"Batajnica"},{"_id":3191397,"coord":{"lat":45.562778,"lon":19.415831},"country":"RS","name":"Ruski Krstur"},{"_id":3204690,"coord":{"lat":45.400558,"lon":19.189171},"country":"RS","name":"Opština Bač"},{"_id":3204692,"coord":{"lat":45.391941,"lon":19.23667},"country":"RS","name":"Bac"},{"_id":3319247,"coord":{"lat":43.74556,"lon":19.72167},"country":"RS","name":"Šinovik"},{"_id":3199348,"coord":{"lat":46.15556,"lon":19.9725},"country":"RS","name":"Horgoš"},{"_id":787123,"coord":{"lat":45.208061,"lon":20.38139},"country":"RS","name":"Perlez"},{"_id":790033,"coord":{"lat":45.188889,"lon":20.51417},"country":"RS","name":"Idvor"},{"_id":3190776,"coord":{"lat":43.27306,"lon":19.999439},"country":"RS","name":"Sjenica"},{"_id":3195962,"coord":{"lat":44.965561,"lon":19.598061},"country":"RS","name":"Macvanska Mitrovica"},{"_id":784666,"coord":{"lat":43.628059,"lon":21.13278},"country":"RS","name":"Velika Drenova"},{"_id":3190922,"coord":{"lat":45.12833,"lon":19.226391},"country":"RS","name":"Sid"},{"_id":3200746,"coord":{"lat":45.903332,"lon":19.06361},"country":"RS","name":"Gakovo"},{"_id":787592,"coord":{"lat":45.125278,"lon":20.239441},"country":"RS","name":"Novi Slankamen"},{"_id":3194196,"coord":{"lat":44.7925,"lon":19.946939},"country":"RS","name":"Ogar"},{"_id":792811,"coord":{"lat":44.779442,"lon":20.208611},"country":"RS","name":"Becmen"},{"_id":785614,"coord":{"lat":44.85833,"lon":20.044439},"country":"RS","name":"Sremski Mihaljevci"},{"_id":787689,"coord":{"lat":44.442501,"lon":21.72583},"country":"RS","name":"Neresnica"},{"_id":785305,"coord":{"lat":44.821388,"lon":21.139999},"country":"RS","name":"Šumarak"},{"_id":786035,"coord":{"lat":45.366669,"lon":20.772221},"country":"RS","name":"Secanj"},{"_id":787384,"coord":{"lat":45.860001,"lon":20.022779},"country":"RS","name":"Orom Breg"},{"_id":3204615,"coord":{"lat":45.779171,"lon":19.584999},"country":"RS","name":"Bajša"},{"_id":786620,"coord":{"lat":43.650002,"lon":20.15},"country":"RS","name":"Radaljevo"},{"_id":785285,"coord":{"lat":42.690559,"lon":22.17083},"country":"RS","name":"Surdulica"},{"_id":836988,"coord":{"lat":44.8325,"lon":21.03694},"country":"RS","name":"Deliblato"},{"_id":784661,"coord":{"lat":45.243328,"lon":21.029169},"country":"RS","name":"Velika Greda"},{"_id":791998,"coord":{"lat":45.10833,"lon":20.387779},"country":"RS","name":"Centa"},{"_id":787600,"coord":{"lat":46.049999,"lon":20.1},"country":"RS","name":"Novi Knezevac"},{"_id":783887,"coord":{"lat":45.485001,"lon":20.549721},"country":"RS","name":"Zitiste"},{"_id":3188955,"coord":{"lat":45.87833,"lon":19.831671},"country":"RS","name":"Tornjoš"},{"_id":3191060,"coord":{"lat":45.979439,"lon":19.986111},"country":"RS","name":"Trešnjevac"},{"_id":788120,"coord":{"lat":46.116669,"lon":20.049999},"country":"RS","name":"Martonoš"},{"_id":3200859,"coord":{"lat":45.664169,"lon":19.699169},"country":"RS","name":"Feketić"},{"_id":786498,"coord":{"lat":44.57222,"lon":20.56222},"country":"RS","name":"Ralja"},{"_id":787925,"coord":{"lat":44.793892,"lon":20.526939},"country":"RS","name":"Mirijevo"},{"_id":3199475,"coord":{"lat":45.759171,"lon":19.82917},"country":"RS","name":"Gunaroš"},{"_id":792394,"coord":{"lat":44.538059,"lon":21.39278},"country":"RS","name":"Boževac"},{"_id":793141,"coord":{"lat":44.445,"lon":21.21167},"country":"RS","name":"Aleksandrovac"},{"_id":787601,"coord":{"lat":45.08028,"lon":20.17667},"country":"RS","name":"Novi Karlovci"},{"_id":785077,"coord":{"lat":44.461941,"lon":21.25639},"country":"RS","name":"Tićevac"},{"_id":3191124,"coord":{"lat":45.409168,"lon":19.29833},"country":"RS","name":"Selenča"},{"_id":792952,"coord":{"lat":44.842499,"lon":21.32667},"country":"RS","name":"Banatska Palanka"},{"_id":789076,"coord":{"lat":45.139999,"lon":20.132219},"country":"RS","name":"Krcedin"},{"_id":792308,"coord":{"lat":44.040001,"lon":22.083059},"country":"RS","name":"Brestovac"},{"_id":836698,"coord":{"lat":45.762779,"lon":20.571939},"country":"RS","name":"Rusko Selo"},{"_id":3202059,"coord":{"lat":45.457779,"lon":19.524719},"country":"RS","name":"Despotovo"},{"_id":790426,"coord":{"lat":43.277222,"lon":21.846939},"country":"RS","name":"Gornje Međurovo"},{"_id":3302765,"coord":{"lat":43.716839,"lon":19.700029},"country":"RS","name":"Zlatibor"},{"_id":785574,"coord":{"lat":44.006939,"lon":20.883329},"country":"RS","name":"Stanovo"},{"_id":862839,"coord":{"lat":43.977219,"lon":20.824169},"country":"RS","name":"Dragobraća"},{"_id":3194608,"coord":{"lat":45.506939,"lon":19.92194},"country":"RS","name":"Nadalj"},{"_id":3200560,"coord":{"lat":45.277222,"lon":19.568609},"country":"RS","name":"Glozan"},{"_id":792807,"coord":{"lat":45.50861,"lon":20.60639},"country":"RS","name":"Begejci"},{"_id":865958,"coord":{"lat":44.779171,"lon":20.45389},"country":"RS","name":"Savski Venac"},{"_id":845271,"coord":{"lat":44.778332,"lon":20.47583},"country":"RS","name":"Vozdovac"},{"_id":791589,"coord":{"lat":45.07111,"lon":20.6},"country":"RS","name":"Debeljaca"},{"_id":793134,"coord":{"lat":45.08083,"lon":20.96583},"country":"RS","name":"Alibunar"},{"_id":3189185,"coord":{"lat":46.033329,"lon":19.48333},"country":"RS","name":"Tavankut"},{"_id":786021,"coord":{"lat":45.004719,"lon":20.48278},"country":"RS","name":"Sefkerin"},{"_id":3193295,"coord":{"lat":45.46944,"lon":19.45528},"country":"RS","name":"Pivnice"},{"_id":3192185,"coord":{"lat":44.99194,"lon":19.971939},"country":"RS","name":"Putinci"},{"_id":788439,"coord":{"lat":44.51889,"lon":21.068331},"country":"RS","name":"Lugavcina"},{"_id":788507,"coord":{"lat":45.152779,"lon":21.031111},"country":"RS","name":"Lokve"},{"_id":792949,"coord":{"lat":44.727219,"lon":20.805281},"country":"RS","name":"Banatski Brestovac"},{"_id":3197397,"coord":{"lat":44.97694,"lon":19.88389},"country":"RS","name":"Kraljevci"},{"_id":3189891,"coord":{"lat":45.413891,"lon":19.69833},"country":"RS","name":"Stepanovicevo"},{"_id":786697,"coord":{"lat":44.715,"lon":20.16139},"country":"RS","name":"Progar"},{"_id":3214575,"coord":{"lat":45.11306,"lon":19.70611},"country":"RS","name":"Bešenovački Prnjavor"},{"_id":3188949,"coord":{"lat":45.353611,"lon":19.325001},"country":"RS","name":"Tovariševo"},{"_id":3197109,"coord":{"lat":45.614719,"lon":19.364441},"country":"RS","name":"Veprovac"},{"_id":784519,"coord":{"lat":45.17778,"lon":21.40583},"country":"RS","name":"Veliko Srediste"},{"_id":3318867,"coord":{"lat":45.960281,"lon":19.873329},"country":"RS","name":"Doline"},{"_id":792934,"coord":{"lat":43.271671,"lon":22.113331},"country":"RS","name":"Bancarevo"},{"_id":786146,"coord":{"lat":45.84444,"lon":20.27833},"country":"RS","name":"Sajan"},{"_id":3200886,"coord":{"lat":45.11694,"lon":19.407499},"country":"RS","name":"Erdevik"},{"_id":787274,"coord":{"lat":45.828892,"lon":20.166109},"country":"RS","name":"Padej"},{"_id":3189893,"coord":{"lat":45.056671,"lon":19.72333},"country":"RS","name":"Stejanovci"},{"_id":786884,"coord":{"lat":44.92778,"lon":20.01306},"country":"RS","name":"Popinci"},{"_id":3194918,"coord":{"lat":43.790829,"lon":19.506109},"country":"RS","name":"Mokra Gora"},{"_id":3188417,"coord":{"lat":45.410831,"lon":19.11194},"country":"RS","name":"Vajska"},{"_id":791948,"coord":{"lat":45.56361,"lon":20.53194},"country":"RS","name":"Cestereg"},{"_id":3195939,"coord":{"lat":45.362221,"lon":19.53167},"country":"RS","name":"Maglic"},{"_id":792317,"coord":{"lat":43.57917,"lon":21.16889},"country":"RS","name":"Bresno Polje"},{"_id":3194480,"coord":{"lat":45.763329,"lon":19.75222},"country":"RS","name":"Njegoševo"},{"_id":3214591,"coord":{"lat":45.041111,"lon":19.93972},"country":"RS","name":"Dobrodol"},{"_id":792453,"coord":{"lat":44.870281,"lon":20.458611},"country":"RS","name":"Borča"},{"_id":790475,"coord":{"lat":43.521111,"lon":21.594999},"country":"RS","name":"Gornja Peščanica"},{"_id":790986,"coord":{"lat":44.444439,"lon":21.375},"country":"RS","name":"Dubočka"},{"_id":784570,"coord":{"lat":44.75861,"lon":20.529169},"country":"RS","name":"Veliki Mokri Lug"},{"_id":3195520,"coord":{"lat":45.102219,"lon":19.9925},"country":"RS","name":"Maradik"},{"_id":787857,"coord":{"lat":45.935829,"lon":20.407221},"country":"RS","name":"Mokrin"},{"_id":3186376,"coord":{"lat":45.453609,"lon":19.685829},"country":"RS","name":"Zmajevo"},{"_id":3204662,"coord":{"lat":46.133331,"lon":19.866671},"country":"RS","name":"Bački Vinogradi"},{"_id":788890,"coord":{"lat":45.538891,"lon":20.228331},"country":"RS","name":"Kumane"},{"_id":862706,"coord":{"lat":43.8675,"lon":20.52944},"country":"RS","name":"Mrčajevci"},{"_id":3337474,"coord":{"lat":44.997501,"lon":19.210279},"country":"RS","name":"Morović"},{"_id":784644,"coord":{"lat":44.478329,"lon":20.805},"country":"RS","name":"Velika Krsna"},{"_id":3204663,"coord":{"lat":45.849442,"lon":19.53944},"country":"RS","name":"Bački Sokolac"},{"_id":3201418,"coord":{"lat":44.965,"lon":19.975559},"country":"RS","name":"Donji Petrovci"},{"_id":3191877,"coord":{"lat":45.454441,"lon":19.3325},"country":"RS","name":"Ratkovo"},{"_id":788038,"coord":{"lat":44.618061,"lon":20.36306},"country":"RS","name":"Meljak"},{"_id":792479,"coord":{"lat":45.354439,"lon":20.82972},"country":"RS","name":"Boka"},{"_id":788421,"coord":{"lat":45.338612,"lon":20.49889},"country":"RS","name":"Lukicevo"},{"_id":3202130,"coord":{"lat":44.623058,"lon":19.903061},"country":"RS","name":"Debrc"},{"_id":786100,"coord":{"lat":44.572498,"lon":21.363331},"country":"RS","name":"Šapine"},{"_id":3186764,"coord":{"lat":45.003609,"lon":19.934719},"country":"RS","name":"Žarkovac"},{"_id":3204635,"coord":{"lat":44.785831,"lon":19.371389},"country":"RS","name":"Badovinci"},{"_id":3188009,"coord":{"lat":45.045559,"lon":19.673611},"country":"RS","name":"Veliki Radinci"},{"_id":785839,"coord":{"lat":44.764721,"lon":20.90444},"country":"RS","name":"Skorenovac"},{"_id":3199251,"coord":{"lat":44.878891,"lon":19.770559},"country":"RS","name":"Hrtkovci"},{"_id":3191256,"coord":{"lat":44.97028,"lon":19.742781},"country":"RS","name":"Sasinci"},{"_id":789879,"coord":{"lat":45.054169,"lon":20.025},"country":"RS","name":"Jarkovci"},{"_id":789982,"coord":{"lat":44.73917,"lon":20.6975},"country":"RS","name":"Ivanovo"},{"_id":3204661,"coord":{"lat":45.497501,"lon":19.689171},"country":"RS","name":"Bačko Dobro Polje"},{"_id":3201935,"coord":{"lat":44.95306,"lon":19.9275},"country":"RS","name":"Dobrinci"},{"_id":3194474,"coord":{"lat":44.927219,"lon":19.556669},"country":"RS","name":"Noćaj"},{"_id":3198908,"coord":{"lat":44.885281,"lon":19.0625},"country":"RS","name":"Jamena"},{"_id":791487,"coord":{"lat":43.014172,"lon":22.77556},"country":"RS","name":"Dimitrovgrad"},{"_id":790795,"coord":{"lat":43.222778,"lon":22.03194},"country":"RS","name":"Gadzin Han"},{"_id":786109,"coord":{"lat":45.203892,"lon":20.772221},"country":"RS","name":"Samos"},{"_id":789471,"coord":{"lat":45.42194,"lon":20.48},"country":"RS","name":"Klek"},{"_id":792721,"coord":{"lat":44.359169,"lon":20.664169},"country":"RS","name":"Beljevac"},{"_id":3200189,"coord":{"lat":45.80722,"lon":19.46833},"country":"RS","name":"Gornja Rogatica"},{"_id":790772,"coord":{"lat":45.203331,"lon":20.135281},"country":"RS","name":"Gardinovci"},{"_id":3189363,"coord":{"lat":45.80278,"lon":19.85556},"country":"RS","name":"Svetićevo"},{"_id":791231,"coord":{"lat":43.296669,"lon":21.82222},"country":"RS","name":"Donje Međurovo"},{"_id":786806,"coord":{"lat":42.829441,"lon":22.131109},"country":"RS","name":"Predejane"},{"_id":789421,"coord":{"lat":43.259441,"lon":21.878611},"country":"RS","name":"Knežica"},{"_id":793146,"coord":{"lat":43.529442,"lon":22.44556},"country":"RS","name":"Aldinac"},{"_id":3193635,"coord":{"lat":45.413891,"lon":19.403061},"country":"RS","name":"Parage"},{"_id":3203628,"coord":{"lat":44.93222,"lon":19.362499},"country":"RS","name":"Bosut"},{"_id":789234,"coord":{"lat":43.190559,"lon":22.203609},"country":"RS","name":"Kosmovac"},{"_id":3197095,"coord":{"lat":45.113609,"lon":19.94722},"country":"RS","name":"Krušedol"},{"_id":788147,"coord":{"lat":43.200001,"lon":22.023331},"country":"RS","name":"Marina Kutina"},{"_id":787598,"coord":{"lat":45.78167,"lon":20.622219},"country":"RS","name":"Novi Kozarci"},{"_id":793053,"coord":{"lat":43.137779,"lon":22.00083},"country":"RS","name":"Babičko"},{"_id":3194986,"coord":{"lat":45.303059,"lon":19.261669},"country":"RS","name":"Mladenovo"},{"_id":3202085,"coord":{"lat":45.45417,"lon":19.21833},"country":"RS","name":"Deronje"},{"_id":792940,"coord":{"lat":45.583328,"lon":20.563061},"country":"RS","name":"Banatsko Karadordevo"},{"_id":792297,"coord":{"lat":44.649441,"lon":21.076389},"country":"RS","name":"Brežane"},{"_id":788804,"coord":{"lat":43.341942,"lon":21.78528},"country":"RS","name":"Lalinac"},{"_id":792821,"coord":{"lat":43.261108,"lon":21.822781},"country":"RS","name":"Batušinac"},{"_id":837045,"coord":{"lat":44.410831,"lon":21.105829},"country":"RS","name":"Trnovče"},{"_id":786819,"coord":{"lat":44.292221,"lon":22.592779},"country":"RS","name":"Prahovo"},{"_id":3303212,"coord":{"lat":43.88472,"lon":19.691389},"country":"RS","name":"Rogići"},{"_id":787612,"coord":{"lat":44.95472,"lon":20.28194},"country":"RS","name":"Novi Banovci"},{"_id":838920,"coord":{"lat":44.802502,"lon":20.34833},"country":"RS","name":"Ledine"},{"_id":784873,"coord":{"lat":43.61694,"lon":21.002501},"country":"RS","name":"Trstenik"},{"_id":785615,"coord":{"lat":44.676529,"lon":20.392321},"country":"RS","name":"Sremcica"},{"_id":788771,"coord":{"lat":44.385342,"lon":20.255699},"country":"RS","name":"Lazarevac"},{"_id":789518,"coord":{"lat":45.82972,"lon":20.465281},"country":"RS","name":"Kikinda"},{"_id":792680,"coord":{"lat":44.804008,"lon":20.46513},"country":"RS","name":"Belgrade"},{"_id":3188402,"coord":{"lat":44.275131,"lon":19.898211},"country":"RS","name":"Valjevo"},{"_id":783768,"coord":{"lat":44.638889,"lon":20.164721},"country":"RS","name":"Zvecka"},{"_id":783793,"coord":{"lat":42.315281,"lon":21.701941},"country":"RS","name":"Zujince"},{"_id":783880,"coord":{"lat":43.189999,"lon":21.71306},"country":"RS","name":"Zitoraga"},{"_id":784031,"coord":{"lat":44.19685,"lon":21.78838},"country":"RS","name":"Zagubica"},{"_id":784064,"coord":{"lat":44.35611,"lon":21.215},"country":"RS","name":"Zabari"},{"_id":784068,"coord":{"lat":45.372219,"lon":20.06389},"country":"RS","name":"Zabalj"},{"_id":784236,"coord":{"lat":44.601391,"lon":20.326111},"country":"RS","name":"Vranic"},{"_id":784252,"coord":{"lat":44.792561,"lon":20.474911},"country":"RS","name":"Vracar"},{"_id":784274,"coord":{"lat":45.680828,"lon":20.654169},"country":"RS","name":"Vojvoda Stepa"},{"_id":784355,"coord":{"lat":42.707779,"lon":22.06333},"country":"RS","name":"Vladicin Han"},{"_id":784434,"coord":{"lat":45.247501,"lon":20.157499},"country":"RS","name":"Vilovo"},{"_id":784588,"coord":{"lat":45.285561,"lon":21.172501},"country":"RS","name":"Veliki Gaj"},{"_id":784604,"coord":{"lat":45.63694,"lon":20.592779},"country":"RS","name":"Aleksandrovo"},{"_id":784635,"coord":{"lat":44.66333,"lon":20.353609},"country":"RS","name":"Velika Mostanica"},{"_id":784704,"coord":{"lat":43.723969,"lon":21.3624},"country":"RS","name":"Varvarin"},{"_id":784764,"coord":{"lat":44.678059,"lon":20.30472},"country":"RS","name":"Umka"},{"_id":784771,"coord":{"lat":45.041111,"lon":21.156111},"country":"RS","name":"Uljma"},{"_id":784820,"coord":{"lat":44.524441,"lon":21.64028},"country":"RS","name":"Turija"},{"_id":784946,"coord":{"lat":42.36417,"lon":22.0825},"country":"RS","name":"Trgoviste"},{"_id":784991,"coord":{"lat":45.58556,"lon":20.4575},"country":"RS","name":"Torda"},{"_id":785041,"coord":{"lat":45.26778,"lon":20.620831},"country":"RS","name":"Tomasevac"},{"_id":785053,"coord":{"lat":45.687778,"lon":20.55611},"country":"RS","name":"Toba"},{"_id":785125,"coord":{"lat":45.46806,"lon":20.198059},"country":"RS","name":"Taras"},{"_id":785164,"coord":{"lat":43.41333,"lon":22.121111},"country":"RS","name":"Svrljig"},{"_id":785184,"coord":{"lat":44.2337,"lon":21.196699},"country":"RS","name":"Svilajnac"},{"_id":785252,"coord":{"lat":45.384171,"lon":20.698891},"country":"RS","name":"Sutjeska"},{"_id":785287,"coord":{"lat":45.075279,"lon":20.31889},"country":"RS","name":"Surduk"},{"_id":785358,"coord":{"lat":44.573891,"lon":20.14139},"country":"RS","name":"Stubline"},{"_id":785489,"coord":{"lat":44.512779,"lon":20.295},"country":"RS","name":"Stepojevac"},{"_id":785530,"coord":{"lat":45.283611,"lon":20.96306},"country":"RS","name":"Stari Lec"},{"_id":785541,"coord":{"lat":44.986389,"lon":20.286671},"country":"RS","name":"Stari Banovci"},{"_id":785598,"coord":{"lat":45.293892,"lon":20.456671},"country":"RS","name":"Stajicevo"},{"_id":785600,"coord":{"lat":45.57,"lon":20.71361},"country":"RS","name":"Srpski Itebej"},{"_id":785603,"coord":{"lat":45.723331,"lon":20.68861},"country":"RS","name":"Srpska Crnja"},{"_id":785671,"coord":{"lat":44.519718,"lon":20.57361},"country":"RS","name":"Sopot"},{"_id":785903,"coord":{"lat":44.872501,"lon":20.091669},"country":"RS","name":"Simanovci"},{"_id":785941,"coord":{"lat":44.5,"lon":21.726669},"country":"RS","name":"Sevica"},{"_id":786001,"coord":{"lat":45.12722,"lon":20.915831},"country":"RS","name":"Seleus"},{"_id":786106,"coord":{"lat":45.976109,"lon":20.10778},"country":"RS","name":"Sanad"},{"_id":786111,"coord":{"lat":42.381939,"lon":21.74472},"country":"RS","name":"Samoljica"},{"_id":786137,"coord":{"lat":45.146111,"lon":20.485559},"country":"RS","name":"Sakule"},{"_id":786142,"coord":{"lat":45.272221,"lon":20.08972},"country":"RS","name":"Sajkas"},{"_id":786175,"coord":{"lat":44.684769,"lon":20.44993},"country":"RS","name":"Rusanj"},{"_id":786390,"coord":{"lat":43.672218,"lon":21.54944},"country":"RS","name":"Razanj"},{"_id":786395,"coord":{"lat":45.458889,"lon":20.56917},"country":"RS","name":"Ravni Topolovac"},{"_id":786500,"coord":{"lat":44.74194,"lon":20.441389},"country":"RS","name":"Rakovica"},{"_id":786532,"coord":{"lat":42.379169,"lon":21.69556},"country":"RS","name":"Rajince"},{"_id":786562,"coord":{"lat":42.415562,"lon":22.22694},"country":"RS","name":"Radovnica"},{"_id":786583,"coord":{"lat":45.746941,"lon":20.789169},"country":"RS","name":"Radojevo"},{"_id":786615,"coord":{"lat":44.583611,"lon":21.764441},"country":"RS","name":"Radenka"},{"_id":786624,"coord":{"lat":44.227119,"lon":20.977539},"country":"RS","name":"Raca"},{"_id":787032,"coord":{"lat":45.227219,"lon":21.12167},"country":"RS","name":"Plandiste"},{"_id":787078,"coord":{"lat":44.376942,"lon":21.41917},"country":"RS","name":"Petrovac"},{"_id":787164,"coord":{"lat":45.102779,"lon":21.240829},"country":"RS","name":"Pavlis"},{"_id":787296,"coord":{"lat":44.883492,"lon":20.53336},"country":"RS","name":"Ovca"},{"_id":787306,"coord":{"lat":44.728329,"lon":20.31917},"country":"RS","name":"Ostruznica"},{"_id":787341,"coord":{"lat":45.890831,"lon":20.164169},"country":"RS","name":"Ostojicevo"},{"_id":787391,"coord":{"lat":45.243328,"lon":20.58222},"country":"RS","name":"Orlovat"},{"_id":787461,"coord":{"lat":45.052219,"lon":20.430281},"country":"RS","name":"Opovo"},{"_id":787584,"coord":{"lat":45.721668,"lon":20.303061},"country":"RS","name":"Novo Milosevo"},{"_id":787597,"coord":{"lat":45.184441,"lon":20.864719},"country":"RS","name":"Kozjak"},{"_id":787602,"coord":{"lat":45.559441,"lon":20.694441},"country":"RS","name":"Novi Itebej"},{"_id":787621,"coord":{"lat":45.668331,"lon":20.605},"country":"RS","name":"Nova Crnja"},{"_id":787663,"coord":{"lat":45.049438,"lon":21.067221},"country":"RS","name":"Nikolinci"},{"_id":787682,"coord":{"lat":45.34417,"lon":20.712219},"country":"RS","name":"Neuzina"},{"_id":787743,"coord":{"lat":45.87389,"lon":20.567221},"country":"RS","name":"Nakovo"},{"_id":787747,"coord":{"lat":45.997219,"lon":20.040279},"country":"RS","name":"Adorjan"},{"_id":787837,"coord":{"lat":45.302502,"lon":20.164721},"country":"RS","name":"Mosorin"},{"_id":787929,"coord":{"lat":42.259441,"lon":21.66361},"country":"RS","name":"Miratovac"},{"_id":787935,"coord":{"lat":44.251942,"lon":20.081671},"country":"RS","name":"Mionica"},{"_id":787998,"coord":{"lat":45.47028,"lon":20.41444},"country":"RS","name":"Mihajlovo"},{"_id":788026,"coord":{"lat":43.283581,"lon":21.7204},"country":"RS","name":"Merosina"},{"_id":788057,"coord":{"lat":42.84306,"lon":21.58333},"country":"RS","name":"Medvega"},{"_id":788073,"coord":{"lat":45.535831,"lon":20.80694},"country":"RS","name":"Meda"},{"_id":788153,"coord":{"lat":45.21806,"lon":21.17556},"country":"RS","name":"Margita"},{"_id":788218,"coord":{"lat":44.55611,"lon":21.285561},"country":"RS","name":"Malo Crnice"},{"_id":788315,"coord":{"lat":44.646111,"lon":20.30278},"country":"RS","name":"Mala Mostanica"},{"_id":788357,"coord":{"lat":44.427711,"lon":21.945959},"country":"RS","name":"Majdanpek"},{"_id":788452,"coord":{"lat":43.860828,"lon":20.13806},"country":"RS","name":"Lucani"},{"_id":788515,"coord":{"lat":45.215832,"lon":20.212219},"country":"RS","name":"Lok"},{"_id":788539,"coord":{"lat":45.025829,"lon":20.025},"country":"RS","name":"Ljukovo"},{"_id":788584,"coord":{"lat":44.230068,"lon":20.23819},"country":"RS","name":"Ljig"},{"_id":788768,"coord":{"lat":45.388329,"lon":20.538891},"country":"RS","name":"Lazarevo"},{"_id":788792,"coord":{"lat":44.184238,"lon":21.097269},"country":"RS","name":"Lapovo"},{"_id":788812,"coord":{"lat":44.369438,"lon":20.165279},"country":"RS","name":"Lajkovac"},{"_id":788838,"coord":{"lat":45.035278,"lon":21.37722},"country":"RS","name":"Kustilj"},{"_id":788868,"coord":{"lat":44.705559,"lon":20.048059},"country":"RS","name":"Kupinovo"},{"_id":788937,"coord":{"lat":44.477501,"lon":21.67},"country":"RS","name":"Kucevo"},{"_id":789124,"coord":{"lat":45.452782,"lon":20.72917},"country":"RS","name":"Krajisnik"},{"_id":789170,"coord":{"lat":45.227779,"lon":20.021669},"country":"RS","name":"Kovilj"},{"_id":789346,"coord":{"lat":45.314999,"lon":20.91361},"country":"RS","name":"Konak"},{"_id":789415,"coord":{"lat":45.1875,"lon":20.31889},"country":"RS","name":"Knicanin"},{"_id":789787,"coord":{"lat":45.188061,"lon":21.047779},"country":"RS","name":"Jermenovci"},{"_id":789828,"coord":{"lat":45.9025,"lon":20.216391},"country":"RS","name":"Jazovo"},{"_id":789875,"coord":{"lat":45.446941,"lon":20.85528},"country":"RS","name":"Jasa Tomic"},{"_id":789880,"coord":{"lat":45.26889,"lon":20.758329},"country":"RS","name":"Jarkovac"},{"_id":789888,"coord":{"lat":45.173611,"lon":21.008329},"country":"RS","name":"Janosik"},{"_id":789972,"coord":{"lat":45.019718,"lon":21.18639},"country":"RS","name":"Izbiste"},{"_id":790028,"coord":{"lat":45.169441,"lon":20.919439},"country":"RS","name":"Ilandza"},{"_id":790053,"coord":{"lat":45.661388,"lon":20.791389},"country":"RS","name":"Hetin"},{"_id":790063,"coord":{"lat":45.249168,"lon":20.95722},"country":"RS","name":"Hajducica"},{"_id":790104,"coord":{"lat":45.17028,"lon":21.44306},"country":"RS","name":"Gudurica"},{"_id":790277,"coord":{"lat":44.601391,"lon":20.104719},"country":"RS","name":"Grabovac"},{"_id":790557,"coord":{"lat":44.985001,"lon":20.06889},"country":"RS","name":"Golubinci"},{"_id":790560,"coord":{"lat":44.652962,"lon":21.63199},"country":"RS","name":"Golubac"},{"_id":790823,"coord":{"lat":45.191669,"lon":20.471939},"country":"RS","name":"Farkazdin"},{"_id":790842,"coord":{"lat":45.44278,"lon":20.298059},"country":"RS","name":"Elemir"},{"_id":790847,"coord":{"lat":45.318611,"lon":20.44278},"country":"RS","name":"Ecka"},{"_id":790898,"coord":{"lat":45.324718,"lon":20.06472},"country":"RS","name":"Durdevo"},{"_id":790983,"coord":{"lat":44.521389,"lon":21.76083},"country":"RS","name":"Duboka"},{"_id":791373,"coord":{"lat":43.19817,"lon":21.832581},"country":"RS","name":"Doljevac"},{"_id":791452,"coord":{"lat":45.215,"lon":20.84944},"country":"RS","name":"Dobrica"},{"_id":791516,"coord":{"lat":44.092499,"lon":21.446939},"country":"RS","name":"Despotovac"},{"_id":791840,"coord":{"lat":42.809879,"lon":22.298809},"country":"RS","name":"Crna Trava"},{"_id":791890,"coord":{"lat":45.154442,"lon":20.020559},"country":"RS","name":"Cortanovci"},{"_id":791936,"coord":{"lat":43.718819,"lon":21.440849},"country":"RS","name":"Cicevac"},{"_id":792404,"coord":{"lat":45.308331,"lon":20.63611},"country":"RS","name":"Botos"},{"_id":792467,"coord":{"lat":44.722221,"lon":20.2225},"country":"RS","name":"Boljevci"},{"_id":792470,"coord":{"lat":43.83028,"lon":21.95306},"country":"RS","name":"Boljevac"},{"_id":792481,"coord":{"lat":43.012241,"lon":21.721001},"country":"RS","name":"Bojnik"},{"_id":792530,"coord":{"lat":45.771111,"lon":20.282221},"country":"RS","name":"Bocar"},{"_id":792564,"coord":{"lat":43.29528,"lon":21.28583},"country":"RS","name":"Blace"},{"_id":792623,"coord":{"lat":42.355831,"lon":21.749439},"country":"RS","name":"Biljaca"},{"_id":792718,"coord":{"lat":45.272781,"lon":20.375},"country":"RS","name":"Belo Blato"},{"_id":792764,"coord":{"lat":45.021671,"lon":20.33556},"country":"RS","name":"Belegis"},{"_id":792830,"coord":{"lat":44.15361,"lon":21.081671},"country":"RS","name":"Batocina"},{"_id":792864,"coord":{"lat":45.183331,"lon":21.08333},"country":"RS","name":"Barice"},{"_id":792866,"coord":{"lat":44.652222,"lon":20.259439},"country":"RS","name":"Baric"},{"_id":792888,"coord":{"lat":45.085281,"lon":20.443331},"country":"RS","name":"Baranda"},{"_id":792946,"coord":{"lat":45.520561,"lon":20.51417},"country":"RS","name":"Banatski Dvor"},{"_id":792948,"coord":{"lat":45.36528,"lon":20.664169},"country":"RS","name":"Banatski Despotovac"},{"_id":792950,"coord":{"lat":45.672501,"lon":20.465561},"country":"RS","name":"Banatska Topola"},{"_id":793014,"coord":{"lat":45.708061,"lon":20.075279},"country":"RS","name":"Backo Petrovo Selo"},{"_id":793112,"coord":{"lat":45.38306,"lon":20.30139},"country":"RS","name":"Aradac"},{"_id":793142,"coord":{"lat":43.458611,"lon":21.0525},"country":"RS","name":"Aleksandrovac"},{"_id":834855,"coord":{"lat":43.295071,"lon":22.005699},"country":"RS","name":"Niska Banja"},{"_id":836063,"coord":{"lat":43.215279,"lon":20.315559},"country":"RS","name":"Sokolovica"},{"_id":845667,"coord":{"lat":44.774651,"lon":20.53207},"country":"RS","name":"Zvezdara"},{"_id":862740,"coord":{"lat":43.95306,"lon":20.43778},"country":"RS","name":"Prislonica"},{"_id":862831,"coord":{"lat":43.926941,"lon":20.718889},"country":"RS","name":"Knic"},{"_id":865964,"coord":{"lat":44.811668,"lon":20.516109},"country":"RS","name":"Palilula"},{"_id":865971,"coord":{"lat":44.81789,"lon":20.461861},"country":"RS","name":"Stari Grad"},{"_id":3186366,"coord":{"lat":44.754719,"lon":19.47056},"country":"RS","name":"Zminjak"},{"_id":3187548,"coord":{"lat":44.614719,"lon":19.78528},"country":"RS","name":"Vladimirci"},{"_id":3187641,"coord":{"lat":44.965832,"lon":19.290001},"country":"RS","name":"Visnjicevo"},{"_id":3187829,"coord":{"lat":45.25333,"lon":19.759439},"country":"RS","name":"Veternik"},{"_id":3188361,"coord":{"lat":44.67778,"lon":19.65139},"country":"RS","name":"Varna"},{"_id":3188429,"coord":{"lat":44.88028,"lon":19.602501},"country":"RS","name":"Uzvece"},{"_id":3188725,"coord":{"lat":44.50806,"lon":19.26889},"country":"RS","name":"Trsic"},{"_id":3189166,"coord":{"lat":45.408611,"lon":19.88917},"country":"RS","name":"Temerin"},{"_id":3189229,"coord":{"lat":44.81361,"lon":19.64139},"country":"RS","name":"Tabanovic"},{"_id":3189859,"coord":{"lat":44.791389,"lon":19.592779},"country":"RS","name":"Stitar"},{"_id":3190042,"coord":{"lat":45.939999,"lon":19.165279},"country":"RS","name":"Stanisic"},{"_id":3190169,"coord":{"lat":45.55389,"lon":19.80278},"country":"RS","name":"Srbobran"},{"_id":3190855,"coord":{"lat":44.615559,"lon":19.63917},"country":"RS","name":"Sinosevic"},{"_id":3190958,"coord":{"lat":44.867222,"lon":19.65917},"country":"RS","name":"Sevarice"},{"_id":3191339,"coord":{"lat":44.94722,"lon":19.586109},"country":"RS","name":"Salas Nocajski"},{"_id":3191340,"coord":{"lat":44.826111,"lon":19.39222},"country":"RS","name":"Salas Crnobarski"},{"_id":3191425,"coord":{"lat":45.29306,"lon":19.743891},"country":"RS","name":"Rumenka"},{"_id":3191660,"coord":{"lat":45.986389,"lon":19.105},"country":"RS","name":"Ridica"},{"_id":3191699,"coord":{"lat":44.709999,"lon":19.423889},"country":"RS","name":"Ribari"},{"_id":3191802,"coord":{"lat":45.450279,"lon":19.619169},"country":"RS","name":"Ravno Selo"},{"_id":3191810,"coord":{"lat":44.943611,"lon":19.421671},"country":"RS","name":"Ravnje"},{"_id":3192138,"coord":{"lat":44.924438,"lon":19.49333},"country":"RS","name":"Radenkovic"},{"_id":3192328,"coord":{"lat":44.698891,"lon":19.388611},"country":"RS","name":"Prnjavor"},{"_id":3193230,"coord":{"lat":44.82111,"lon":19.79528},"country":"RS","name":"Platicevo"},{"_id":3193437,"coord":{"lat":44.665562,"lon":19.439171},"country":"RS","name":"Petkovica"},{"_id":3193540,"coord":{"lat":44.90889,"lon":19.966391},"country":"RS","name":"Pecinci"},{"_id":3193944,"coord":{"lat":44.373058,"lon":19.601391},"country":"RS","name":"Osecina"},{"_id":3194209,"coord":{"lat":45.506672,"lon":19.26111},"country":"RS","name":"Odzaci"},{"_id":3194334,"coord":{"lat":44.670559,"lon":19.34417},"country":"RS","name":"Novo Selo"},{"_id":3194407,"coord":{"lat":43.46056,"lon":19.81139},"country":"RS","name":"Nova Varos"},{"_id":3195220,"coord":{"lat":44.855282,"lon":19.54611},"country":"RS","name":"Metkovic"},{"_id":3195591,"coord":{"lat":44.37344,"lon":19.10651},"country":"RS","name":"Mali Zvornik"},{"_id":3195707,"coord":{"lat":45.708328,"lon":19.665279},"country":"RS","name":"Mali Igos"},{"_id":3195895,"coord":{"lat":44.769718,"lon":19.65444},"country":"RS","name":"Majur"},{"_id":3196331,"coord":{"lat":44.189442,"lon":19.376671},"country":"RS","name":"Ljubovija"},{"_id":3196511,"coord":{"lat":44.706669,"lon":19.50444},"country":"RS","name":"Lipolist"},{"_id":3196517,"coord":{"lat":44.58028,"lon":19.26667},"country":"RS","name":"Lipnicki Sor"},{"_id":3196638,"coord":{"lat":44.6525,"lon":19.309999},"country":"RS","name":"Lesnica"},{"_id":3196910,"coord":{"lat":45.736111,"lon":19.00972},"country":"RS","name":"Kupusina"},{"_id":3196959,"coord":{"lat":45.400829,"lon":19.586941},"country":"RS","name":"Kulpin"},{"_id":3197111,"coord":{"lat":44.365559,"lon":19.36194},"country":"RS","name":"Krupanj"},{"_id":3197266,"coord":{"lat":44.555279,"lon":19.60194},"country":"RS","name":"Krivaja"},{"_id":3197451,"coord":{"lat":44.58667,"lon":19.28417},"country":"RS","name":"Kozjak"},{"_id":3197622,"coord":{"lat":43.996109,"lon":19.90694},"country":"RS","name":"Kosjeric"},{"_id":3197862,"coord":{"lat":45.89278,"lon":18.92972},"country":"RS","name":"Kolut"},{"_id":3197946,"coord":{"lat":44.47361,"lon":19.81167},"country":"RS","name":"Koceljeva"},{"_id":3198080,"coord":{"lat":44.80722,"lon":19.434441},"country":"RS","name":"Klenje"},{"_id":3198082,"coord":{"lat":44.788059,"lon":19.71056},"country":"RS","name":"Klenak"},{"_id":3198140,"coord":{"lat":45.350281,"lon":19.728609},"country":"RS","name":"Kisac"},{"_id":3198410,"coord":{"lat":44.342499,"lon":19.7225},"country":"RS","name":"Kamenica"},{"_id":3198582,"coord":{"lat":44.586391,"lon":19.408331},"country":"RS","name":"Joseva"},{"_id":3198637,"coord":{"lat":44.720829,"lon":19.663891},"country":"RS","name":"Jevremovac"},{"_id":3198711,"coord":{"lat":44.721111,"lon":19.74667},"country":"RS","name":"Jelenca"},{"_id":3198859,"coord":{"lat":44.538891,"lon":19.42417},"country":"RS","name":"Jarebice"},{"_id":3198868,"coord":{"lat":44.916672,"lon":19.757219},"country":"RS","name":"Jarak"},{"_id":3198963,"coord":{"lat":44.599171,"lon":19.353609},"country":"RS","name":"Jadranska Lesnica"},{"_id":3200272,"coord":{"lat":44.35194,"lon":19.78083},"country":"RS","name":"Gornja Bukovica"},{"_id":3200547,"coord":{"lat":44.89056,"lon":19.54833},"country":"RS","name":"Glusci"},{"_id":3201108,"coord":{"lat":44.80056,"lon":19.50806},"country":"RS","name":"Dublje"},{"_id":3201216,"coord":{"lat":44.8675,"lon":19.70944},"country":"RS","name":"Drenovac"},{"_id":3201307,"coord":{"lat":44.533611,"lon":19.759439},"country":"RS","name":"Draginje"},{"_id":3201353,"coord":{"lat":45.608608,"lon":19.190559},"country":"RS","name":"Doroslovo"},{"_id":3201487,"coord":{"lat":44.610828,"lon":19.330561},"country":"RS","name":"Donji Dobric"},{"_id":3201946,"coord":{"lat":44.701939,"lon":19.58139},"country":"RS","name":"Dobric"},{"_id":3202477,"coord":{"lat":44.873611,"lon":19.39472},"country":"RS","name":"Crna Bara"},{"_id":3202545,"coord":{"lat":44.653061,"lon":19.390829},"country":"RS","name":"Cokesina"},{"_id":3202900,"coord":{"lat":43.749771,"lon":19.71273},"country":"RS","name":"Cajetina"},{"_id":3203083,"coord":{"lat":44.5,"lon":19.591391},"country":"RS","name":"Bukor"},{"_id":3203139,"coord":{"lat":44.892502,"lon":19.862221},"country":"RS","name":"Budanovci"},{"_id":3203497,"coord":{"lat":44.553329,"lon":19.770559},"country":"RS","name":"Brdarica"},{"_id":3203817,"coord":{"lat":44.718891,"lon":19.59528},"country":"RS","name":"Bogosavac"},{"_id":3203822,"coord":{"lat":45.53056,"lon":19.13278},"country":"RS","name":"Bogojevo"},{"_id":3203840,"coord":{"lat":44.837502,"lon":19.48056},"country":"RS","name":"Bogatic"},{"_id":3204289,"coord":{"lat":45.20829,"lon":19.720631},"country":"RS","name":"Beocin"},{"_id":3204307,"coord":{"lat":44.817501,"lon":19.547779},"country":"RS","name":"Belotic"},{"_id":3204517,"coord":{"lat":44.911388,"lon":19.446939},"country":"RS","name":"Banovo Polje"},{"_id":3204670,"coord":{"lat":45.921391,"lon":18.92889},"country":"RS","name":"Backi Breg"},{"_id":3217047,"coord":{"lat":44.722221,"lon":19.70722},"country":"RS","name":"Pocerski Pricinovic"},{"_id":3300709,"coord":{"lat":43.824718,"lon":19.41139},"country":"RS","name":"Durici"},{"_id":3318618,"coord":{"lat":43.13694,"lon":19.805559},"country":"RS","name":"Sokolovo Brdo"},{"_id":3318643,"coord":{"lat":43.145279,"lon":19.858891},"country":"RS","name":"Os