{"countryCityList":[{"_id":6413337,"coord":{"lat":-1.75,"lon":30.5},"country":"RW","name":"Eastern Province"},{"_id":202068,"coord":{"lat":-2.1597,"lon":30.5427},"country":"RW","name":"Kibungo"},{"_id":6413339,"coord":{"lat":-1.58333,"lon":29.91667},"country":"RW","name":"Province du Nord"},{"_id":7592960,"coord":{"lat":-1.5734,"lon":30.0634},"country":"RW","name":"Byumba Ville"},{"_id":6413340,"coord":{"lat":-2.16667,"lon":29.33333},"country":"RW","name":"Western Province"},{"_id":202905,"coord":{"lat":-1.70278,"lon":29.25639},"country":"RW","name":"Gisenyi"},{"_id":383968,"coord":{"lat":-2.5805,"lon":29.716},"country":"RW","name":"Huye"},{"_id":7572238,"coord":{"lat":-1.4856,"lon":29.6185},"country":"RW","name":"Gahondogo"},{"_id":6413338,"coord":{"lat":-1.91667,"lon":30.08333},"country":"RW","name":"Ville de Kigali"},{"_id":202061,"coord":{"lat":-1.94995,"lon":30.058849},"country":"RW","name":"Kigali"},{"_id":6413341,"coord":{"lat":-2.33333,"lon":29.66667},"country":"RW","name":"Province du Sud"},{"_id":203112,"coord":{"lat":-2.59667,"lon":29.739441},"country":"RW","name":"Butare"},{"_id":202217,"coord":{"lat":-2.07444,"lon":29.75667},"country":"RW","name":"Gitarama"},{"_id":201865,"coord":{"lat":-2.479,"lon":29.5564},"country":"RW","name":"Nzega"},{"_id":49518,"coord":{"lat":-2,"lon":30},"country":"RW","name":"Republic of Rwanda"},{"_id":7595653,"coord":{"lat":-1.9643,"lon":30.1106},"country":"RW","name":"Nyakabanda"},{"_id":7605614,"coord":{"lat":-1.66557,"lon":29.247181},"country":"RW","name":"Muhato"},{"_id":7032728,"coord":{"lat":-2.4661,"lon":28.907301},"country":"RW","name":"Kannyogo"},{"_id":7319869,"coord":{"lat":-1.49998,"lon":29.633301},"country":"RW","name":"Musanze"},{"_id":7595671,"coord":{"lat":-1.9751,"lon":30.1373},"country":"RW","name":"Samuduha"},{"_id":7605645,"coord":{"lat":-1.6824,"lon":29.2593},"country":"RW","name":"Bonde"},{"_id":201463,"coord":{"lat":-1.9487,"lon":30.4347},"country":"RW","name":"Rwamagana"},{"_id":201521,"coord":{"lat":-1.49984,"lon":29.63497},"country":"RW","name":"M