{"countryCityList":[{"_id":370366,"coord":{"lat":10.98333,"lon":29.466669},"country":"SD","name":"Massa"},{"_id":365618,"coord":{"lat":12.01667,"lon":24.6},"country":"SD","name":"Tumko"},{"_id":378493,"coord":{"lat":12.71667,"lon":30.65},"country":"SD","name":"Ar Rahad"},{"_id":408658,"coord":{"lat":13,"lon":23},"country":"SD","name":"Western Darfur State"},{"_id":7754689,"coord":{"lat":12.53233,"lon":23.29376},"country":"SD","name":"Godosgo"},{"_id":368277,"coord":{"lat":13.18087,"lon":32.73999},"country":"SD","name":"Rabak"},{"_id":408648,"coord":{"lat":14.6,"lon":33.349998},"country":"SD","name":"Al Jazirah State"},{"_id":364706,"coord":{"lat":12.9061,"lon":31.215799},"country":"SD","name":"Umm Ruwaba"},{"_id":367308,"coord":{"lat":16.6915,"lon":33.434101},"country":"SD","name":"Shendi"},{"_id":367544,"coord":{"lat":19.1059,"lon":37.3321},"country":"SD","name":"Sawakin"},{"_id":372386,"coord":{"lat":14.0361,"lon":33.1712},"country":"SD","name":"Kinana"},{"_id":376332,"coord":{"lat":13.51667,"lon":35.76667},"country":"SD","name":"Doka"},{"_id":376450,"coord":{"lat":12.05,"lon":29.65},"country":"SD","name":"Dilling"},{"_id":377690,"coord":{"lat":18.02158,"lon":33.98299},"country":"SD","name":"Berber"},{"_id":377724,"coord":{"lat":13.7,"lon":30.366671},"country":"SD","name":"Barah"},{"_id":378271,"coord":{"lat":13.31667,"lon":33.883331},"country":"SD","name":"As Suki"},{"_id":378459,"coord":{"lat":11.8659,"lon":34.386902},"country":"SD","name":"Ar Ruseris"},{"_id":378699,"coord":{"lat":12.7,"lon":28.433331},"country":"SD","name":"An Nuhud"},{"_id":379102,"coord":{"lat":11.03333,"lon":27.73333},"country":"SD","name":"Al Mijlad"},{"_id":379149,"coord":{"lat":14.2459,"lon":32.989101},"country":"SD","name":"Al Manaqil"},{"_id":379416,"coord":{"lat":13.41667,"lon":34.633331},"country":"SD","name":"Al Hawatah"},{"_id":379427,"coord":{"lat":14.75264,"lon":33.298359},"country":"SD","name":"Al Hasaheisa"},{"_id":379630,"coord":{"lat":18.261959,"lon":33.908119},"country":"SD","name":"El Bauga"},{"_id":380129,"coord":{"lat":14.0012,"lon":32.3116},"country":"SD","name":"Ad Diwem"},{"_id":380151,"coord":{"lat":13.2,"lon":34.166672},"country":"SD","name":"Ad Dindar"},{"_id":380173,"coord":{"lat":17.592779,"lon":33.959171},"country":"SD","name":"Ed Damer"},{"_id":408661,"coord":{"lat":11,"lon":30},"country":"SD","name":"Southern Kordofan State"},{"_id":408654,"coord":{"lat":11.15,"lon":34.099998},"country":"SD","name":"Blue Nile State"},{"_id":7033552,"coord":{"lat":11.5747,"lon":34.1847},"country":"SD","name":"Baqīs"},{"_id":408660,"coord":{"lat":11.15,"lon":25.25},"country":"SD","name":"Southern Darfur State"},{"_id":408669,"coord":{"lat":13,"lon":34},"country":"SD","name":"Sinnar State"},{"_id":373463,"coord":{"lat":13.5,"lon":33.333328},"country":"SD","name":"Jabal Mayyah"},{"_id":379234,"coord":{"lat":16.23333,"lon":32.604172},"country":"SD","name":"Al Kodab"},{"_id":363533,"coord":{"lat":12.9096,"lon":23.47406},"country":"SD","name":"Zalingei"},{"_id":366323,"coord":{"lat":18.4254,"lon":37.729},"country":"SD","name":"Tokar"},{"_id":366426,"coord":{"lat":13.01667,"lon":31.866671},"country":"SD","name":"Tandalti"},{"_id":366847,"coord":{"lat":13.15,"lon":33.933331},"country":"SD","name":"Sinja"},{"_id":370838,"coord":{"lat":13.41667,"lon":33.666672},"country":"SD","name":"Maiurno"},{"_id":371870,"coord":{"lat":18.549999,"lon":31.85},"country":"SD","name":"Kuraymah"},{"_id":379303,"coord":{"lat":13.45,"lon":22.450001},"country":"SD","name":"El Geneina"},{"_id":379406,"coord":{"lat":14.9398,"lon":33.234001},"country":"SD","name":"Al Hilaliyya"},{"_id":366755,"coord":{"lat":16,"lon":30},"country":"SD","name":"Republic of the Sudan"},{"_id":408664,"coord":{"lat":19,"lon":33.200001},"country":"SD","name":"River Nile State"},{"_id":443868,"coord":{"lat":16.518,"lon":33.1394},"country":"SD","name":"El Ghadoora"},{"_id":408646,"coord":{"lat":20,"lon":36},"country":"SD","name":"Red Sea State"},{"_id":443909,"coord":{"lat":19.389441,"lon":37.110828},"country":"SD","name":"Salūm"},{"_id":379302,"coord":{"lat":13.48333,"lon":22.466669},"country":"SD","name":"Al Junaynah Fort"},{"_id":379253,"coord":{"lat":15.8,"lon":33},"country":"SD","name":"Khartoum State"},{"_id":367935,"coord":{"lat":15.56667,"lon":32.51667},"country":"SD","name":"Rumaylah"},{"_id":365286,"coord":{"lat":12.4057,"lon":34.321098},"country":"SD","name":"Um Bārid"},{"_id":377039,"coord":{"lat":19.617451,"lon":37.216438},"country":"SD","name":"Port Sudan"},{"_id":380308,"coord":{"lat":9.59525,"lon":28.434931},"country":"SD","name":"Abyei"},{"_id":371101,"coord":{"lat":10.55,"lon":34.283329},"country":"SD","name":"Ludu"},{"_id":379251,"coord":{"lat":15.62889,"lon":32.625832},"country":"SD","name":"Khartoum North"},{"_id":408663,"coord":{"lat":15.9,"lon":35.650002},"country":"SD","name":"Kassala State"},{"_id":372753,"coord":{"lat":15.45099,"lon":36.399979},"country":"SD","name":"Kassala"},{"_id":378389,"coord":{"lat":19.299999,"lon":29.5},"country":"SD","name":"Northern State"},{"_id":364132,"coord":{"lat":21.799999,"lon":31.35},"country":"SD","name":"Wādī Ḩalfā’"},{"_id":6992531,"coord":{"lat":15.5894,"lon":32.5634},"country":"SD","name":"Nasir"},{"_id":6969341,"coord":{"lat":19.452101,"lon":37.123798},"country":"SD","name":"Siyāmtīt Tisimīt"},{"_id":408667,"coord":{"lat":14.5,"lon":29.5},"country":"SD","name":"Northern Kordofan State"},{"_id":379003,"coord":{"lat":13.18421,"lon":30.21669},"country":"SD","name":"El Obeid"},{"_id":408653,"coord":{"lat":13.5,"lon":32.400002},"country":"SD","name":"White Nile State"},{"_id":7024903,"coord":{"lat":15.4071,"lon":36.364799},"country":"SD","name":"Tagūg"},{"_id":408649,"coord":{"lat":14.05,"lon":35.349998},"country":"SD","name":"Al Qadarif State"},{"_id":378020,"coord":{"lat":14.13333,"lon":35.299999},"country":"SD","name":"‘Azāzah"},{"_id":408666,"coord":{"lat":16,"lon":25.5},"country":"SD","name":"Northern Darfur State"},{"_id":379555,"coord":{"lat":13.62793,"lon":25.34936},"country":"SD","name":"El Fasher"},{"_id":375831,"coord":{"lat":19.16667,"lon":30.450001},"country":"SD","name":"El ‘Urdi"},{"_id":378361,"coord":{"lat":17.676109,"lon":34.01083},"country":"SD","name":"Ash Shiqlah"},{"_id":364103,"coord":{"lat":14.40118,"lon":33.51989},"country":"SD","name":"Wad Medani"},{"_id":365137,"coord":{"lat":15.64453,"lon":32.47773},"country":"SD","name":"Omdurman"},{"_id":367644,"coord":{"lat":13.56907,"lon":33.567181},"country":"SD","name":"Sinnar"},{"_id":371760,"coord":{"lat":13.1629,"lon":32.663471},"country":"SD","name":"Kosti"},{"_id":373141,"coord":{"lat":11.01667,"lon":29.716669},"country":"SD","name":"Kadugli"},{"_id":378231,"coord":{"lat":17.702169,"lon":33.986382},"country":"SD","name":"Atbara"},{"_id":379014,"coord":{"lat":14.8648,"lon":32.366798},"country":"SD","name":"Al Qitena"},{"_id":379252,"coord":{"lat":15.55177,"lon":32.53241},"country":"SD","name":"Khartoum"},{"_id":380174,"coord":{"lat":11.7891,"lon":34.3592},"country":"SD","name":"Ad-Damazin"},{"_id":380348,"coord":{"lat":12.35,"lon":29.25},"country":"SD","name":"Abu Zabad"},{"_id":380757,"coord":{"lat":11.4562,"lon":31.2285},"country":"SD","name":"Abu Jibeha"},{"_id":363417,"coord":{"lat":19.16667,"lon":30.48333},"country":"SD","name":"Dongola"},{"_id":364027,"coord":{"lat":16.1525,"lon":36.203201},"country":"SD","name":"Wagar"},{"_id":364071,"coord":{"lat":15.16028,"lon":33.139721},"country":"SD","name":"Wad Rawah"},{"_id":364216,"coord":{"lat":14.4619,"lon":32.206501},"country":"SD","name":"Wad az Zaki"},{"_id":364933,"coord":{"lat":13.60169,"lon":26.68759},"country":"SD","name":"Umm Kaddadah"},{"_id":364949,"coord":{"lat":13.8013,"lon":32.407799},"country":"SD","name":"Um Jar Al Gharbiyya"},{"_id":366487,"coord":{"lat":10.63246,"lon":30.3797},"country":"SD","name":"Talodi"},{"_id":369004,"coord":{"lat":12.05,"lon":24.883329},"country":"SD","name":"Nyala"},{"_id":370481,"coord":{"lat":18.48333,"lon":31.816669},"country":"SD","name":"Marawi"},{"_id":370510,"coord":{"lat":12.35,"lon":32.183331},"country":"SD","name":"Marabba"},{"_id":371745,"coord":{"lat":14.2,"lon":24.66667},"country":"SD","name":"Kutum"},{"_id":371827,"coord":{"lat":10.55,"lon":34.283329},"country":"SD","name":"Kurmuk"},{"_id":372801,"coord":{"lat":19.633329,"lon":30.41667},"country":"SD","name":"Karmah an Nuzul"},{"_id":375046,"coord":{"lat":21.066669,"lon":36.316669},"country":"SD","name":"Gebeit"},{"_id":375192,"coord":{"lat":12.4486,"lon":34.218601},"country":"SD","name":"Jalqani"},{"_id":378502,"coord":{"lat":15.81667,"lon":36.133331},"country":"SD","name":"Aroma"},{"_id":378543,"coord":{"lat":19.51667,"lon":30.41667},"country":"SD","name":"Argo"},{"_id":379062,"coord":{"lat":14.03493,"lon":35.383438},"country":"SD","name":"Al Qadarif"},{"_id":379080,"coord":{"lat":14.5748,"lon":33.337299},"country":"SD","name":"Al Masallamiyya"},{"_id":379127,"coord":{"lat":16.709499,"lon":33.356499},"country":"SD","name":"El Matama"},{"_id":379198,"coord":{"lat":11.4,"lon":29.133329},"country":"SD","name":"Al Lagowa"},{"_id":379261,"coord":{"lat":14.3476,"lon":32.943699},"country":"SD","name":"Al Kiremit al Arakiyyin"},{"_id":379272,"coord":{"lat":13.7463,"lon":32.499599},"country":"SD","name":"Al Kawa"},{"_id":379535,"coord