{"countryCityList":[{"_id":378867,"coord":{"lat":4.19417,"lon":32.355831},"country":"SS","name":"Amiling"},{"_id":408647,"coord":{"lat":6.75,"lon":30},"country":"SS","name":"Lakes State"},{"_id":381969,"coord":{"lat":6.09302,"lon":31.335621},"country":"SS","name":"Dolinom"},{"_id":408657,"coord":{"lat":8.15,"lon":26},"country":"SS","name":"Western Bahr el Ghazal State"},{"_id":373413,"coord":{"lat":8.48527,"lon":25.32703},"country":"SS","name":"Jellab"},{"_id":381229,"coord":{"lat":10,"lon":32.700001},"country":"SS","name":"Upper Nile State"},{"_id":371450,"coord":{"lat":8.36667,"lon":33},"country":"SS","name":"Liamyok"},{"_id":408665,"coord":{"lat":8.85,"lon":27},"country":"SS","name":"Northern Bahr el Ghazal State"},{"_id":7430962,"coord":{"lat":8.46219,"lon":27.1033},"country":"SS","name":"Bahr en Nil"},{"_id":363885,"coord":{"lat":7.70286,"lon":27.9953},"country":"SS","name":"Wau"},{"_id":365742,"coord":{"lat":4.41333,"lon":32.56778},"country":"SS","name":"Torit"},{"_id":367927,"coord":{"lat":6.802,"lon":29.691231},"country":"SS","name":"Rumbek"},{"_id":374739,"coord":{"lat":8.53324,"lon":28.10037},"country":"SS","name":"Gogrial"},{"_id":7909807,"coord":{"lat":4.84023,"lon":31.59428},"country":"SS","name":"South Sudan"},{"_id":408668,"coord":{"lat":4.9,"lon":33.799999},"country":"SS","name":"Eastern Equatoria State"},{"_id":408656,"coord":{"lat":5.4,"lon":28.4},"country":"SS","name":"Western Equatoria State"},{"_id":382250,"coord":{"lat":4.53611,"lon":29.25778},"country":"SS","name":"Sabun"},{"_id":370247,"coord":{"lat":6.45983,"lon":29.399679},"country":"SS","name":"Medingbor"},{"_id":408662,"coord":{"lat":7.4,"lon":32.400002},"country":"SS","name":"Jonglei State"},{"_id":369195,"coord":{"lat":6.58333,"lon":32.950001},"country":"SS","name":"Nialeir"},{"_id":377252,"coord":{"lat":7.44561,"lon":33.230179},"country":"SS","name":"Bongak"},{"_id":369526,"coord":{"lat":11.2928,"lon":32.619598},"country":"SS","name":"Debbat Nabaqaya"},{"_id":363619,"coord":{"lat":4.09504,"lon":30.677919},"country":"SS","name":"Yei"},{"_id":364367,"coord":{"lat":8.76816,"lon":27.40019},"country":"SS","name":"Aweil"},{"_id":408670,"coord":{"lat":8,"lon":28.85},"country":"SS","name":"Warrap State"},{"_id":365763,"coord":{"lat":7.27369,"lon":28.68223},"country":"SS","name":"Tonj"},{"_id":375495,"coord":{"lat":3.86512,"lon":32.482121},"country":"SS","name":"Pajok"},{"_id":377241,"coord":{"lat":6.20593,"lon":31.55633},"country":"SS","name":"Bor"},{"_id":370737,"coord":{"lat":9.53342,"lon":31.66048},"country":"SS","name":"Malakal"},{"_id":408655,"coord":{"lat":4.75,"lon":31},"country":"SS","name":"Central Equatoria State"},{"_id":373303,"coord":{"lat":4.85165,"lon":31.58247},"country":"SS","name":"Juba"},{"_id":408650,"coord":{"lat":8.65,"lon":29.85},"country":"SS","name":"Unity State"},{"_id":377472,"coord":{"lat":9.23333,"lon":29.83333},"country":"SS","name":"Bentiu"},{"_id":363656,"coord":{"lat":4.57213,"lon":28.395491},"country":"SS","name":"Yambio"},{"_id":378031,"coord":{"lat":9.57326,"lon":31.66346},"country":"SS","name":"Ayowangen"},{