{"countryCode":"ST","countryName":"São Tomé and Príncipe","countryFilePath":"ST.json","countryCityList":[{"_id":2410758,"name":"Sao Tome and Principe","country":"ST","coord":{"lon":7.0,"lat":1.0}},{"_id":2410764,"name":"São Tomé","country":"ST","coord":{"lon":6.65,"lat":0.2}},{"_id":2410763,"name":"Sao Tome","country":"ST","coord":{"lon":6.72732,"lat":0.33654}},{"_id":2410737,"name":"Trindade","country":"ST","coord":{"lon":6.68333,"lat":0.3}},{"_id":2410975,"name":"Nazaré","country":"ST","coord":{"lon":6.71667,"lat":0.36667}},{"_id":2410878,"name":"Príncipe","country":"ST","coord":{"lon":7.41667,"lat":1.61667}},{"_id":2411001,"name":"Montalvão","country":"ST","coord":{"lon":7.41667,"lat":1.66667}},{"_id":2410805,"name":"Santo Antonio","country":"ST","coord":{"lon":7.41783,"lat":1.63726}}]}
