{"countryCode":"SZ","countryName":"Swaziland","countryFilePath":"SZ.json","countryCityList":[{"_id":934967,"name":"Mhlosheni","country":"SZ","coord":{"lon":31.383329,"lat":-27.183331}},{"_id":935017,"name":"Mahamba","country":"SZ","coord":{"lon":31.08333,"lat":-27.1}},{"_id":934841,"name":"Kingdom of Swaziland","country":"SZ","coord":{"lon":31.5,"lat":-26.5}},{"_id":934959,"name":"Mliba","country":"SZ","coord":{"lon":31.58333,"lat":-26.25}},{"_id":934994,"name":"Manzini District","country":"SZ","coord":{"lon":31.5,"lat":-26.25}},{"_id":935085,"name":"Hhohho District","country":"SZ","coord":{"lon":31.5,"lat":-26.0}},{"_id":934985,"name":"Mbabane","country":"SZ","coord":{"lon":31.133329,"lat":-26.316669}},{"_id":934913,"name":"Nhlangano","country":"SZ","coord":{"lon":31.200001,"lat":-27.116671}},{"_id":934966,"name":"Mhlume","country":"SZ","coord":{"lon":31.85,"lat":-26.033331}},{"_id":935048,"name":"Lobamba","country":"SZ","coord":{"lon":31.200001,"lat":-26.466669}},{"_id":935113,"name":"Big Bend","country":"SZ","coord":{"lon":31.933331,"lat":-26.816669}},{"_id":935042,"name":"Lubombo District","country":"SZ","coord":{"lon":31.75,"lat":-26.41667}},{"_id":934851,"name":"Siteki","country":"SZ","coord":{"lon":31.950001,"lat":-26.450001}},{"_id":934989,"name":"Matsapha","country":"SZ","coord":{"lon":31.316669,"lat":-26.51667}},{"_id":934995,"name":"Manzini","country":"SZ","coord":{"lon":31.366671,"lat":-26.48333}},{"_id":934840,"name":"Tshaneni","country":"SZ","coord":{"lon":31.716669,"lat":-25.98333}},{"_id":934862,"name":"Sidvokodvo","country":"SZ","coord":{"lon":31.42021,"lat":-26.628201}},{"_id":934881,"name":"Piggs Peak","country":"SZ","coord":{"lon":31.25,"lat":-25.966669}},{"_id":934900,"name":"Nsoko","country":"SZ","coord":{"lon":31.950001,"lat":-27.033331}},{"_id":934971,"name":"Mhlambanyatsi","country":"SZ","coord":{"lon":31.01667,"lat":-26.450001}},{"_id":935005,"name":"Malkerns","country":"SZ","coord":{"lon":31.183331,"lat":-26.566669}},{"_id":935051,"name":"Lavumisa","country":"SZ","coord":{"lon":31.891979,"lat":-27.310049}},{"_id":935054,"name":"Kwaluseni","country":"SZ","coord":{"lon":31.33333,"lat":-26.48333}},{"_id":935055,"name":"Kubuta","country":"SZ","coord":{"lon":31.48333,"lat":-26.883329}},{"_id":935076,"name":"Hluti","country":"SZ","coord":{"lon":31.616671,"lat":-27.216669}},{"_id":935081,"name":"Hlatikulu","country":"SZ","coord":{"lon":31.316669,"lat":-26.966669}},{"_id":935106,"name":"Darkton","country":"SZ","coord":{"lon":31.033331,"lat":-26.23333}},{"_id":935111,"name":"Bulembu","country":"SZ","coord":{"lon":31.133329,"lat":-25.966669}},{"_id":935114,"name":"Bhunya","country":"SZ","coord":{"lon":31.01667,"lat":-26.549999}}]}
