{"countryCityList":[{"_id":934967,"coord":{"lat":-27.183331,"lon":31.383329},"country":"SZ","name":"Mhlosheni"},{"_id":935017,"coord":{"lat":-27.1,"lon":31.08333},"country":"SZ","name":"Mahamba"},{"_id":934841,"coord":{"lat":-26.5,"lon":31.5},"country":"SZ","name":"Kingdom of Swaziland"},{"_id":934959,"coord":{"lat":-26.25,"lon":31.58333},"country":"SZ","name":"Mliba"},{"_id":934994,"coord":{"lat":-26.25,"lon":31.5},"country":"SZ","name":"Manzini District"},{"_id":935085,"coord":{"lat":-26,"lon":31.5},"country":"SZ","name":"Hhohho District"},{"_id":934985,"coord":{"lat":-26.316669,"lon":31.133329},"country":"SZ","name":"Mbabane"},{"_id":934913,"coord":{"lat":-27.116671,"lon":31.200001},"country":"SZ","name":"Nhlangano"},{"_id":934966,"coord":{"lat":-26.033331,"lon":31.85},"country":"SZ","name":"Mhlume"},{"_id":935048,"coord":{"lat":-26.466669,"lon":31.200001},"country":"SZ","name":"Lobamba"},{"_id":935113,"coord":{"lat":-26.816669,"lon":31.933331},"country":"SZ","name":"Big Bend"},{"_id":935042,"coord":{"lat":-26.41667,"lon":31.75},"country":"SZ","name":"Lubombo District"},{"_id":934851,"coord":{"lat":-26.450001,"lon":31.950001},"country":"SZ","name":"Siteki"},{"_id":934989,"coord":{"lat":-26.51667,"lon":31.316669},"country":"SZ","name":"Matsapha"},{"_id":934995,"coord":{"lat":-26.48333,"lon":31.366671},"country":"SZ","name":"Manzini"},{"_id":934840,"coord":{"lat":-25.98333,"lon":31.716669},"country":"SZ","name":"Tshaneni"},{"_id":934862,"coord":{"lat":-26.628201,"lon":31.42021},"country":"SZ","name":"Sidvokodvo"},{"_id":934881,"coord":{"lat":-25.966669,"lon":31.25},"country":"SZ","name":"Piggs Peak"},{"_id":934900,"coord":{"lat":-27.033331,"lon":31.950001},"country":"SZ","name":"Nsoko"},{"_id":934971,"coord":{"lat":-26.450001,"lon":31.01667},"country":"SZ","name":"Mhlambanyatsi"},{"_id":935005,"coord":{"lat":-26.566669,"lon":31.183331},"country":"SZ","name":"Malkerns"},{"_id":935051,"coord":{"lat":-27.310049,"lon":31.891979},"country":"SZ","name":"Lavumisa"},{"_id":935054,"coord":{"lat":-26.48333,"lon":31.33333}