{"countryCityList":[{"_id":1514879,"coord":{"lat":40.285271,"lon":69.627922},"country":"TJ","name":"Khujand"},{"_id":1475271,"coord":{"lat":37.348869,"lon":68.680717},"country":"TJ","name":"Krasnoostrovskiy"},{"_id":1333693,"coord":{"lat":38.4846,"lon":68.594521},"country":"TJ","name":"Hisor"},{"_id":1514896,"coord":{"lat":40.12648,"lon":70.625259},"country":"TJ","name":"Isfara"},{"_id":1220253,"coord":{"lat":39.9142,"lon":69.003281},"country":"TJ","name":"Istaravshan"},{"_id":1220798,"coord":{"lat":39.495239,"lon":67.609306},"country":"TJ","name":"Panjakent"},{"_id":1220905,"coord":{"lat":38.389172,"lon":69.322723},"country":"TJ","name":"Norak"},{"_id":1221194,"coord":{"lat":37.914532,"lon":69.783028},"country":"TJ","name":"Kulob"},{"_id":1220747,"coord":{"lat":37.833988,"lon":68.78186},"country":"TJ","name":"Qurghonteppa"},{"_id":1514839,"coord":{"lat":40.167042,"lon":69.503983},"country":"TJ","name":"Proletar"},{"_id":1222139,"coord":{"lat":38.533329,"lon":68.783333},"country":"TJ","name":"Besh-Tepa"},{"_id":1334094,"coord":{"lat":38.549011,"lon":68.783981},"country":"TJ","name":"Yuzhnyy"},{"_id":1347488,"coord":{"lat":37.833328,"lon":69},"country":"TJ","name":"Viloyati Khatlon"},{"_id":1220112,"coord":{"lat":38.314079,"lon":69.037842},"country":"TJ","name":"Yovon"},{"_id":1282601,"coord":{"lat":38.512711,"lon":68.231628},"country":"TJ","name":"Tursunzade"},{"_id":1221092,"coord":{"lat":40,"lon":69},"country":"TJ","name":"Viloyati Sughd"},{"_id":1514891,"coord":{"lat":40.28434,"lon":70.442574},"country":"TJ","name":"Konibodom"},{"_id":1220163,"coord":{"lat":37.803959,"lon":69.644157},"country":"TJ","name":"Vose"},{"_id":1220219,"coord":{"lat":37.714851,"lon":68.834557},"country":"TJ","name":"Vakhsh"},{"_id":1221259,"coord":{"lat":37.58823,"lon":68.658859},"country":"TJ","name":"Kolkhozobod"},{"_id":1221614,"coord":{"lat":36.724838,"lon":71.613312},"country":"TJ","name":"Ishqoshim"},{"_id":7280679,"coord":{"lat":38.557701,"lon":68.779739},"country":"TJ","name":"Dushanbe"},{"_id":1221965,"coord":{"lat":38.095779,"lon":69.339981},"country":"TJ","name":"Danghara"},{"_id":1221997,"coord":{"lat":37.613659,"lon":69.706108},"country":"TJ","name":"Chubek"},{"_id":1222107,"coord":{"lat":38.466129,"lon":68.805328},"country":"TJ","name":"Boshkengash"},{"_id":1220409,"coord":{"lat":39,"lon":71},"country":"TJ","name":"Republic of Tajikistan"},{"_id":1221692,"coord":{"lat":38,"lon":73},"country":"TJ","name":"Viloyati Mukhtori KÅ­histoni Badakhshon"},{"_id":1221328,"coord":{"lat":37.489738,"lon":71.55304},"country":"TJ","name":"Khorugh"},{"_id":1514900,"coord":{"lat":40.21571,"lon":69.728668},"country":"TJ","name":"Ghafurov"},{"_id":1538311,"coord":{"lat":40.234169,"lon":69.694809},"country":"TJ","name":"Chkalov"},{"_id":1222299,"coord":{"lat":38.538101,"lon":68.835991},"country":"TJ","name":"Khalkadzhar"},{"_id":1221417,"coord":{"lat":38.470821,"lon":70.889313},"country":"TJ","name":"Kevrun"},{"_id":1220301,"coord":{"lat":38.51437,"lon":68.233269},"country":"TJ","name":"Tursunzoda"},{"_id":1220826,"coord":{"lat":37.492191,"lon":69.403557},"country":"TJ","name":"Farkhor"},{"_id":1220855,"coord":{"lat":38.55632,"lon":69.013542},"country":"TJ","name":"Vahdat"},{"_id":1221714,"coord":{"lat":38.52504,"lon":68.551239},"country":"TJ","name":"Hisor"},{"_id":1221874,"coord":{"lat":38.535751,"lon":68.779053},"country":"TJ","name":"Dushanbe"},{"_id":1220164,"coord":{"lat":39.849411,"lon":70.583817},"country":"TJ","name":"Vorukh"},{"_id":1220197,"coord":{"lat":38.773689,"lon":68.817757},"country":"TJ","name":"Varzob"},{"_id":1220210,"coord":{"lat":38.370781,"lon":71.454742},"country":"TJ","name":"Vanj"},{"_id":1220380,"coord":{"lat":37.582249,"lon":68.132896},"country":"TJ","name":"Tartiki"},{"_id":1220401,"coord":{"lat":38.838268,"lon":68.898468},"country":"TJ","name":"Tagob"},{"_id":1220446,"coord":{"lat":38.0467,"lon":69.588219},"country":"TJ","name":"Sovet"},{"_id":1220479,"coord":{"lat":37.840919,"lon":70.048019},"country":"TJ","name":"Shurobod"},{"_id":1220566,"coord":{"lat":38.57085,"lon":68.334976},"country":"TJ","name":"Shahrinav"},{"_id":1220571,"coord":{"lat":39.774471,"lon":68.809288},"country":"TJ","name":"Shahriston"},{"_id":1220576,"coord":{"lat":37.263691,"lon":68.138481},"country":"TJ","name":"Shahritus"},{"_id":1220685,"coord":{"lat":37.94487,"lon":71.557442},"country":"TJ","name":"Rushon"},{"_id":1220694,"coord":{"lat":37.25827,"lon":71.825912},"country":"TJ","name":"Roshtqala"},{"_id":1220701,"coord":{"lat":38.78257,"lon":69.870811},"country":"TJ","name":"Roghun"},{"_id":1220750,"coord":{"lat":37.23634,"lon":69.099113},"country":"TJ","name":"Panj"},{"_id":1220853,"coord":{"lat":37.55933,"lon":68.81842},"country":"TJ","name":"Orzu"},{"_id":1220862,"coord":{"lat":37.76627,"lon":68.801262},"country":"TJ","name":"Ismoili Somoni"},{"_id":1220883,"coord":{"lat":38.160332,"lon":68.666054},"country":"TJ","name":"Obikiik"},{"_id":1220888,"coord":{"lat":38.717312,"lon":69.708847},"country":"TJ","name":"Obigarm"},{"_id":1220936,"coord":{"lat":39.010841,"lon":70.150818},"country":"TJ","name":"Novobod"},{"_id":1220962,"coord":{"lat":38.170231,"lon":73.966743},"country":"TJ","name":"Murghob"},{"_id":1220988,"coord":{"lat":37.661968,"lon":69.627747},"country":"TJ","name":"Moskva"},{"_id":1221091,"coord":{"lat":38.108471,"lon":70.028458},"country":"TJ","name":"Muminobod"},{"_id":1221136,"coord":{"lat":37.946362,"lon":68.808777},"country":"TJ","name":"Kuybishev"},{"_id":1221250,"coord":{"lat":38.86776,"lon":69.966423},"country":"TJ","name":"Darband"},{"_id":1221297,"coord":{"lat":37.817741,"lon":68.859222},"country":"TJ","name":"Kirovskiy"},{"_id":1221344,"coord":{"lat":38.744572,"lon":68.627022},"country":"TJ","name":"Khodzha-Maston"},{"_id":1221494,"coord":{"lat":39.235851,"lon":71.524117},"country":"TJ","name":"Karakenja"},{"_id":1221549,"coord":{"lat":37.871361,"lon":68.922333},"country":"TJ","name":"Sarband"},{"_id":1221559,"coord":{"lat":38.453732,"lon":70.789017},"country":"TJ","name":"Qalaikhumb"},{"_id":1221583,"coord":{"lat":37.411442,"lon":68.186333},"country":"TJ","name":"Qubodiyon"},{"_id":1221740,"coord":{"lat":39.028721,"lon":70.374458},"country":"TJ","name":"Rasht"},{"_id":1221748,"coord":{"lat":37.567242,"lon":68.446922},"country":"TJ","name":"Garavuti"},{"_id":1221808,"coord":{"lat":37.491669,"lon":68.531059},"country":"TJ","name":"Jilikul"},{"_id":1221871,"coord":{"lat":37.348122,"lon":68.663979},"country":"TJ","name":"Dusti"},{"_id":1222009,"coord":{"lat":37.416672,"lon":68.199997},"country":"TJ","name":"Boshchorbogh"},{"_id":1222085,"coord":{"lat":37.847832,"lon":68.831253},"country":"TJ","name":"Bustonqala"},{"_id":1222192,"coord":{"lat":38.312351,"lon":69.672668},"country":"TJ","name":"Baljuvon"},{"_id":1222222,"coord":{"lat":39.394058,"lon":68.537659},"country":"TJ","name":"Ayni"},{"_id":1514829,"coord":{"lat":40.568642,"lon":69.641273},"country":"TJ","name":"Taboshar"},{"_id":1514831,"coord":{"lat":40.049061,"lon":70.548882},"country":"TJ","name":"Shurob"},{"_id":1514843,"coord":{"lat":40.31628,"lon":69.737427},"country":"TJ","name":"Palos"},{"_id":1514844,"coord":{"lat":40.157089,"lon":68.74659},"country":"TJ","name":"Pakhtakoron"},{"_id":1514852,"coord":{"lat":40.21524,"lon":70.57193},"country":"TJ","name":"Neftobod"},{"_id":1514856,"coord":{"lat":40.152199,"lon":69.370758},"country":"TJ","name":"Nov"},{"_id":1514870,"coord":{"lat":40.57579,"lon":69.378899},"country":"TJ","name":"Quruqsoy"},{"_id":1514877,"coord":{"lat":40.207981,"lon":70.468819},"country":"TJ","name":"Kim"},{"_id":1514889,"coord":{"lat":40.49155,"lon":69.702454},"country":"TJ","name":"Konsoy"},{"_id":1514913,"coord":{"lat":40.522861,"lon":69.333076},"country":"TJ","name":"Buston"},{"_id":1514921,"coord":{"lat":40.67474,"lon":70.345963},"country":"TJ","name":"Shaydon"},{"_id":1514925,"coord":{"lat":40.654251,"lon":69.598106},"country":"TJ","name":"Oltintopkan"},{"_id":1514929,"coord":{"lat":40.64716,"lon":69.985588},"country":"TJ","name":"Adrasmon"},{"_id":8217253,"coord":{"lat":39.416908,"lon":69.286774},"country":"TJ","name":"Mehron"},{"_id":8223131,"coord":{"lat":37.394791,"lon":67.994263},"country":"TJ","name":"Bahori"}],"countryCode":"TJ","countryFilePath":"TJ