{"countryCode":"UY","countryName":"Uruguay","countryFilePath":"UY.json","countryCityList":[{"_id":3439525,"name":"Young","country":"UY","coord":{"lon":-57.633331,"lat":-32.683331}},{"_id":3439781,"name":"Treinta y Tres","country":"UY","coord":{"lon":-54.383331,"lat":-33.23333}},{"_id":3440645,"name":"Departamento de San José","country":"UY","coord":{"lon":-56.61694,"lat":-34.455002}},{"_id":3442098,"name":"La Paz","country":"UY","coord":{"lon":-56.22361,"lat":-34.761669}},{"_id":3442778,"name":"Delta del Tigre","country":"UY","coord":{"lon":-56.385281,"lat":-34.763329}},{"_id":3443341,"name":"Carmelo","country":"UY","coord":{"lon":-58.285561,"lat":-33.98917}},{"_id":3442233,"name":"Jose Batlle y Ordonez","country":"UY","coord":{"lon":-55.116669,"lat":-33.466671}},{"_id":3440781,"name":"Rivera","country":"UY","coord":{"lon":-55.550758,"lat":-30.90534}},{"_id":3441572,"name":"Departamento de Montevideo","country":"UY","coord":{"lon":-56.181938,"lat":-34.86528}},{"_id":3441575,"name":"Montevideo","country":"UY","coord":{"lon":-56.167351,"lat":-34.833462}},{"_id":3443207,"name":"Cerrito","country":"UY","coord":{"lon":-56.166672,"lat":-34.866669}},{"_id":3442546,"name":"Garzón","country":"UY","coord":{"lon":-54.549999,"lat":-34.599998}},{"_id":3441287,"name":"Paso de la Cadena","country":"UY","coord":{"lon":-56.166672,"lat":-34.450001}},{"_id":3441242,"name":"Departamento de Paysandú","country":"UY","coord":{"lon":-57.25,"lat":-32.0}},{"_id":3441686,"name":"Mendoza Chico","country":"UY","coord":{"lon":-56.216671,"lat":-34.200001}},{"_id":3440639,"name":"San Jose de Mayo","country":"UY","coord":{"lon":-56.713612,"lat":-34.337502}},{"_id":3441354,"name":"Pando","country":"UY","coord":{"lon":-55.950001,"lat":-34.716671}},{"_id":3442057,"name":"Las Piedras","country":"UY","coord":{"lon":-56.220001,"lat":-34.726391}},{"_id":3442585,"name":"Florida","country":"UY","coord":{"lon":-56.214169,"lat":-34.095558}},{"_id":3442727,"name":"Durazno","country":"UY","coord":{"lon":-56.500561,"lat":-33.413059}},{"_id":3439705,"name":"Oriental Republic of Uruguay","country":"UY","coord":{"lon":-56.0,"lat":-33.0}},{"_id":3441890,"name":"Departamento de Maldonado","country":"UY","coord":{"lon":-54.916672,"lat":-34.666672}},{"_id":3443411,"name":"Departamento de Canelones","country":"UY","coord":{"lon":-56.288609,"lat":-34.64444}},{"_id":3440054,"name":"Departamento de Soriano","country":"UY","coord":{"lon":-57.75,"lat":-33.5}},{"_id":3441684,"name":"Mercedes","country":"UY","coord":{"lon":-58.030472,"lat":-33.252399}},{"_id":3440711,"name":"Departamento de Salto","country":"UY","coord":{"lon":-57.0,"lat":-31.41667}},{"_id":3440714,"name":"Salto","country":"UY","coord":{"lon":-57.966671,"lat":-31.383329}},{"_id":3440696,"name":"San Carlos","country":"UY","coord":{"lon":-54.916672,"lat":-34.799999}},{"_id":3441894,"name":"Maldonado","country":"UY","coord":{"lon":-54.950001,"lat":-34.900002}},{"_id":3443173,"name":"Departamento de Cerro Largo","country":"UY","coord":{"lon":-54.333328,"lat":-32.333328}},{"_id":3441702,"name":"Melo","country":"UY","coord":{"lon":-54.183331,"lat":-32.366669}},{"_id":3442007,"name":"Departamento de Lavalleja","country":"UY","coord":{"lon":-55.0,"lat":-34.0}},{"_id":3441665,"name":"Minas","country":"UY","coord":{"lon":-55.237709,"lat":-34.375889}},{"_id":3440963,"name":"Progreso","country":"UY","coord":{"lon":-56.21944,"lat":-34.665001}},{"_id":3443413,"name":"Canelones","country":"UY","coord":{"lon":-56.277779,"lat":-34.522781}},{"_id":3440033,"name":"Departamento de Tacuarembó","country":"UY","coord":{"lon":-55.5,"lat":-32.166672}},{"_id":3440034,"name":"Tacuarembo","country":"UY","coord":{"lon":-55.98333,"lat":-31.73333}},{"_id":3440571,"name":"Santa Lucia","country":"UY","coord":{"lon":-56.39056,"lat":-34.453331}},{"_id":3443025,"name":"Departamento de Colonia","country":"UY","coord":{"lon":-57.5,"lat":-34.166672}},{"_id":3441243,"name":"Paysandu","country":"UY","coord":{"lon":-58.075562,"lat":-32.321388}},{"_id":3440789,"name":"Departamento de Río Negro","country":"UY","coord":{"lon":-57.333328,"lat":-32.75}},{"_id":3442568,"name":"Fray Bentos","country":"UY","coord":{"lon":-58.295559,"lat":-33.1325}},{"_id":3443737,"name":"Atlantida","country":"UY","coord":{"lon":-55.7584,"lat":-34.7719}},{"_id":3440771,"name":"Departamento de Rocha","country":"UY","coord":{"lon":-54.0,"lat":-34.0}},{"_id":3440777,"name":"Rocha","country":"UY","coord":{"lon":-54.333328,"lat":-34.48333}},{"_id":3442597,"name":"Florencio Sanchez","country":"UY","coord":{"lon":-57.400002,"lat":-33.883331}},{"_id":3442587,"name":"Departamento de Flores","country":"UY","coord":{"lon":-56.833328,"lat":-33.583328}},{"_id":3439749,"name":"Trinidad","country":"UY","coord":{"lon":-56.888611,"lat":-33.538891}},{"_id":3441358,"name":"Pan de Azucar","country":"UY","coord":{"lon":-55.23333,"lat":-34.799999}},{"_id":3442980,"name":"Colonia Suiza","country":"UY","coord":{"lon":-57.216671,"lat":-34.316669}},{"_id":3442750,"name":"Dolores","country":"UY","coord":{"lon":-58.19722,"lat":-33.54417}},{"_id":3443352,"name":"Cardona","country":"UY","coord":{"lon":-57.383331,"lat":-33.883331}},{"_id":3442051,"name":"Las Toscas","country":"UY","coord":{"lon":-55.049999,"lat":-32.150002}},{"_id":3441442,"name":"Ombues de Lavalle","country":"UY","coord":{"lon":-57.783329,"lat":-33.916672}},{"_id":3442398,"name":"Guichon","country":"UY","coord":{"lon":-57.200001,"lat":-32.349998}},{"_id":3442163,"name":"La Barra","country":"UY","coord":{"lon":-53.76667,"lat":-34.366669}},{"_id":3443533,"name":"Buceo","country":"UY","coord":{"lon":-56.133331,"lat":-34.900002}},{"_id":3440942,"name":"Punta Carretas","country":"UY","coord":{"lon":-56.159721,"lat":-34.922779}},{"_id":3442720,"name":"Departamento de Durazno","country":"UY","coord":{"lon":-56.083328,"lat":-33.083328}},{"_id":3441273,"name":"Paso de los Toros","country":"UY","coord":{"lon":-56.51667,"lat":-32.816669}},{"_id":3442071,"name":"Lascano","country":"UY","coord":{"lon":-54.200001,"lat":-33.666672}},{"_id":3442105,"name":"La Paloma","country":"UY","coord":{"lon":-54.166672,"lat":-34.666672}},{"_id":3442683,"name":"Empalme Olmos","country":"UY","coord":{"lon":-55.900002,"lat":-34.700001}},{"_id":3443030,"name":"Colón","country":"UY","coord":{"lon":-56.23333,"lat":-34.799999}},{"_id":3441011,"name":"Pocitos","country":"UY","coord":{"lon":-56.152222,"lat":-34.909721}},{"_id":3440925,"name":"Quebracho","country":"UY","coord":{"lon":-57.883331,"lat":-31.950001}},{"_id":3440021,"name":"Tala","country":"UY","coord":{"lon":-55.76667,"lat":-34.349998}},{"_id":3441292,"name":"Paso de Carrasco","country":"UY","coord":{"lon":-56.052219,"lat":-34.860279}},{"_id":3480823,"name":"Carrasco","country":"UY","coord":{"lon":-56.060558,"lat":-34.885281}},{"_id":3440379,"name":"Sauce","country":"UY","coord":{"lon":-56.062778,"lat":-34.646938}},{"_id":3442106,"name":"La Paloma","country":"UY","coord":{"lon":-55.599998,"lat":-32.716671}},{"_id":3439696,"name":"Valdense","country":"UY","coord":{"lon":-57.23333,"lat":-34.333328}},{"_id":3440063,"name":"Solis de Mataojo","country":"UY","coord":{"lon":-55.48333,"lat":-34.599998}},{"_id":3442231,"name":"Jose Enrique Rodo","country":"UY","coord":{"lon":-57.566669,"lat":-33.683331}},{"_id":3442926,"name":"Cordón","country":"UY","coord":{"lon":-56.168331,"lat":-34.904999}},{"_id":3442050,"name":"Las Toscas","country":"UY","coord":{"lon":-55.716671,"lat":-34.73333}},{"_id":3440698,"name":"San Bautista","country":"UY","coord":{"lon":-55.98333,"lat":-34.433331}},{"_id":3480819,"name":"Villa García","country":"UY","coord":{"lon":-56.053329,"lat":-34.781109}},{"_id":3442450,"name":"Gregorio Aznárez","country":"UY","coord":{"lon":-55.416672,"lat":-34.716671}},{"_id":3442584,"name":"Departamento de Florida","country":"UY","coord":{"lon":-55.916672,"lat":-33.833328}},{"_id":3443632,"name":"Bella Italia","country":"UY","coord":{"lon":-56.116669,"lat":-34.833328}},{"_id":3441122,"name":"Piedras Blancas","country":"UY","coord":{"lon":-56.139439,"lat":-34.828609}},{"_id":3441475,"name":"Nuevo París","country":"UY","coord":{"lon":-56.23333,"lat":-34.849998}},{"_id":3440791,"name":"Rio Branco","country":"UY","coord":{"lon":-53.416672,"lat":-32.566669}},{"_id":3480818,"name":"Cap. Juan A. Artigas","country":"UY","coord":{"lon":-56.020561,"lat":-34.762501}},{"_id":3439780,"name":"Departamento de Treinta y Tres","country":"UY","coord":{"lon":-54.25,"lat":-33.0}},{"_id":3443861,"name":"Anastasia","country":"UY","coord":{"lon":-54.383331,"lat":-33.216671}},{"_id":3440780,"name":"Departamento de Rivera","country":"UY","coord":{"lon":-55.25,"lat":-31.5}},{"_id":3442805,"name":"Curticeras","country":"UY","coord":{"lon":-55.549999,"lat":-30.966669}},{"_id":7838849,"name":"City Park","country":"UY","coord":{"lon":-56.009171,"lat":-34.858059}},{"_id":3440581,"name":"Santa Bernardina","country":"UY","coord":{"lon":-56.48333,"lat":-33.366669}},{"_id":3440830,"name":"Riachuelo","country":"UY","coord":{"lon":-57.716671,"lat":-34.466671}},{"_id":3443756,"name":"Departamento de Artigas","country":"UY","coord":{"lon":-57.0,"lat":-30.58333}},{"_id":3443758,"name":"Artigas","country":"UY","coord":{"lon":-56.466671,"lat":-30.4}},{"_id":3443013,"name":"Colonia del Sacramento","country":"UY","coord":{"lon":-57.849998,"lat":-34.466671}},{"_id":3439590,"name":"Villa Sara","country":"UY","coord":{"lon":-54.416672,"lat":-33.26667}},{"_id":3439598,"name":"Villa del Carmen","country":"UY","coord":{"lon":-56.01667,"lat":-33.25}},{"_id":3439619,"name":"Vichadero","country":"UY","coord":{"lon":-54.716671,"lat":-31.799999}},{"_id":3439622,"name":"Vergara","country":"UY","coord":{"lon":-53.950001,"lat":-32.933331}},{"_id":3439652,"name":"Velazquez","country":"UY","coord":{"lon":-54.283329,"lat":-34.033329}},{"_id":3439659,"name":"Veinticinco de Mayo","country":"UY","coord":{"lon":-56.339439,"lat":-34.189171}},{"_id":3439661,"name":"Veinticinco de Agosto","country":"UY","coord":{"lon":-56.402222,"lat":-34.411671}},{"_id":3439725,"name":"Tupambae","country":"UY","coord":{"lon":-54.76667,"lat":-32.833328}},{"_id":3439748,"name":"Trinidad","country":"UY","coord":{"lon":-56.89957,"lat":-33.516499}},{"_id":3439787,"name":"Tranqueras","country":"UY","coord":{"lon":-55.75,"lat":-31.200001}},{"_id":3439831,"name":"Tomas Gomensoro","country":"UY","coord":{"lon":-57.436119,"lat":-30.42737}},{"_id":3439838,"name":"Toledo","country":"UY","coord":{"lon":-56.098331,"lat":-34.742222}},{"_id":3439902,"name":"Tarariras","country":"UY","coord":{"lon":-57.616669,"lat":-34.283329}},{"_id":3440055,"name":"Soriano","country":"UY","coord":{"lon":-58.316669,"lat":-33.400002}},{"_id":3440076,"name":"Soca","country":"UY","coord":{"lon":-55.683331,"lat":-34.683331}},{"_id":3440394,"name":"Sarandi Grande","country":"UY","coord":{"lon":-56.333328,"lat":-33.73333}},{"_id":3440400,"name":"Sarandi del Yi","country":"UY","coord":{"lon":-55.633331,"lat":-33.349998}},{"_id":3440541,"name":"Santiago Vazquez","country":"UY","coord":{"lon":-56.349998,"lat":-34.790279}},{"_id":3440554,"name":"Santa Rosa","country":"UY","coord":{"lon":-56.03722,"lat":-34.497501}},{"_id":3440577,"name":"Santa Clara de Olimar","country":"UY","coord":{"lon":-54.966671,"lat":-32.916672}},{"_id":3440580,"name":"Santa Catalina","country":"UY","coord":{"lon":-57.48333,"lat":-33.75}},{"_id":3440596,"name":"San Ramon","country":"UY","coord":{"lon":-55.966671,"lat":-34.299999}},{"_id":3440653,"name":"San Javier","country":"UY","coord":{"lon":-58.133331,"lat":-32.683331}},{"_id":3440654,"name":"San Jacinto","country":"UY","coord":{"lon":-55.883331,"lat":-34.549999}},{"_id":3440684,"name":"San Felix","country":"UY","coord":{"lon":-58.133331,"lat":-32.333328}},{"_id":3440705,"name":"San Antonio","country":"UY","coord":{"lon":-56.07917,"lat":-34.449718}},{"_id":3440747,"name":"Rosario","country":"UY","coord":{"lon":-57.349998,"lat":-34.316669}},{"_id":3440762,"name":"Rodriguez","country":"UY","coord":{"lon":-56.541672,"lat":-34.382778}},{"_id":3440879,"name":"Rafael Perazza","country":"UY","coord":{"lon":-56.798889,"lat":-34.519718}},{"_id":3440939,"name":"Punta del Este","country":"UY","coord":{"lon":-54.950001,"lat":-34.966671}},{"_id":3440985,"name":"Porvenir","country":"UY","coord":{"lon":-57.849998,"lat":-32.366669}},{"_id":3441074,"name":"Piriapolis","country":"UY","coord":{"lon":-55.274361,"lat":-34.868191}},{"_id":3441114,"name":"Piedras Coloradas","country":"UY","coord":{"lon":-57.599998,"lat":-32.383331}},{"_id":3441377,"name":"Palmitas","country":"UY","coord":{"lon":-57.800789,"lat":-33.507191}},{"_id":3441476,"name":"Nuevo Berlin","country":"UY","coord":{"lon":-58.049999,"lat":-32.98333}},{"_id":3441481,"name":"Nueva Palmira","country":"UY","coord":{"lon":-58.416672,"lat":-33.883331}},{"_id":3441483,"name":"Nueva Helvecia","country":"UY","coord":{"lon":-57.23333,"lat":-34.299999}},{"_id":3441577,"name":"Montes","country":"UY","coord":{"lon":-55.583328,"lat":-34.5}},{"_id":3441659,"name":"Minas de Corrales","country":"UY","coord":{"lon":-55.466671,"lat":-31.58333}},{"_id":3441674,"name":"Migues","country":"UY","coord":{"lon":-55.650002,"lat":-34.48333}},{"_id":3441803,"name":"Mariscala","country":"UY","coord":{"lon":-54.777321,"lat":-34.040852}},{"_id":3441954,"name":"Los Cerrillos","country":"UY","coord":{"lon":-56.356392,"lat":-34.605}},{"_id":3441988,"name":"Libertad","country":"UY","coord":{"lon":-56.619171,"lat":-34.633331}},{"_id":3442058,"name":"Las Piedras","country":"UY","coord":{"lon":-57.581741,"lat":-30.262039}},{"_id":3442138,"name":"La Floresta","country":"UY","coord":{"lon":-55.681412,"lat":-34.755718}},{"_id":3442206,"name":"Juan L. Lacaze","country":"UY","coord":{"lon":-57.416672,"lat":-34.433331}},{"_id":3442221,"name":"Jose Pedro Varela","country":"UY","coord":{"lon":-54.533329,"lat":-33.450001}},{"_id":3442236,"name":"Joaquin Suarez","country":"UY","coord":{"lon":-56.036671,"lat":-34.733608}},{"_id":3442238,"name":"Joanico","country":"UY","coord":{"lon":-56.252781,"lat":-34.589439}},{"_id":3442299,"name":"Isidoro Noblia","country":"UY","coord":{"lon":-54.166672,"lat":-31.83333}},{"_id":3442716,"name":"Ecilda Paullier","country":"UY","coord":{"lon":-57.066669,"lat":-34.366669}},{"_id":3442766,"name":"Dieciocho de Julio","country":"UY","coord":{"lon":-53.549999,"lat":-33.683331}},{"_id":3442803,"name":"Curtina","country":"UY","coord":{"lon":-56.116669,"lat":-32.150002}},{"_id":3442939,"name":"Constitucion","country":"UY","coord":{"lon":-57.833328,"lat":-31.08333}},{"_id":3443061,"name":"Chuy","country":"UY","coord":{"lon":-53.46162,"lat":-33.697071}},{"_id":3443183,"name":"Cerro Colorado","country":"UY","coord":{"lon":-55.549999,"lat":-33.866669}},{"_id":3443256,"name":"Cebollati","country":"UY","coord":{"lon":-53.783329,"lat":-33.26667}},{"_id":3443280,"name":"Casupa","country":"UY","coord":{"lon":-55.650002,"lat":-34.033329}},{"_id":3443289,"name":"Castillos","country":"UY","coord":{"lon":-53.833328,"lat":-34.166672}},{"_id":3443342,"name":"Carlos Reyles","country":"UY","coord":{"lon":-56.48333,"lat":-33.01667}},{"_id":3443356,"name":"Cardal","country":"UY","coord":{"lon":-56.388889,"lat":-34.290562}},{"_id":3443588,"name":"Blanquillo","country":"UY","coord":{"lon":-55.633331,"lat":-32.76667}},{"_id":3443631,"name":"Bella Union","country":"UY","coord":{"lon":-57.6007,"lat":-30.275221}},{"_id":3443644,"name":"Belen","country":"UY","coord":{"lon":-57.783329,"lat":-30.783331}},{"_id":3443697,"name":"Baltasar Brum","country":"UY","coord":{"lon":-57.327278,"lat":-30.71294}},{"_id":3443909,"name":"Aigua","country":"UY","coord":{"lon":-54.75,"lat":-34.200001}},{"_id":3443928,"name":"Aguas Corrientes","country":"UY","coord":{"lon":-56.393608,"lat":-34.521938}},{"_id":3443952,"name":"Acegua","country":"UY","coord":{"lon":-54.200001,"lat":-31.866671}},{"_id":3480812,"name":"Puntas de Valdez","country":"UY","coord":{"lon":-56.69944,"lat":-34.583889}},{"_id":3480820,"name":"Colonia Nicolich","country":"UY","coord":{"lon":-56.04472,"lat":-34.813061}},{"_id":3480822,"name":"Barra de Carrasco","country":"UY","coord":{"lon":-56.02972,"lat":-34.87722}},{"_id":3480825,"name":"Pajas Blancas","country":"UY","coord":{"lon":-56.334171,"lat":-34.80167}}]}
