{"countryCityList":[{"_id":3439525,"coord":{"lat":-32.683331,"lon":-57.633331},"country":"UY","name":"Young"},{"_id":3439781,"coord":{"lat":-33.23333,"lon":-54.383331},"country":"UY","name":"Treinta y Tres"},{"_id":3440645,"coord":{"lat":-34.455002,"lon":-56.61694},"country":"UY","name":"Departamento de San José"},{"_id":3442098,"coord":{"lat":-34.761669,"lon":-56.22361},"country":"UY","name":"La Paz"},{"_id":3442778,"coord":{"lat":-34.763329,"lon":-56.385281},"country":"UY","name":"Delta del Tigre"},{"_id":3443341,"coord":{"lat":-33.98917,"lon":-58.285561},"country":"UY","name":"Carmelo"},{"_id":3442233,"coord":{"lat":-33.466671,"lon":-55.116669},"country":"UY","name":"Jose Batlle y Ordonez"},{"_id":3440781,"coord":{"lat":-30.90534,"lon":-55.550758},"country":"UY","name":"Rivera"},{"_id":3441572,"coord":{"lat":-34.86528,"lon":-56.181938},"country":"UY","name":"Departamento de Montevideo"},{"_id":3441575,"coord":{"lat":-34.833462,"lon":-56.167351},"country":"UY","name":"Montevideo"},{"_id":3443207,"coord":{"lat":-34.866669,"lon":-56.166672},"country":"UY","name":"Cerrito"},{"_id":3442546,"coord":{"lat":-34.599998,"lon":-54.549999},"country":"UY","name":"Garzón"},{"_id":3441287,"coord":{"lat":-34.450001,"lon":-56.166672},"country":"UY","name":"Paso de la Cadena"},{"_id":3441242,"coord":{"lat":-32,"lon":-57.25},"country":"UY","name":"Departamento de Paysandú"},{"_id":3441686,"coord":{"lat":-34.200001,"lon":-56.216671},"country":"UY","name":"Mendoza Chico"},{"_id":3440639,"coord":{"lat":-34.337502,"lon":-56.713612},"country":"UY","name":"San Jose de Mayo"},{"_id":3441354,"coord":{"lat":-34.716671,"lon":-55.950001},"country":"UY","name":"Pando"},{"_id":3442057,"coord":{"lat":-34.726391,"lon":-56.220001},"country":"UY","name":"Las Piedras"},{"_id":3442585,"coord":{"lat":-34.095558,"lon":-56.214169},"country":"UY","name":"Florida"},{"_id":3442727,"coord":{"lat":-33.413059,"lon":-56.500561},"country":"UY","name":"Durazno"},{"_id":3439705,"coord":{"lat":-33,"lon":-56},"country":"UY","name":"Oriental Republic of Uruguay"},{"_id":3441890,"coord":{"lat":-34.666672,"lon":-54.916672},"country":"UY","name":"Departamento de Maldonado"},{"_id":3443411,"coord":{"lat":-34.64444,"lon":-56.288609},"country":"UY","name":"Departamento de Canelones"},{"_id":3440054,"coord":{"lat":-33.5,"lon":-57.75},"country":"UY","name":"Departamento de Soriano"},{"_id":3441684,"coord":{"lat":-33.252399,"lon":-58.030472},"country":"UY","name":"Mercedes"},{"_id":3440711,"coord":{"lat":-31.41667,"lon":-57},"country":"UY","name":"Departamento de Salto"},{"_id":3440714,"coord":{"lat":-31.383329,"lon":-57.966671},"country":"UY","name":"Salto"},{"_id":3440696,"coord":{"lat":-34.799999,"lon":-54.916672},"country":"UY","name":"San Carlos"},{"_id":3441894,"coord":{"lat":-34.900002,"lon":-54.950001},"country":"UY","name":"Maldonado"},{"_id":3443173,"coord":{"lat":-32.333328,"lon":-54.333328},"country":"UY","name":"Departamento de Cerro Largo"},{"_id":3441702,"coord":{"lat":-32.366669,"lon":-54.183331},"country":"UY","name":"Melo"},{"_id":3442007,"coord":{"lat":-34,"lon":-55},"country":"UY","name":"Departamento de Lavalleja"},{"_id":3441665,"coord":{"lat":-34.375889,"lon":-55.237709},"country":"UY","name":"Minas"},{"_id":3440963,"coord":{"lat":-34.665001,"lon":-56.21944},"country":"UY","name":"Progreso"},{"_id":3443413,"coord":{"lat":-34.522781,"lon":-56.277779},"country":"UY","name":"Canelones"},{"_id":3440033,"coord":{"lat":-32.166672,"lon":-55.5},"country":"UY","name":"Departamento de Tacuarembó"},{"_id":3440034,"coord":{"lat":-31.73333,"lon":-55.98333},"country":"UY","name":"Tacuarembo"},{"_id":3440571,"coord":{"lat":-34.453331,"lon":-56.39056},"country":"UY","name":"Santa Lucia"},{"_id":3443025,"coord":{"lat":-34.166672,"lon":-57.5},"country":"UY","name":"Departamento de Colonia"},{"_id":3441243,"coord":{"lat":-32.321388,"lon":-58.075562},"country":"UY","name":"Paysandu"},{"_id":3440789,"coord":{"lat":-32.75,"lon":-57.333328},"country":"UY","name":"Departamento de Río Negro"},{"_id":3442568,"coord":{"lat":-33.1325,"lon":-58.295559},"country":"UY","name":"Fray Bentos"},{"_id":3443737,"coord":{"lat":-34.7719,"lon":-55.7584},"country":"UY","name":"Atlantida"},{"_id":3440771,"coord":{"lat":-34,"lon":-54},"country":"UY","name":"Departamento de Rocha"},{"_id":3440777,"coord":{"lat":-34.48333,"lon":-54.333328},"country":"UY","name":"Rocha"},{"_id":3442597,"coord":{"lat":-33.883331,"lon":-57.400002},"country":"UY","name":"Florencio Sanchez"},{"_id":3442587,"coord":{"lat":-33.583328,"lon":-56.833328},"country":"UY","name":"Departamento de Flores"},{"_id":3439749,"coord":{"lat":-33.538891,"lon":-56.888611},"country":"UY","name":"Trinidad"},{"_id":3441358,"coord":{"lat":-34.799999,"lon":-55.23333},"country":"UY","name":"Pan de Azucar"},{"_id":3442980,"coord":{"lat":-34.316669,"lon":-57.216671},"country":"UY","name":"Colonia Suiza"},{"_id":3442750,"coord":{"lat":-33.54417,"lon":-58.19722},"country":"UY","name":"Dolores"},{"_id":3443352,"coord":{"lat":-33.883331,"lon":-57.383331},"country":"UY","name":"Cardona"},{"_id":3442051,"coord":{"lat":-32.150002,"lon":-55.049999},"country":"UY","name":"Las Toscas"},{"_id":3441442,"coord":{"lat":-33.916672,"lon":-57.783329},"country":"UY","name":"Ombues de Lavalle"},{"_id":3442398,"coord":{"lat":-32.349998,"lon":-57.200001},"country":"UY","name":"Guichon"},{"_id":3442163,"coord":{"lat":-34.366669,"lon":-53.76667},"country":"UY","name":"La Barra"},{"_id":3443533,"coord":{"lat":-34.900002,"lon":-56.133331},"country":"UY","name":"Buceo"},{"_id":3440942,"coord":{"lat":-34.922779,"lon":-56.159721},"country":"UY","name":"Punta Carretas"},{"_id":3442720,"coord":{"lat":-33.083328,"lon":-56.083328},"country":"UY","name":"Departamento de Durazno"},{"_id":3441273,"coord":{"lat":-32.816669,"lon":-56.51667},"country":"UY","name":"Paso de los Toros"},{"_id":3442071,"coord":{"lat":-33.666672,"lon":-54.200001},"country":"UY","name":"Lascano"},{"_id":3442105,"coord":{"lat":-34.666672,"lon":-54.166672},"country":"UY","name":"La Paloma"},{"_id":3442683,"coord":{"lat":-34.700001,"lon":-55.900002},"country":"UY","name":"Empalme Olmos"},{"_id":3443030,"coord":{"lat":-34.799999,"lon":-56.23333},"country":"UY","name":"Colón"},{"_id":3441011,"coord":{"lat":-34.909721,"lon":-56.152222},"country":"UY","name":"Pocitos"},{"_id":3440925,"coord":{"lat":-31.950001,"lon":-57.883331},"country":"UY","name":"Quebracho"},{"_id":3440021,"coord":{"lat":-34.349998,"lon":-55.76667},"country":"UY","name":"Tala"},{"_id":3441292,"coord":{"lat":-34.860279,"lon":-56.052219},"country":"UY","name":"Paso de Carrasco"},{"_id":3480823,"coord":{"lat":-34.885281,"lon":-56.060558},"country":"UY","name":"Carrasco"},{"_id":3440379,"coord":{"lat":-34.646938,"lon":-56.062778},"country":"UY","name":"Sauce"},{"_id":3442106,"coord":{"lat":-32.716671,"lon":-55.599998},"country":"UY","name":"La Paloma"},{"_id":3439696,"coord":{"lat":-34.333328,"lon":-57.23333},"country":"UY","name":"Valdense"},{"_id":3440063,"coord":{"lat":-34.599998,"lon":-55.48333},"country":"UY","name":"Solis de Mataojo"},{"_id":3442231,"coord":{"lat":-33.683331,"lon":-57.566669},"country":"UY","name":"Jose Enrique Rodo"},{"_id":3442926,"coord":{"lat":-34.904999,"lon":-56.168331},"country":"UY","name":"Cordón"},{"_id":3442050,"coord":{"lat":-34.73333,"lon":-55.716671},"country":"UY","name":"Las Toscas"},{"_id":3440698,"coord":{"lat":-34.433331,"lon":-55.98333},"country":"UY","name":"San Bautista"},{"_id":3480819,"coord":{"lat":-34.781109,"lon":-56.053329},"country":"UY","name":"Villa García"},{"_id":3442450,"coord":{"lat":-34.716671,"lon":-55.416672},"country":"UY","name":"Gregorio Aznárez"},{"_id":3442584,"coord":{"lat":-33.833328,"lon":-55.916672},"country":"UY","name":"Departamento de Florida"},{"_id":3443632,"coord":{"lat":-34.833328,"lon":-56.116669},"country":"UY","name":"Bella Italia"},{"_id":3441122,"coord":{"lat":-34.828609,"lon":-56.139439},"country":"UY","name":"Piedras Blancas"},{"_id":3441475,"coord":{"lat":-34.849998,"lon":-56.23333},"country":"UY","name":"Nuevo París"},{"_id":3440791,"coord":{"lat":-32.566669,"lon":-53.416672},"country":"UY","name":"Rio Branco"},{"_id":3480818,"coord":{"lat":-34.762501,"lon":-56.020561},"country":"UY","name":"Cap. Juan A. Artigas"},{"_id":3439780,"coord":{"lat":-33,"lon":-54.25},"country":"UY","name":"Departamento de Treinta y Tres"},{"_id":3443861,"coord":{"lat":-33.216671,"lon":-54.383331},"country":"UY","name":"Anastasia"},{"_id":3440780,"coord":{"lat":-31.5,"lon":-55.25},"country":"UY","name":"Departamento de Rivera"},{"_id":3442805,"coord":{"lat":-30.966669,"lon":-55.549999},"country":"UY","name":"Curticeras"},{"_id":7838849,"coord":{"lat":-34.858059,"lon":-56.009171},"country":"UY","name":"City Park"},{"_id":3440581,"coord":{"lat":-33.366669,"lon":-56.48333},"country":"UY","name":"Santa Bernardina"},{"_id":3440830,"coord":{"lat":-34.466671,"lon":-57.716671},"country":"UY","name":"Riachuelo"},{"_id":3443756,"coord":{"lat":-30.58333,"lon":-57},"country":"UY","name":"Departamento de Artigas"},{"_id":3443758,"coord":{"lat":-30.4,"lon":-56.466671},"country":"UY","name":"Artigas"},{"_id":3443013,"coord":{"lat":-34.466671,"lon":-57.849998},"country":"UY","name":"Colonia del Sacramento"},{"_id":3439590,"coord":{"lat":-33.26667,"lon":-54.416672},"country":"UY","name":"Villa Sara"},{"_id":3439598,"coord":{"lat":-33.25,"lon":-56.01667},"country":"UY","name":"Villa del Carmen"},{"_id":3439619,"coord":{"lat":-31.799999,"lon":-54.716671},"country":"UY","name":"Vichadero"},{"_id":3439622,"coord":{"lat":-32.933331,"lon":-53.950001},"country":"UY","name":"Vergara"},{"_id":3439652,"coord":{"lat":-34.033329,"lon":-54.283329},"country":"UY","name":"Velazquez"},{"_id":3439659,"coord":{"lat":-34.189171,"lon":-56.339439},"country":"UY","name":"Veinticinco de Mayo"},{"_id":3439661,"coord":{"lat":-34.411671,"lon":-56.402222},"country":"UY","name":"Veinticinco de Agosto"},{"_id":3439725,"coord":{"lat":-32.833328,"lon":-54.76667},"country":"UY","name":"Tupambae"},{"_id":3439748,"coord":{"lat":-33.516499,"lon":-56.89957},"country":"UY","name":"Trinidad"},{"_id":3439787,"coord":{"lat":-31.200001,"lon":-55.75},"country":"UY","name":"Tranqueras"},{"_id":3439831,"coord":{"lat":-30.42737,"lon":-57.436119},"country":"UY","name":"Tomas Gomensoro"},{"_id":3439838,"coord":{"lat":-34.742222,"lon":-56.098331},"country":"UY","name":"Toledo"},{"_id":3439902,"coord":{"lat":-34.283329,"lon":-57.616669},"country":"UY","name":"Tarariras"},{"_id":3440055,"coord":{"lat":-33.400002,"lon":-58.316669},"country":"UY","name":"Soriano"},{"_id":3440076,"coord":{"lat":-34.683331,"lon":-55.683331},"country":"UY","name":"Soca"},{"_id":3440394,"coord":{"lat":-33.73333,"lon":-56.333328},"country":"UY","name":"Sarandi Grande"},{"_id":3440400,"coord":{"lat":-33.349998,"lon":-55.633331},"country":"UY","name":"Sarandi del Yi"},{"_id":3440541,"coord":{"lat":-34.790279,"lon":-56.349998},"country":"UY","name":"Santiago Vazquez"},{"_id":3440554,"coord":{"lat":-34.497501,"lon":-56.03722},"country":"UY","name":"Santa Rosa"},{"_id":3440577,"coord":{"lat":-32.916672,"lon":-54.966671},"country":"UY","name":"Santa Clara de Olimar"},{"_id":3440580,"coord":{"lat":-33.75,"lon":-57.48333},"country":"UY","name":"Santa Catalina"},{"_id":3440596,"coord":{"lat":-34.299999,"lon":-55.966671},"country":"UY","name":"San Ramon"},{"_id":3440653,"coord":{"lat":-32.683331,"lon":-58.133331},"country":"UY","name":"San Javier"},{"_id":3440654,"coord":{"lat":-34.549999,"lon":-55.883331},"country":"UY","name":"San Jacinto"},{"_id":3440684,"coord":{"lat":-32.333328,"lon":-58.133331},"country":"UY","name":"San Felix"},{"_id":3440705,"coord":{"lat":-34.449718,"lon":-56.07917},"country":"UY","name":"San Antonio"},{"_id":3440747,"coord":{"lat":-34.316669,"lon":-57.349998},"country":"UY","name":"Rosario"},{"_id":3440762,"coord":{"lat":-34.382778,"lon":-56.541672},"country":"UY","name":"Rodriguez"},{"_id":3440879,"coord":{"lat":-34.519718,"lon":-56.798889},"country":"UY","name":"Rafael Perazza"},{"_id":3440939,"coord":{"lat":-34.966671,"lon":-54.950001},"country":"UY","name":"Punta del Este"},{"_id":3440985,"coord":{"lat":-32.366669,"lon":-57.849998},"country":"UY","name":"Porvenir"},{"_id":3441074,"coord":{"lat":-34.868191,"lon":-55.274361},"country":"UY","name":"Piriapolis"},{"_id":3441114,"coord":{"lat":-32.383331,"lon":-57.599998},"country":"UY","name":"Piedras Coloradas"},{"_id":3441377,"coord":{"lat":-33.507191,"lon":-57.800789},"country":"UY","name":"Palmitas"},{"_id":3441476,"coord":{"lat":-32.98333,"lon":-58.049999},"country":"UY","name":"Nuevo Berlin"},{"_id":3441481,"coord":{"lat":-33.883331,"lon":-58.416672},"country":"UY","name":"Nueva Palmira"},{"_id":3441483,"coord":{"lat":-34.299999,"lon":-57.23333},"country":"UY","name":"Nueva Helvecia"},{"_id":3441577,"coord":{"lat":-34.5,"lon":-55.583328},"country":"UY","name":"Montes"},{"_id":3441659,"coord":{"lat":-31.58333,"lon":-55.466671},"country":"UY","name":"Minas de Corrales"},{"_id":3441674,"coord":{"lat":-34.48333,"lon":-55.650002},"country":"UY","name":"Migues"},{"_id":3441803,"coord":{"lat":-34.040852,"lon":-54.777321},"country":"UY","name":"Mariscala"},{"_id":3441954,"coord":{"lat":-34.605,"lon":-56.356392},"country":"UY","name":"Los Cerrillos"},{"_id":3441988,"coord":{"lat":-34.633331,"lon":-56.619171},"country":"UY","name":"Libertad"},{"_id":3442058,"coord":{"lat":-30.262039,"lon":-57.581741},"country":"UY","name":"Las Piedras"},{"_id":3442138,"coord":{"lat":-34.755718,"lon":-55.681412},"country":"UY","name":"La Floresta"},{"_id":3442206,"coord":{"lat":-34.433331,"lon":-57.416672},"country":"UY","name":"Juan L. Lacaze"},{"_id":3442221,"coord":{"lat":-33.450001,"lon":-54.533329},"country":"UY","name":"Jose Pedro Varela"},{"_id":3442236,"coord":{"lat":-34.733608,"lon":-56.036671},"country":"UY","name":"Joaquin Suarez"},{"_id":3442238,"coord":{"lat":-34.589439,"lon":-56.252781},"country":"UY","name":"Joanico"},{"_id":3442299,"coord":{"lat":-31.83333,"lon":-54.166672},"country":"UY","name":"Isidoro Noblia"},{"_id":3442716,"coord":{"lat":-34.366669,"lon":-57.066669},"country":"UY","name":"Ecilda Paullier"},{"_id":3442766,"coord":{"lat":-33.683331,"lon":-53.549999},"country":"UY","name":"Dieciocho de Julio"},{"_id":3442803,"coord":{"lat":-32.150002,"lon":-56.116669},"country":"UY","name":"Curtina"},{"_id":3442939,"coord":{"lat":-31.08333,"lon":-57.833328},"country":"UY","name":"Constitucion"},{"_id":3443061,"coord":{"lat":-33.697071,"lon":-53.46162},"country":"UY","name":"Chuy"},{"_id":3443183,"coord":{"lat":-33.866669,"lon":-55.549999},"country":"UY","name":"Cerro Colorado"},{"_id":3443256,"coord":{"lat":-33.26667,"lon":-53.783329},"country":"UY","name":"Cebollati"},{"_id":3443280,"coord":{"lat":-34.033329,"lon":-55.650002},"country":"UY","name":"Casupa"},{"_id":3443289,"coord":{"lat":-34.166672,"lon":-53.833328},"country":"UY","name":"Castillos"},{"_id":3443342,"coord":{"lat":-33.01667,"lon":-56.48333},"country":"UY","name":"Carlos Reyles"},{"_id":3443356,"coord":{"lat":-34.290562,"lon":-56.388889},"country":"UY","name":"Cardal"},{"_id":3443588,"coord":{"lat":-32.76667,"lon":-55.633331},"country":"UY","name":"Blanquillo"},{"_id":3443631,"coord":{"lat":-30.275221,"lon":-57.6007},"country":"UY","name":"Bella Union"},{"_id":3443644,"coord":{"lat":-30.783331,"lon":-57.783329},"country":"UY","name":"Belen"},{"_id":3443697,"coord":{"lat":-30.71294,"lon":-57.327