{"countryCityList":[{"_id":786714,"coord":{"lat":42.672722,"lon":21.16688},"country":"XK","name":"Pristina"},{"_id":785234,"coord":{"lat":42.349998,"lon":20.85},"country":"XK","name":"Komuna e Thërandës"},{"_id":831101,"coord":{"lat":42.416672,"lon":21.01667},"country":"XK","name":"Komuna e Shtimes"},{"_id":787156,"coord":{"lat":42.659679,"lon":20.28997},"country":"XK","name":"Komuna e Pejës"},{"_id":831104,"coord":{"lat":42.488609,"lon":20.74667},"country":"XK","name":"Komuna e Malisheves"},{"_id":791579,"coord":{"lat":42.539101,"lon":20.28816},"country":"XK","name":"Komuna e Deçanit"},{"_id":784096,"coord":{"lat":42.799999,"lon":20.98333},"country":"XK","name":"Opština Vučitrn"},{"_id":784097,"coord":{"lat":42.823059,"lon":20.967501},"country":"XK","name":"Vushtrri"},{"_id":785238,"coord":{"lat":42.358608,"lon":20.825001},"country":"XK","name":"Suva Reka"},{"_id":785485,"coord":{"lat":42.43306,"lon":21.039721},"country":"XK","name":"Shtime"},{"_id":788470,"coord":{"lat":42.555279,"lon":20.76333},"country":"XK","name":"Llazice"},{"_id":788730,"coord":{"lat":43.116669,"lon":20.783331},"country":"XK","name":"Komuna e Leposaviqit"},{"_id":788731,"coord":{"lat":43.103889,"lon":20.80278},"country":"XK","name":"Leposaviq"},{"_id":789995,"coord":{"lat":42.76667,"lon":20.48333},"country":"XK","name":"Komuna e Istogut"},{"_id":789996,"coord":{"lat":42.78083,"lon":20.487499},"country":"XK","name":"Istok"},{"_id":791580,"coord":{"lat":42.54018,"lon":20.28793},"country":"XK","name":"Decan"},{"_id":831053,"coord":{"lat":42.583328,"lon":21},"country":"XK","name":"Republic of Kosovo"},{"_id":784758,"coord":{"lat":42.366669,"lon":21.133329},"country":"XK","name":"Komuna e Ferizajt"},{"_id":830382,"coord":{"lat":42.346111,"lon":21.014721},"country":"XK","name":"Mačitevo"},{"_id":784371,"coord":{"lat":42.333328,"lon":21.366671},"country":"XK","name":"Komuna e Vitisë"},{"_id":858978,"coord":{"lat":42.35944,"lon":21.328609},"country":"XK","name":"Muadžeri"},{"_id":786713,"coord":{"lat":42.700001,"lon":21.283331},"country":"XK","name":"Komuna e Prishtinës"},{"_id":787824,"coord":{"lat":42.662781,"lon":21.299999},"country":"XK","name":"Mramor"},{"_id":786711,"coord":{"lat":42.23333,"lon":20.73333},"country":"XK","name":"Komuna e Prizrenit"},{"_id":786712,"coord":{"lat":42.21389,"lon":20.739719},"country":"XK","name":"Prizren"},{"_id":831099,"coord":{"lat":42.599998,"lon":21.049999},"country":"XK","name":"Opština Kosovo Polje"},{"_id":789228,"coord":{"lat":42.639439,"lon":21.096109},"country":"XK","name":"Kosovo Polje"},{"_id":790673,"coord":{"lat":42.466671,"lon":21.450001},"country":"XK","name":"Komuna e Gjilanit"},{"_id":790674,"coord":{"lat":42.460449,"lon":21.46986},"country":"XK","name":"Gjilan"},{"_id":784759,"coord":{"lat":42.37056,"lon":21.155279},"country":"XK","name":"Ferizaj"},{"_id":787455,"coord":{"lat":42.383331,"lon":20.616671},"country":"XK","name":"Komuna e Rahovecit"},{"_id":787456,"coord":{"lat":42.399441,"lon":20.65472},"country":"XK","name":"Orahovac"},{"_id":791121,"coord":{"lat":42,"lon":20.65},"country":"XK","name":"Komuna e Dragashit"},{"_id":791122,"coord":{"lat":42.0625,"lon":20.65333},"country":"XK","name":"Dragash"},{"_id":785059,"coord":{"lat":42.916672,"lon":20.883329},"country":"XK","name":"Komuna e Mitrovicës"},{"_id":789225,"coord":{"lat":42.883331,"lon":20.866671},"country":"XK","name":"Mitrovice"},{"_id":789720,"coord":{"lat":42.200001,"lon":21.25},"country":"XK","name":"Komuna e Kaçanikut"},{"_id":792919,"coord":{"lat":42.287781,"lon":21.16444},"country":"XK","name":"Banjica"},{"_id":786949,"coord":{"lat":42.900002,"lon":21.200001},"country":"XK","name":"Opština Podujevo"},{"_id":786950,"coord":{"lat":42.910561,"lon":21.19306},"country":"XK","name":"Podujeva"},{"_id":788651,"coord":{"lat":42.5,"lon":21.116671},"country":"XK","name":"Komuna e Lipjanit"},{"_id":786606,"coord":{"lat":42.573059,"lon":21.05472},"country":"XK","name":"Radevo"},{"_id":787157,"coord":{"lat":42.65913,"lon":20.28828},"country":"XK","name":"Peje"},{"_id":783770,"coord":{"lat":42.907501,"lon":20.840281},"country":"XK","name":"Zvecan"},{"_id":783802,"coord":{"lat":42.91444,"lon":20.68972},"country":"XK","name":"Zubin Potok"},{"_id":784372,"coord":{"lat":42.321388,"lon":21.35833},"country":"XK","name":"Vitina"},{"_id":785388,"coord":{"lat":42.239441,"lon":21.02722},"country":"XK","name":"Strpce"},{"_id":785642,"coord":{"lat":42.74667,"lon":20.78861},"country":"XK","name":"Srbica"},{"_id":786156,"coord":{"lat":42.52,"lon":20.347219},"country":"XK","name":"Irzniq"},{"_id":786734,"coord":{"lat":42.5075,"lon":20.31778},"country":"XK","name":"Prilep"},{"_id":787155,"coord":{"lat":42.38361,"lon":20.821939},"country":"XK","name":"Peqan"},{"_id":787268,"coord":{"lat":42.419998,"lon":20.74222},"country":"XK","name":"Pagarusa"},{"_id":787534,"coord":{"lat":42.686939,"lon":21.07028},"country":"XK","name":"Obiliq"},{"_id":787650,"coord":{"lat":42.423889,"lon":20.80167},"country":"XK","name":"Nishor"},{"_id":788239,"coord":{"lat":42.48222,"lon":20.745831},"country":"XK","name":"Malisevo"},{"_id":788536,"coord":{"lat":42.546669,"lon":20.34667},"country":"XK","name":"Lumbardhi"},{"_id":788543,"coord":{"lat":42.563061,"lon":20.290831},"country":"XK","name":"Lebushe"},{"_id":788652,"coord":{"lat":42.521671,"lon":21.12583},"country":"XK","name":"Lipljan"},{"_id":788726,"coord":{"lat":42.327782,"lon":20.781111},"country":"XK","name":"Leshan"},{"_id":789199,"coord":{"lat":42.570278,"lon":20.46472},"country":"XK","name":"Kosuriq"},{"_id":789227,"coord":{"lat":42.57806,"lon":21.58028},"country":"XK","name":"Kamenica"},{"_id":789455,"coord":{"lat":42.62167,"lon":20.57778},"country":"XK","name":"Klina"},{"_id":789721,"coord":{"lat":42.231941,"lon":21.259439},"country":"XK","name":"Kacanik"},{"_id":790002,"coord":{"lat":42.557499,"lon":20.30278},"country":"XK","name":"Isniq"},{"_id":790354,"coord":{"lat":42.57835,"lon":20.293461},"country":"XK","name":"Strellc i Eperm"},{"_id":790486,"coord":{"lat":42.544998,"lon":20.307779},"country":"XK","name":"Lluka e Eperme"},{"_id":790701,"coord":{"lat":42.62833,"lon":20.89389},"country":"XK","name":"Glogovac"},{"_id":790704,"co