{"countryCode":"XK","countryName":"Kosovo","countryFilePath":"XK.json","countryCityList":[{"_id":786714,"name":"Pristina","country":"XK","coord":{"lon":21.16688,"lat":42.672722}},{"_id":785234,"name":"Komuna e Thërandës","country":"XK","coord":{"lon":20.85,"lat":42.349998}},{"_id":831101,"name":"Komuna e Shtimes","country":"XK","coord":{"lon":21.01667,"lat":42.416672}},{"_id":787156,"name":"Komuna e Pejës","country":"XK","coord":{"lon":20.28997,"lat":42.659679}},{"_id":831104,"name":"Komuna e Malisheves","country":"XK","coord":{"lon":20.74667,"lat":42.488609}},{"_id":791579,"name":"Komuna e Deçanit","country":"XK","coord":{"lon":20.28816,"lat":42.539101}},{"_id":784096,"name":"Opština Vučitrn","country":"XK","coord":{"lon":20.98333,"lat":42.799999}},{"_id":784097,"name":"Vushtrri","country":"XK","coord":{"lon":20.967501,"lat":42.823059}},{"_id":785238,"name":"Suva Reka","country":"XK","coord":{"lon":20.825001,"lat":42.358608}},{"_id":785485,"name":"Shtime","country":"XK","coord":{"lon":21.039721,"lat":42.43306}},{"_id":788470,"name":"Llazice","country":"XK","coord":{"lon":20.76333,"lat":42.555279}},{"_id":788730,"name":"Komuna e Leposaviqit","country":"XK","coord":{"lon":20.783331,"lat":43.116669}},{"_id":788731,"name":"Leposaviq","country":"XK","coord":{"lon":20.80278,"lat":43.103889}},{"_id":789995,"name":"Komuna e Istogut","country":"XK","coord":{"lon":20.48333,"lat":42.76667}},{"_id":789996,"name":"Istok","country":"XK","coord":{"lon":20.487499,"lat":42.78083}},{"_id":791580,"name":"Decan","country":"XK","coord":{"lon":20.28793,"lat":42.54018}},{"_id":831053,"name":"Republic of Kosovo","country":"XK","coord":{"lon":21.0,"lat":42.583328}},{"_id":784758,"name":"Komuna e Ferizajt","country":"XK","coord":{"lon":21.133329,"lat":42.366669}},{"_id":830382,"name":"Mačitevo","country":"XK","coord":{"lon":21.014721,"lat":42.346111}},{"_id":784371,"name":"Komuna e Vitisë","country":"XK","coord":{"lon":21.366671,"lat":42.333328}},{"_id":858978,"name":"Muadžeri","country":"XK","coord":{"lon":21.328609,"lat":42.35944}},{"_id":786713,"name":"Komuna e Prishtinës","country":"XK","coord":{"lon":21.283331,"lat":42.700001}},{"_id":787824,"name":"Mramor","country":"XK","coord":{"lon":21.299999,"lat":42.662781}},{"_id":786711,"name":"Komuna e Prizrenit","country":"XK","coord":{"lon":20.73333,"lat":42.23333}},{"_id":786712,"name":"Prizren","country":"XK","coord":{"lon":20.739719,"lat":42.21389}},{"_id":831099,"name":"Opština Kosovo Polje","country":"XK","coord":{"lon":21.049999,"lat":42.599998}},{"_id":789228,"name":"Kosovo Polje","country":"XK","coord":{"lon":21.096109,"lat":42.639439}},{"_id":790673,"name":"Komuna e Gjilanit","country":"XK","coord":{"lon":21.450001,"lat":42.466671}},{"_id":790674,"name":"Gjilan","country":"XK","coord":{"lon":21.46986,"lat":42.460449}},{"_id":784759,"name":"Ferizaj","country":"XK","coord":{"lon":21.155279,"lat":42.37056}},{"_id":787455,"name":"Komuna e Rahovecit","country":"XK","coord":{"lon":20.616671,"lat":42.383331}},{"_id":787456,"name":"Orahovac","country":"XK","coord":{"lon":20.65472,"lat":42.399441}},{"_id":791121,"name":"Komuna e Dragashit","country":"XK","coord":{"lon":20.65,"lat":42.0}},{"_id":791122,"name":"Dragash","country":"XK","coord":{"lon":20.65333,"lat":42.0625}},{"_id":785059,"name":"Komuna e Mitrovicës","country":"XK","coord":{"lon":20.883329,"lat":42.916672}},{"_id":789225,"name":"Mitrovice","country":"XK","coord":{"lon":20.866671,"lat":42.883331}},{"_id":789720,"name":"Komuna e Kaçanikut","country":"XK","coord":{"lon":21.25,"lat":42.200001}},{"_id":792919,"name":"Banjica","country":"XK","coord":{"lon":21.16444,"lat":42.287781}},{"_id":786949,"name":"Opština Podujevo","country":"XK","coord":{"lon":21.200001,"lat":42.900002}},{"_id":786950,"name":"Podujeva","country":"XK","coord":{"lon":21.19306,"lat":42.910561}},{"_id":788651,"name":"Komuna e Lipjanit","country":"XK","coord":{"lon":21.116671,"lat":42.5}},{"_id":786606,"name":"Radevo","country":"XK","coord":{"lon":21.05472,"lat":42.573059}},{"_id":787157,"name":"Peje","country":"XK","coord":{"lon":20.28828,"lat":42.65913}},{"_id":783770,"name":"Zvecan","country":"XK","coord":{"lon":20.840281,"lat":42.907501}},{"_id":783802,"name":"Zubin Potok","country":"XK","coord":{"lon":20.68972,"lat":42.91444}},{"_id":784372,"name":"Vitina","country":"XK","coord":{"lon":21.35833,"lat":42.321388}},{"_id":785388,"name":"Strpce","country":"XK","coord":{"lon":21.02722,"lat":42.239441}},{"_id":785642,"name":"Srbica","country":"XK","coord":{"lon":20.78861,"lat":42.74667}},{"_id":786156,"name":"Irzniq","country":"XK","coord":{"lon":20.347219,"lat":42.52}},{"_id":786734,"name":"Prilep","country":"XK","coord":{"lon":20.31778,"lat":42.5075}},{"_id":787155,"name":"Peqan","country":"XK","coord":{"lon":20.821939,"lat":42.38361}},{"_id":787268,"name":"Pagarusa","country":"XK","coord":{"lon":20.74222,"lat":42.419998}},{"_id":787534,"name":"Obiliq","country":"XK","coord":{"lon":21.07028,"lat":42.686939}},{"_id":787650,"name":"Nishor","country":"XK","coord":{"lon":20.80167,"lat":42.423889}},{"_id":788239,"name":"Malisevo","country":"XK","coord":{"lon":20.745831,"lat":42.48222}},{"_id":788536,"name":"Lumbardhi","country":"XK","coord":{"lon":20.34667,"lat":42.546669}},{"_id":788543,"name":"Lebushe","country":"XK","coord":{"lon":20.290831,"lat":42.563061}},{"_id":788652,"name":"Lipljan","country":"XK","coord":{"lon":21.12583,"lat":42.521671}},{"_id":788726,"name":"Leshan","country":"XK","coord":{"lon":20.781111,"lat":42.327782}},{"_id":789199,"name":"Kosuriq","country":"XK","coord":{"lon":20.46472,"lat":42.570278}},{"_id":789227,"name":"Kamenica","country":"XK","coord":{"lon":21.58028,"lat":42.57806}},{"_id":789455,"name":"Klina","country":"XK","coord":{"lon":20.57778,"lat":42.62167}},{"_id":789721,"name":"Kacanik","country":"XK","coord":{"lon":21.259439,"lat":42.231941}},{"_id":790002,"name":"Isniq","country":"XK","coord":{"lon":20.30278,"lat":42.557499}},{"_id":790354,"name":"Strellc i Eperm","country":"XK","coord":{"lon":20.293461,"lat":42.57835}},{"_id":790486,"name":"Lluka e Eperme","country":"XK","coord":{"lon":20.307779,"lat":42.544998}},{"_id":790701,"name":"Glogovac","country":"XK","coord":{"lon":20.89389,"lat":42.62833}},{"_id":790704,"name":"Gllogjan","country":"XK","coord":{"lon":20.36278,"lat":42.507221}},{"_id":790977,"name":"Dubova (Driloni)","country":"XK","coord":{"lon":20.36972,"lat":42.711941}},{"_id":791043,"name":"Dranoc","country":"XK","coord":{"lon":20.292219,"lat":42.51556}},{"_id":791161,"name":"Strellc i Ulet","country":"XK","coord":{"lon":20.316191,"lat":42.580631}},{"_id":791483,"name":"Gjinoc","country":"XK","coord":{"lon":20.818609,"lat":42.318329}},{"_id":792185,"name":"Budakovo","country":"XK","coord":{"lon":20.924999,"lat":42.355}},{"_id":793226,"name":"Papraqan","country":"XK","coord":{"lon":20.33111,"lat":42.55278}},{"_id":830410,"name":"Lloqan","country":"XK","coord":{"lon":20.28083,"lat":42.524441}}]}
