{"countryCityList":[{"_id":7521435,"coord":{"lat":-12.79489,"lon":45.281952},"country":"YT","name":"Pamandzi"},{"_id":921707,"coord":{"lat":-12.79674,"lon":45.279381},"country":"YT","name":"Pamanzi Be"},{"_id":7521426,"coord":{"lat":-12.93497,"lon":45.151058},"country":"YT","name":"Chirongui"},{"_id":1090415,"coord":{"lat":-12.93194,"lon":45.148331},"country":"YT","name":"Chirongui"},{"_id":7521430,"coord":{"lat":-12.73513,"lon":45.20591},"country":"YT","name":"Koungou"},{"_id":1090225,"coord":{"lat":-12.73361,"lon":45.20417},"country":"YT","name":"Koungou"},{"_id":7521425,"coord":{"lat":-12.83072,"lon":45.114071},"country":"YT","name":"Chiconi"},{"_id":1090322,"coord":{"lat":-12.83333,"lon":45.110561},"country":"YT","name":"Chiconi"},{"_id":7521421,"coord":{"lat":-12.72215,"lon":45.058109},"country":"YT","name":"Acoua"},{"_id":922015,"coord":{"lat":-12.72391,"lon":45.058189},"country":"YT","name":"Acoua"},{"_id":7521423,"coord":{"lat":-12.91113,"lon":45.19389},"country":"YT","name":"Bandrele"},{"_id":1024031,"coord":{"lat":-12.83333,"lon":45.166672},"country":"YT","name":"Mayotte"},{"_id":7521431,"coord":{"lat":-12.77966,"lon":45.22831},"country":"YT","name":"Mamoudzou"},{"_id":921815,"coord":{"lat":-12.77944,"lon":45.227219},"country":"YT","name":"Mamoudzou"},{"_id":7521437,"coord":{"lat":-12.78845,"lon":45.10463},"country":"YT","name":"Tsingoni"},{"_id":1090177,"coord":{"lat":-12.78722,"lon":45.102779},"country":"YT","name":"Tsingoni"},{"_id":1090397,"coord":{"lat":-12.90667,"lon":45.191391},"country":"YT","name":"Bandrele"},{"_id":7521432,"coord":{"lat":-12.70013,"lon":45.06918},"country":"YT","name":"Mtsamboro"},{"_id":1090126,"coord":{"lat":-12.69982,"lon":45.068939},"country":"YT","name":"Mtsamboro"},{"_id":921900,"coord":{"lat":-12.7887,"lon":45.269939},"country":"YT","name":"Dzaoudzi"},{"_id":921917,"coord":{"lat":-12.8436,"lon":45.184361},"country":"YT","name":"Dembeni"},{"_id":1090119,"coord":{"lat":-12.7044,"lon":45.122311},"country":"YT","name":"Bandraboua"},{"_id":1090161,"coord":{"lat":-12.75944,"l