{"countryCityList":[{"_id":975511,"coord":{"lat":-27.616409,"lon":32.038609},"country":"ZA","name":"Mkuze"},{"_id":7870412,"coord":{"lat":-26.17061,"lon":28.25263},"country":"ZA","name":"Bartlett"},{"_id":961935,"coord":{"lat":-25.5,"lon":29.200001},"country":"ZA","name":"Rietfontein"},{"_id":1016666,"coord":{"lat":-24.33333,"lon":30.533331},"country":"ZA","name":"Botswana"},{"_id":1014012,"coord":{"lat":-26.069269,"lon":30.114889},"country":"ZA","name":"Carolina"},{"_id":964078,"coord":{"lat":-33.22263,"lon":22.02993},"country":"ZA","name":"Prince Albert"},{"_id":939702,"coord":{"lat":-31.340481,"lon":20.91544},"country":"ZA","name":"Williston"},{"_id":944024,"coord":{"lat":-31.403641,"lon":23.114611},"country":"ZA","name":"Victoria West"},{"_id":988429,"coord":{"lat":-29.40661,"lon":25.00309},"country":"ZA","name":"Koffiefontein"},{"_id":996409,"coord":{"lat":-29.74674,"lon":29.513611},"country":"ZA","name":"Himeville"},{"_id":1002108,"coord":{"lat":-26.23481,"lon":28.176649},"country":"ZA","name":"Germiston"},{"_id":973709,"coord":{"lat":-34.183071,"lon":22.146049},"country":"ZA","name":"Mossel Bay"},{"_id":3363094,"coord":{"lat":-33.73378,"lon":18.975229},"country":"ZA","name":"Paarl"},{"_id":984998,"coord":{"lat":-28.553909,"lon":29.7827},"country":"ZA","name":"Ladysmith"},{"_id":1004962,"coord":{"lat":-29.01269,"lon":29.86619},"country":"ZA","name":"Estcourt"},{"_id":996195,"coord":{"lat":-24.351219,"lon":30.95332},"country":"ZA","name":"Hoedspruit"},{"_id":980595,"coord":{"lat":-25.865219,"lon":25.644211},"country":"ZA","name":"Mafikeng"},{"_id":961152,"coord":{"lat":-34.093449,"lon":21.25725},"country":"ZA","name":"Riversdale"},{"_id":976764,"coord":{"lat":-26.55987,"lon":28.019501},"country":"ZA","name":"Meyerton"},{"_id":972803,"coord":{"lat":-28.417891,"lon":32.18483},"country":"ZA","name":"Mtubatuba"},{"_id":1019933,"coord":{"lat":-28.73122,"lon":29.35187},"country":"ZA","name":"Bergville"},{"_id":1022145,"coord":{"lat":-33.83136,"lon":20.055941},"country":"ZA","name":"Ashton"},{"_id":994418,"coord":{"lat":-30.15,"lon":30.08333},"country":"ZA","name":"Ixopo"},{"_id":978944,"coord":{"lat":-24.96627,"lon":29.29068},"country":"ZA","name":"Marble Hall"},{"_id":944531,"coord":{"lat":-26.314011,"lon":26.822229},"country":"ZA","name":"Ventersdorp"},{"_id":985004,"coord":{"lat":-30.71084,"lon":27.216129},"country":"ZA","name":"Lady Grey"},{"_id":1010967,"coord":{"lat":-23.36669,"lon":29.323709},"country":"ZA","name":"Dendron"},{"_id":1008612,"coord":{"lat":-29.055309,"lon":23.7743},"country":"ZA","name":"Douglas"},{"_id":997861,"coord":{"lat":-30.576429,"lon":29.88401},"country":"ZA","name":"Harding"},{"_id":1012528,"coord":{"lat":-30.027201,"lon":29.83955},"country":"ZA","name":"Creighton"},{"_id":1002917,"coord":{"lat":-26.596121,"lon":24.176121},"country":"ZA","name":"Ganyesa"},{"_id":1011062,"coord":{"lat":-26.68638,"lon":25.45907},"country":"ZA","name":"Delareyville"},{"_id":1004303,"coord":{"lat":-28.872,"lon":27.875059},"country":"ZA","name":"Ficksburg"},{"_id":957339,"coord":{"lat":-26.267509,"lon":28.366421},"country":"ZA","name":"Schapenrust"},{"_id":963525,"coord":{"lat":-31.87101,"lon":26.978621},"country":"ZA","name":"Queensdale"},{"_id":974670,"coord":{"lat":-27.98299,"lon":30.71769},"country":"ZA","name":"Mondlo"},{"_id":985011,"coord":{"lat":-31.703119,"lon":27.232901},"country":"ZA","name":"Lady Frere"},{"_id":1005768,"coord":{"lat":-23.6649,"lon":27.744261},"country":"ZA","name":"Ellisras"},{"_id":1012600,"coord":{"lat":-32.164219,"lon":25.619181},"country":"ZA","name":"Cradock"},{"_id":969582,"coord":{"lat":-31.187361,"lon":24.949909},"country":"ZA","name":"Noupoort"},{"_id":940908,"coord":{"lat":-28.48925,"lon":31.27319},"country":"ZA","name":"Welkom"},{"_id":1003790,"coord":{"lat":-28.093201,"lon":28.195601},"country":"ZA","name":"Fraaiuitzicht"},{"_id":1085598,"coord":{"lat":-26.5,"lon":26},"country":"ZA","name":"Province of North-West"},{"_id":976897,"coord":{"lat":-26.48333,"lon":26.98333},"country":"ZA","name":"Mesa"},{"_id":1085594,"coord":{"lat":-26.08333,"lon":28.25},"country":"ZA","name":"Gauteng"},{"_id":1001642,"coord":{"lat":-26.389891,"lon":27.615919},"country":"ZA","name":"Glenharvie"},{"_id":7302797,"coord":{"lat":-26.132299,"lon":28.168591},"country":"ZA","name":"Eden Glen"},{"_id":1017115,"coord":{"lat":-25.41736,"lon":30.956949},"country":"ZA","name":"Boschrand"},{"_id":1105748,"coord":{"lat":-25.407221,"lon":28.10306},"country":"ZA","name":"Soutpan"},{"_id":1003197,"coord":{"lat":-23.51623,"lon":30.439939},"country":"ZA","name":"Ga-Modjadji"},{"_id":966466,"coord":{"lat":-23.53479,"lon":29.25572},"country":"ZA","name":"Palmietfontein"},{"_id":978678,"coord":{"lat":-23.50816,"lon":29.26236},"country":"ZA","name":"Marowe"},{"_id":979031,"coord":{"lat":-23.09086,"lon":29.399731},"country":"ZA","name":"Mara"},{"_id":986873,"coord":{"lat":-25.719351,"lon":27.315969},"country":"ZA","name":"Kroondal"},{"_id":1013550,"coord":{"lat":-27.914021,"lon":25.16111},"country":"ZA","name":"Christiana"},{"_id":3369086,"coord":{"lat":-33.912392,"lon":18.85507},"country":"ZA","name":"Cloetesville"},{"_id":1022393,"coord":{"lat":-28.756849,"lon":32.061741},"country":"ZA","name":"Arboretum"},{"_id":946877,"coord":{"lat":-33.757568,"lon":25.3971},"country":"ZA","name":"Uitenhage"},{"_id":8063455,"coord":{"lat":-26.0951,"lon":27.976},"country":"ZA","name":"Malanshof"},{"_id":998210,"coord":{"lat":-26.00526,"lon":28.126369},"country":"ZA","name":"Halfway House"},{"_id":1005265,"coord":{"lat":-25.98333,"lon":28.116671},"country":"ZA","name":"Erand"},{"_id":946058,"coord":{"lat":-31.58893,"lon":28.78443},"country":"ZA","name":"Umtata"},{"_id":973537,"coord":{"lat":-29.706671,"lon":31.025101},"country":"ZA","name":"Mount Edgecombe"},{"_id":957655,"coord":{"lat":-26.05447,"lon":28.05891},"country":"ZA","name":"Sandton"},{"_id":3360687,"coord":{"lat":-33.81913,"lon":18.4881},"country":"ZA","name":"Table View"},{"_id":3362349,"coord":{"lat":-33.803421,"lon":19.88537},"country":"ZA","name":"Robertson"},{"_id":951506,"coord":{"lat":-23.316669,"lon":30.716669},"country":"ZA","name":"Sukani"},{"_id":1105773,"coord":{"lat":-25.793501,"lon":28.299999},"country":"ZA","name":"Garsfontein"},{"_id":986820,"coord":{"lat":-26.0979,"lon":27.748409},"country":"ZA","name":"Krugersdorp West"},{"_id":994557,"coord":{"lat":-25.87044,"lon":28.21777},"country":"ZA","name":"Irene"},{"_id":941376,"coord":{"lat":-25.702299,"lon":28.259069},"country":"ZA","name":"Waverley"},{"_id":967827,"coord":{"lat":-23.69117,"lon":27.68828},"country":"ZA","name":"Onverwacht"},{"_id":1006984,"coord":{"lat":-33.015289,"lon":27.911619},"country":"ZA","name":"East London"},{"_id":1016181,"coord":{"lat":-26.236561,"lon":28.369381},"country":"ZA","name":"Brakpan"},{"_id":949880,"coord":{"lat":-25.996361,"lon":28.226801},"country":"ZA","name":"Tembisa"},{"_id":3363675,"coord":{"lat":-31.37656,"lon":19.1122},"country":"ZA","name":"Nieuwoudtville"},{"_id":945260,"coord":{"lat":-26.769251,"lon":27.84984},"country":"ZA","name":"Vaalpark"},{"_id":980921,"coord":{"lat":-25.497681,"lon":28.100651},"country":"ZA","name":"Mabopane"},{"_id":1085597,"coord":{"lat":-24,"lon":29.5},"country":"ZA","name":"Limpopo Province"},{"_id":1023061,"coord":{"lat":-28.762051,"lon":32.00679},"country":"ZA","name":"Alton"},{"_id":3361721,"coord":{"lat":-33.855381,"lon":18.703711},"country":"ZA","name":"Scottsville"},{"_id":3359348,"coord":{"lat":-33.845928,"lon":18.70698},"country":"ZA","name":"Windsor Park"},{"_id":971417,"coord":{"lat":-26.200001,"lon":28.08333},"country":"ZA","name":"Newclare"},{"_id":977734,"coord":{"lat":-30.756359,"lon":30.446119},"country":"ZA","name":"Mbango"},{"_id":943032,"coord":{"lat":-27.365419,"lon":29.88175},"country":"ZA","name":"Volksrust"},{"_id":1001775,"coord":{"lat":-25.966669,"lon":28.15},"country":"ZA","name":"Glen Austin"},{"_id":936374,"coord":{"lat":-26.1625,"lon":27.872499},"country":"ZA","name":"Roodepoort"},{"_id":938457,"coord":{"lat":-27.197399,"lon":25.98311},"country":"ZA","name":"Wolmaransstad"},{"_id":940424,"coord":{"lat":-27.8549,"lon":26.365829},"country":"ZA","name":"Wesselsbron"},{"_id":941931,"coord":{"lat":-28.11396,"lon":24.84753},"country":"ZA","name":"Warrenton"},{"_id":944986,"coord":{"lat":-26.71171,"lon":27.83795},"country":"ZA","name":"Vanderbijlpark"},{"_id":946128,"coord":{"lat":-30.206739,"lon":30.79776},"country":"ZA","name":"Umkomaas"},{"_id":949282,"coord":{"lat":-28.41098,"lon":26.701071},"country":"ZA","name":"Theunissen"},{"_id":949703,"coord":{"lat":-29.20932,"lon":26.83898},"country":"ZA","name":"Thaba Nchu"},{"_id":951650,"coord":{"lat":-32.570759,"lon":27.42396},"country":"ZA","name":"Stutterheim"},{"_id":952192,"coord":{"lat":-26.844931,"lon":26.76829},"country":"ZA","name":"Stilfontein"},{"_id":952865,"coord":{"lat":-26.25,"lon":28.4},"country":"ZA","name":"Springs"},{"_id":956507,"coord":{"lat":-28.31971,"lon":27.620819},"country":"ZA","name":"Senekal"},{"_id":956878,"coord":{"lat":-30.286659,"lon":30.75316},"country":"ZA","name":"Scottburgh"},{"_id":957487,"coord":{"lat":-26.81358,"lon":27.81695},"country":"ZA","name":"Sasolburg"},{"_id":962330,"coord":{"lat":-29.87196,"lon":30.27235},"country":"ZA","name":"Richmond"},{"_id":962847,"coord":{"lat":-27.80138,"lon":28.427259},"country":"ZA","name":"Reitz"},{"_id":963230,"coord":{"lat":-26.184401,"lon":27.70203},"country":"ZA","name":"Randfontein"},{"_id":963516,"coord":{"lat":-31.89756,"lon":26.87533},"country":"ZA","name":"Queenstown"},{"_id":964406,"coord":{"lat":-30.741369,"lon":30.45499},"country":"ZA","name":"Port Shepstone"},{"_id":965401,"coord":{"lat":-28.524229,"lon":28.815821},"country":"ZA","name":"Phuthaditjhaba"},{"_id":966166,"coord":{"lat":-26.903299,"lon":27.45727},"country":"ZA","name":"Parys"},{"_id":966380,"coord":{"lat":-27.783239,"lon":24.687679},"country":"ZA","name":"Pampierstad"},{"_id":970341,"coord":{"lat":-23.887819,"lon":30.287081},"country":"ZA","name":"Nkowakowa"},{"_id":973111,"coord":{"lat":-29.81292,"lon":30.636459},"country":"ZA","name":"Mpumalanga"},{"_id":973139,"coord":{"lat":-29.56822,"lon":30.18618},"country":"ZA","name":"Mpophomeni"},{"_id":975436,"coord":{"lat":-25.85,"lon":25.633329},"country":"ZA","name":"Mmabatho"},{"_id":976361,"coord":{"lat":-25.77507,"lon":29.464821},"country":"ZA","name":"Middelburg"},{"_id":978895,"coord":{"lat":-30.8636,"lon":30.37052},"country":"ZA","name":"Margate"},{"_id":985015,"coord":{"lat":-29.194481,"lon":27.45739},"country":"ZA","name":"Ladybrand"},{"_id":986083,"coord":{"lat":-27.83333,"lon":26.75},"country":"ZA","name":"Kutloanong"},{"_id":986717,"coord":{"lat":-34.00333,"lon":24.731421},"country":"ZA","name":"Kruisfontein"},{"_id":987202,"coord":{"lat":-26.273911,"lon":29.2253},"country":"ZA","name":"Kriel"},{"_id":988698,"coord":{"lat":-34.03627,"lon":23.047131},"country":"ZA","name":"Knysna"},{"_id":996918,"coord":{"lat":-27.97654,"lon":27.024229},"country":"ZA","name":"Hennenman"},{"_id":996930,"coord":{"lat":-26.15881,"lon":29.715281},"country":"ZA","name":"Hendrina"},{"_id":997140,"coord":{"lat":-27.281151,"lon":27.9709},"country":"ZA","name":"Heilbron"},{"_id":997151,"coord":{"lat":-26.504761,"lon":28.359209},"country":"ZA","name":"Heidelberg"},{"_id":997751,"coord":{"lat":-28.27276,"lon":29.129459},"country":"ZA","name":"Harrismith"},{"_id":1000501,"coord":{"lat":-33.304218,"lon":26.532761},"country":"ZA","name":"Grahamstown"},{"_id":1001860,"coord":{"lat":-23.30246,"lon":30.718679},"country":"ZA","name":"Giyani"},{"_id":1002851,"coord":{"lat":-25.61692,"lon":27.994711},"country":"ZA","name":"Ga-Rankuwa"},{"_id":1003764,"coord":{"lat":-27.26667,"lon":28.48333},"country":"ZA","name":"Frankfort"},{"_id":1004109,"coord":{"lat":-26.488621,"lon":27.49387},"country":"ZA","name":"Fochville"},{"_id":1005029,"coord":{"lat":-28.87097,"lon":31.899611},"country":"ZA","name":"eSikhawini"},{"_id":1005646,"coord":{"lat":-26.533331,"lon":29.066669},"country":"ZA","name":"eMbalenhle"},{"_id":1007514,"coord":{"lat":-23.69339,"lon":30.14002},"country":"ZA","name":"Duiwelskloof"},{"_id":1008261,"coord":{"lat":-27.0177,"lon":30.449789},"country":"ZA","name":"Driefontein"},{"_id":1014489,"coord":{"lat":-32.33083,"lon":28.149811},"country":"ZA","name":"Butterworth"},{"_id":1016670,"coord":{"lat":-29.270161,"lon":26.7052},"country":"ZA","name":"Botshabelo"},{"_id":1016698,"coord":{"lat":-27.3887,"lon":26.61701},"country":"ZA","name":"Bothaville"},{"_id":1018673,"coord":{"lat":-27.64686,"lon":25.60697},"country":"ZA","name":"Bloemhof"},{"_id":1019760,"coord":{"lat":-26.457939,"lon":29.46553},"country":"ZA","name":"Bethal"},{"_id":1021360,"coord":{"lat":-29.538971,"lon":31.21439},"country":"ZA","name":"Ballitoville"},{"_id":1023287,"coord":{"lat":-27.754311,"lon":26.64382},"country":"ZA","name":"Allanridge"},{"_id":1105726,"coord":{"lat":-25.69619,"lon":28.74918},"country":"ZA","name":"Ekangala"},{"_id":3363613,"coord":{"lat":-33.704681,"lon":18.965521},"country":"ZA","name":"Noorder-Paarl"},{"_id":3364346,"coord":{"lat":-33.4608,"lon":18.72714},"country":"ZA","name":"Malmesbury"},{"_id":3367513,"coord":{"lat":-34.15152,"lon":19.015091},"country":"ZA","name":"Grabouw"},{"_id":3369129,"coord":{"lat":-33.368889,"lon":19.310961},"country":"ZA","name":"Ceres"},{"_id":3370352,"coord":{"lat":-33.566681,"lon":18.483351},"country":"ZA","name":"Atlantis"},{"_id":953987,"coord":{"lat":-30,"lon":26},"country":"ZA","name":"Republic of South Africa"},{"_id":1085599,"coord":{"lat":-34,"lon":20},"country":"ZA","name":"Province of the Western Cape"},{"_id":963941,"coord":{"lat":-34.268242,"lon":20.07873},"country":"ZA","name":"Protem"},{"_id":3365617,"coord":{"lat":-34.306171,"lon":19.96633},"country":"ZA","name":"Klipdale"},{"_id":3367634,"coord":{"lat":-33.994331,"lon":18.44351},"country":"ZA","name":"Glen Dirk"},{"_id":3362764,"coord":{"lat":-34.019089,"lon":18.47834},"country":"ZA","name":"Plumstead"},{"_id":3361077,"coord":{"lat":-34.074421,"lon":18.47023},"country":"ZA","name":"Steenberg"},{"_id":3363222,"coord":{"lat":-34.016781,"lon":18.505039},"country":"ZA","name":"Ottery"},{"_id":1085593,"coord":{"lat":-32,"lon":26},"country":"ZA","name":"Province of Eastern Cape"},{"_id":957517,"coord":{"lat":-34.01667,"lon":24.5},"country":"ZA","name":"Sardinia Bay"},{"_id":3361025,"coord":{"lat":-33.93462,"lon":18.86676},"country":"ZA","name":"Stellenbosch"},{"_id":3370221,"coord":{"lat":-33.916672,"lon":18.91667},"country":"ZA","name":"Banghoek"},{"_id":3367573,"coord":{"lat":-33.904919,"lon":18.548809},"country":"ZA","name":"Goodwood"},{"_id":3363978,"coord":{"lat":-33.87925,"lon":18.55385},"country":"ZA","name":"Monte Vista"},{"_id":1001783,"coord":{"lat":-33.216671,"lon":26.383329},"country":"ZA","name":"Glen Ambrose"},{"_id":973786,"coord":{"lat":-32.366669,"lon":25.683331},"country":"ZA","name":"Mortimer"},{"_id":1020641,"coord":{"lat":-32.356709,"lon":22.582951},"country":"ZA","name":"Beaufort West"},{"_id":1000543,"coord":{"lat":-32.252151,"lon":24.53075},"country":"ZA","name":"Graaff-Reinet"},{"_id":3367527,"coord":{"lat":-32.154659,"lon":18.603189},"country":"ZA","name":"Graafwater"},{"_id":1085596,"coord":{"lat":-29.5,"lon":22},"country":"ZA","name":"Province of Northern Cape"},{"_id":1013311,"coord":{"lat":-31.08148,"lon":27.44853},"country":"ZA","name":"Clifford"},{"_id":993643,"coord":{"lat":-30.58157,"lon":26.21751},"country":"ZA","name":"Josefsdeel"},{"_id":967573,"coord":{"lat":-29,"lon":26},"country":"ZA","name":"Free State"},{"_id":944403,"coord":{"lat":-30.44841,"lon":26.44364},"country":"ZA","name":"Verdun"},{"_id":964334,"coord":{"lat":-30.204109,"lon":24.108879},"country":"ZA","name":"Potfontein"},{"_id":1015612,"coord":{"lat":-30.58746,"lon":23.50391},"country":"ZA","name":"Britstown"},{"_id":998606,"coord":{"lat":-30.189079,"lon":26.99441},"country":"ZA","name":"Guinesses"},{"_id":972062,"coord":{"lat":-29,"lon":30},"country":"ZA","name":"Province of KwaZulu-Natal"},{"_id":1022953,"coord":{"lat":-30.052191,"lon":30.885269},"country":"ZA","name":"Amanzimtoti"},{"_id":943951,"coord":{"lat":-29.57617,"lon":30.573669},"country":"ZA","name":"Villa Maria"},{"_id":995202,"coord":{"lat":-29.477949,"lon":30.23057},"country":"ZA","name":"Howick"},{"_id":1001719,"coord":{"lat":-29.23333,"lon":30.216669},"country":"ZA","name":"Glendean"},{"_id":978660,"coord":{"lat":-29.1838,"lon":27.287901},"country":"ZA","name":"Marseilles"},{"_id":996571,"coord":{"lat":-29.066669,"lon":26.183331},"country":"ZA","name":"Highlands"},{"_id":972755,"coord":{"lat":-28.984961,"lon":30.37146},"country":"ZA","name":"Muden"},{"_id":997324,"coord":{"lat":-28.07905,"lon":30.1252},"country":"ZA","name":"Hattingspruit"},{"_id":987015,"coord":{"lat":-27.933331,"lon":29.5},"country":"ZA","name":"Kromhof"},{"_id":940909,"coord":{"lat":-27.986441,"lon":26.70661},"country":"ZA","name":"Welkom"},{"_id":1020604,"coord":{"lat":-27.966669,"lon":26.683331},"country":"ZA","name":"Bedelia West"},{"_id":996683,"coord":{"lat":-27.44894,"lon":27.41857},"country":"ZA","name":"Heuningspruit"},{"_id":986958,"coord":{"lat":-27.075411,"lon":28.31756},"country":"ZA","name":"Krompan"},{"_id":994334,"coord":{"lat":-26.33201,"lon":27.98901},"country":"ZA","name":"Jackson’s Drift"},{"_id":991676,"coord":{"lat":-26.299999,"lon":28.23333},"country":"ZA","name":"Kate Hamel"},{"_id":1085595,"coord":{"lat":-26,"lon":30},"country":"ZA","name":"Mpumalanga"},{"_id":1010245,"coord":{"lat":-26.32745,"lon":29.51156},"country":"ZA","name":"Diepfontein"},{"_id":1017780,"coord":{"lat":-26.211969,"lon":28.259581},"country":"ZA","name":"Boksburg"},{"_id":982899,"coord":{"lat":-26.152,"lon":26.159679},"country":"ZA","name":"Lichtenburg"},{"_id":7870444,"coord":{"lat":-26.087469,"lon":28.122601},"country":"ZA","name":"Linbro Park"},{"_id":1008613,"coord":{"lat":-26.02817,"lon":29.368179},"country":"ZA","name":"Douglas"},{"_id":995746,"coord":{"lat":-25.533331,"lon":28.15},"country":"ZA","name":"Honeyvale"},{"_id":1105735,"coord":{"lat":-25.47109,"lon":28.63913},"country":"ZA","name":"Sybrandskraal"},{"_id":964420,"coord":{"lat":-33.917992,"lon":25.57007},"country":"ZA","name":"Port Elizabeth"},{"_id":942071,"coord":{"lat":-33.97789,"lon":25.583549},"country":"ZA","name":"Walmer"},{"_id":8030222,"coord":{"lat":-34.187809,"lon":22.110331},"country":"ZA","name":"Heiderand"},{"_id":949482,"coord":{"lat":-25.798059,"lon":28.290831},"country":"ZA","name":"The Highlands"},{"_id":981117,"coord":{"lat":-25.759741000000002,"lon":28.26506},"country":"ZA","name":"Lynnwood"},{"_id":971421,"coord":{"lat":-27.757959,"lon":29.931801},"country":"ZA","name":"Newcastle"},{"_id":995039,"coord":{"lat":-27.735229,"lon":29.926809},"country":"ZA","name":"Hutton Heights"},{"_id":1007311,"coord":{"lat":-29.857901,"lon":31.0292},"country":"ZA","name":"Durban"},{"_id":972535,"coord":{"lat":-29.84989,"lon":30.994049},"country":"ZA","name":"Musgrave"},{"_id":8184439,"coord":{"lat":-33.81229,"lon":18.65727},"country":"ZA","name":"Vierlanden"},{"_id":948130,"coord":{"lat":-26.49155,"lon":29.228781},"country":"ZA","name":"Trichardt"},{"_id":8063460,"coord":{"lat":-26.108589,"lon":27.91643},"country":"ZA","name":"Radiokop"},{"_id":3366920,"coord":{"lat":-34.030479,"lon":18.831129},"country":"ZA","name":"Helderberg"},{"_id":8030071,"coord":{"lat":-25.82802,"lon":28.28636},"country":"ZA","name":"Moreletapark"},{"_id":7870467,"coord":{"lat":-26.082069,"lon":27.973721},"country":"ZA","name":"Strydompark"},{"_id":989747,"coord":{"lat":-25.36027,"lon":28.33824},"country":"ZA","name":"Klipdrift"},{"_id":981158,"coord":{"lat":-25.097799,"lon":30.459669},"country":"ZA","name":"Lydenburg"},{"_id":7870407,"coord":{"lat":-26.11013,"lon":27.970591},"country":"ZA","name":"Randpark"},{"_id":7302538,"coord":{"lat":-33.915279,"lon":18.41667},"country":"ZA","name":"De Waterkant"},{"_id":965301,"coord":{"lat":-29.616779,"lon":30.39278},"country":"ZA","name":"Pietermaritzburg"},{"_id":964349,"coord":{"lat":-26.716669,"lon":27.1},"country":"ZA","name":"Potchefstroom"},{"_id":1018725,"coord":{"lat":-29.121059,"lon":26.214001},"country":"ZA","name":"Bloemfontein"},{"_id":1002174,"coord":{"lat":-29.14242,"lon":26.20215},"country":"ZA","name":"Generaal de Wet"},{"_id":990873,"coord":{"lat":-29.85,"lon":31.01667},"country":"ZA","name":"Kingsmead"},{"_id":7870450,"coord":{"lat":-26.05085,"lon":27.963039},"country":"ZA","name":"North Riding"},{"_id":993800,"coord":{"lat":-26.202271,"lon":28.043631},"country":"ZA","name":"Johannesburg"},{"_id":1017447,"coord":{"lat":-26.69385,"lon":27.79747},"country":"ZA","name":"Bophelong"},{"_id":959103,"coord":{"lat":-25.62417,"lon":28.09417},"country":"ZA","name":"Rosslyn"},{"_id":1105785,"coord":{"lat":-25.71806,"lon":28.334169},"country":"ZA","name":"Denneboom"},{"_id":991415,"coord":{"lat":-26.108589,"lon":28.2377},"country":"ZA","name":"Kempton Park"},{"_id":1020605,"coord":{"lat":-27.981199,"lon":26.71406},"country":"ZA","name":"Bedelia"},{"_id":949224,"coord":{"lat":-22.945641,"lon":30.48497},"country":"ZA","name":"Thohoyandou"},{"_id":944385,"coord":{"lat":-26.67313,"lon":27.926149},"country":"ZA","name":"Vereeniging"},{"_id":6951112,"coord":{"lat":-34.084011,"lon":18.821131},"country":"ZA","name":"Somerset West"},{"_id":988886,"coord":{"lat":-29.78529,"lon":30.82325},"country":"ZA","name":"Kloof"},{"_id":952200,"coord":{"lat":-34.369301,"lon":21.40748},"country":"ZA","name":"Still Bay"},{"_id":952199,"coord":{"lat":-34.36853,"lon":21.42083},"country":"ZA","name":"Stilbaai-Oos"},{"_id":965289,"coord":{"lat":-23.90448,"lon":29.468849},"country":"ZA","name":"Polokwane"},{"_id":939270,"coord":{"lat":-25.87133,"lon":29.233231},"country":"ZA","name":"Witbank"},{"_id":941728,"coord":{"lat":-25.778629,"lon":28.23802},"country":"ZA","name":"Waterkloof"},{"_id":974532,"coord":{"lat":-25.806881,"lon":28.22691},"country":"ZA","name":"Monument Park"},{"_id":7302802,"coord":{"lat":-33.963329,"lon":18.476391},"country":"ZA","name":"Rondebosch"},{"_id":966196,"coord":{"lat":-26.138639,"lon":28.01737},"country":"ZA","name":"Parkhurst"},{"_id":3368538,"coord":{"lat":-34.01915,"lon":18.455721},"country":"ZA","name":"Doordrift"},{"_id":946973,"coord":{"lat":-23.83322,"lon":30.163509},"country":"ZA","name":"Tzaneen"},{"_id":3369157,"coord":{"lat":-33.925838,"lon":18.42322},"country":"ZA","name":"Cape Town"},{"_id":3363444,"coord":{"lat":-33.936131,"lon":18.467871},"country":"ZA","name":"Observatory"},{"_id":3363901,"coord":{"lat":-33.948021,"lon":18.47333},"country":"ZA","name":"Mowbray"},{"_id":971534,"coord":{"lat":-25.47448,"lon":30.970329},"country":"ZA","name":"Nelspruit"},{"_id":1020098,"coord":{"lat":-26.18848,"lon":28.32078},"country":"ZA","name":"Benoni"},{"_id":958724,"coord":{"lat":-25.667561,"lon":27.242081},"country":"ZA","name":"Rustenburg"},{"_id":1015621,"coord":{"lat":-25.634729,"lon":27.78022},"country":"ZA","name":"Brits"},{"_id":946165,"coord":{"lat":-29.716669,"lon":31.066669},"country":"ZA","name":"Umhlanga"},{"_id":1005125,"coord":{"lat":-26.533331,"lon":29.98333},"country":"ZA","name":"Ermelo"},{"_id":994858,"coord":{"lat":-26.12015,"lon":28.054529},"country":"ZA","name":"Inanda"},{"_id":3368439,"coord":{"lat":-33.909069,"lon":18.395741},"country":"ZA","name":"Drieankerbaai"},{"_id":989921,"coord":{"lat":-26.852131,"lon":26.666719},"country":"ZA","name":"Klerksdorp"},{"_id":3364682,"coord":{"lat":-33.98735,"lon":18.497459},"country":"ZA","name":"Lansdowne"},{"_id":964649,"coord":{"lat":-29.86471,"lon":31.04126},"country":"ZA","name":"Point"},{"_id":1011880,"coord":{"lat":-34.184479,"lon":22.13343},"country":"ZA","name":"Da Nova"},{"_id":962367,"coord":{"lat":-28.78301,"lon":32.037682},"country":"ZA","name":"Richards Bay"},{"_id":949276,"coord":{"lat":-28.790939,"lon":32.097561},"country":"ZA","name":"The Village"},{"_id":3359510,"coord":{"lat":-33.639809,"lon":19.0112},"country":"ZA","name":"Wellington"},{"_id":962597,"coord":{"lat":-29.96455,"lon":30.942921},"country":"ZA","name":"Reunion"},{"_id":994321,"coord":{"lat":-29.91667,"lon":30.98333},"country":"ZA","name":"Jacobs"},{"_id":995409,"coord":{"lat":-33.098209,"lon":27.0158},"country":"ZA","name":"Horton"},{"_id":3361934,"coord":{"lat":-33.011669,"lon":17.944201},"country":"ZA","name":"Saldanha"},{"_id":3369179,"coord":{"lat":-34.229969,"lon":19.4265},"country":"ZA","name":"Caledon"},{"_id":943937,"coord":{"lat":-27.03026,"lon":28.600611},"country":"ZA","name":"Villiers"},{"_id":7290494,"coord":{"lat":-26.1611,"lon":27.693529},"country":"ZA","name":"Greenhills"},{"_id":1012413,"coord":{"lat":-25.670879,"lon":28.52364},"country":"ZA","name":"Cullinan"},{"_id":955407,"coord":{"lat":-27.783331,"lon":22.98333},"country":"ZA","name":"Sishen"},{"_id":1002145,"coord":{"lat":-33.963001,"lon":22.461729},"country":"ZA","name":"George"},{"_id":953781,"coord":{"lat":-26.267811,"lon":27.85849},"country":"ZA","name":"Soweto"},{"_id":979692,"coord":{"lat":-29.88521,"lon":30.925211},"country":"ZA","name":"Malvern"},{"_id":939435,"coord":{"lat":-29.798731,"lon":30.786711},"country":"ZA","name":"Winston Park"},{"_id":996506,"coord":{"lat":-29.77475,"lon":30.76396},"country":"ZA","name":"Hillcrest"},{"_id":1015504,"coord":{"lat":-25.81015,"lon":28.742479},"country":"ZA","name":"Bronkhorstspruit"},{"_id":1015969,"coord":{"lat":-28.700081,"lon":26.459681},"country":"ZA","name":"Brandfort"},{"_id":940316,"coord":{"lat":-26.319059,"lon":27.6486},"country":"ZA","name":"Westonaria"},{"_id":943952,"coord":{"lat":-30.85589,"lon":30.36293},"country":"ZA","name":"Village of Happiness"},{"_id":942470,"coord":{"lat":-27.76952,"lon":30.791651},"country":"ZA","name":"Vryheid"},{"_id":988356,"coord":{"lat":-30.54723,"lon":29.42412},"country":"ZA","name":"Kokstad"},{"_id":952734,"coord":{"lat":-29.328159,"lon":31.289539},"country":"ZA","name":"Stanger"},{"_id":970566,"coord":{"lat":-26.431379,"lon":28.477131},"country":"ZA","name":"Nigel"},{"_id":964315,"coord":{"lat":-24.194361,"lon":29.009741000000002},"country":"ZA","name":"Mokopane"},{"_id":1011031,"coord":{"lat":-26.146601,"lon":28.68322},"country":"ZA","name":"Delmas"},{"_id":938694,"coord":{"lat":-25.33177,"lon":31.01166},"country":"ZA","name":"White River"},{"_id":964712,"coord":{"lat":-34.052738,"lon":23.371599},"country":"ZA","name":"Plettenberg Bay"},{"_id":994493,"coord":{"lat":-29.986389,"lon":30.91853},"country":"ZA","name":"Isipingo"},{"_id":956754,"coord":{"lat":-34.021099,"lon":22.8055},"country":"ZA","name":"Sedgefield"},{"_id":952745,"coord":{"lat":-33.977928,"lon":22.57687},"country":"ZA","name":"Standplaas"},{"_id":1019330,"coord":{"lat":-32.84721,"lon":27.442181},"country":"ZA","name":"Bhisho"},{"_id":3359041,"coord":{"lat":-33.646511,"lon":19.448521},"country":"ZA","name":"Worcester"},{"_id":1019704,"coord":{"lat":-28.23078,"lon":28.30707},"country":"ZA","name":"Bethlehem"},{"_id":956907,"coord":{"lat":-27.188709,"lon":25.329309},"country":"ZA","name":"Schweizer-Reneke"},{"_id":3366880,"coord":{"lat":-34.418701,"lon":19.234461},"country":"ZA","name":"Hermanus"},{"_id":949683,"coord":{"lat":-24.59165,"lon":27.411551},"country":"ZA","name":"Thabazimbi"},{"_id":981827,"coord":{"lat":-23.04385,"lon":29.903191},"country":"ZA","name":"Louis Trichardt"},{"_id":956767,"coord":{"lat":-26.549999,"lon":29.16667},"country":"ZA","name":"Secunda"},{"_id":965241,"coord":{"lat":-27.007059,"lon":30.813231},"country":"ZA","name":"Piet Retief"},{"_id":3358975,"coord":{"lat":-33.344379,"lon":18.16157},"country":"ZA","name":"Yzerfontein"},{"_id":964432,"coord":{"lat":-33.590569,"lon":26.891041},"country":"ZA","name":"Port Alfred"},{"_id":1021040,"coord":{"lat":-28.53537,"lon":24.521508999999998},"country":"ZA","name":"Barkly West"},{"_id":943960,"coord":{"lat":-27.20841,"lon":26.948549},"country":"ZA","name":"Viljoenskroon"},{"_id":990930,"coord":{"lat":-28.73226,"lon":24.76232},"country":"ZA","name":"Kimberley"},{"_id":1021086,"coord":{"lat":-25.78842,"lon":31.05319},"country":"ZA","name":"Barberton"},{"_id":963049,"coord":{"lat":-25.73917,"lon":28.533381},"country":"ZA","name":"Rayton"},{"_id":986846,"coord":{"lat":-27.65036,"lon":27.23488},"country":"ZA","name":"Kroonstad"},{"_id":941966,"coord":{"lat":-24.883329,"lon":28.283331},"country":"ZA","name":"Warmbaths"},{"_id":990802,"coord":{"lat":-33.398289,"lon":25.44278},"country":"ZA","name":"Kirkwood"},{"_id":950709,"coord":{"lat":-34.022621,"lon":20.44171},"country":"ZA","name":"Swellendam"},{"_id":991247,"coord":{"lat":-26.121321,"lon":28.09573},"country":"ZA","name":"Kew"},{"_id":1015420,"coord":{"lat":-29.19655,"lon":29.98381},"country":"ZA","name":"Brown Stones"},{"_id":3360934,"coord":{"lat":-34.106869,"lon":18.827511},"country":"ZA","name":"Strand"},{"_id":962649,"coord":{"lat":-29.802441,"lon":30.942699},"country":"ZA","name":"Reservoir Hills"},{"_id":954161,"coord":{"lat":-32.721729,"lon":25.588039},"country":"ZA","name":"Somerset East"},{"_id":3364795,"coord":{"lat":-33.097511,"lon":18.0315},"country":"ZA","name":"Langebaan"},{"_id":967476,"coord":{"lat":-26.98023,"lon":26.67272},"country":"ZA","name":"Orkney"},{"_id":943882,"coord":{"lat":-28.10391,"lon":26.865931},"country":"ZA","name":"Virginia"},{"_id":969619,"coord":{"lat":-29.35,"lon":29.98333},"country":"ZA","name":"Nottingham Road"},{"_id":965528,"coord":{"lat":-23.942989,"lon":31.141069},"country":"ZA","name":"Phalaborwa"},{"_id":3362864,"coord":{"lat":-33.942219,"lon":18.506809},"country":"ZA","name":"Pinelands"},{"_id":1007400,"coord":{"lat":-28.16678,"lon":30.233709},"country":"ZA","name":"Dundee"},{"_id":993911,"coord":{"lat":-34.05064,"lon":24.9195},"country":"ZA","name":"Jeffreys Bay"},{"_id":984087,"coord":{"lat":-24.200001,"lon":29.5},"country":"ZA","name":"Lebowakgomo"},{"_id":968665,"coord":{"lat":-24.700001,"lon":28.4},"country":"ZA","name":"Modimolle"},{"_id":1023672,"coord":{"lat":-33.548328,"lon":25.689899},"country":"ZA","name":"Addo"},{"_id":1013397,"coord":{"lat":-28.5154,"lon":28.419849},"country":"ZA","name":"Clarens"},{"_id":940377,"coord":{"lat":-26.90514,"lon":27.44523},"country":"ZA","name":"West End"},{"_id":945094,"coord":{"lat":-25.80584,"lon":28.149429},"country":"ZA","name":"Valhalla"},{"_id":7778818,"coord":{"lat":-26.181351,"lon":28.003851},"country":"ZA","name":"Auckland Park"},{"_id":1013081,"coord":{"lat":-28.739321,"lon":29.825821},"country":"ZA","name":"Colenso"},{"_id":1014073,"coord":{"lat":-26.360941,"lon":27.397671},"country":"ZA","name":"Carletonville"},{"_id":1011951,"coord":{"lat":-34.19891,"lon":22.03891},"country":"ZA","name":"Danabaai"},{"_id":1022108,"coord":{"lat":-34.079971,"lon":24.905689},"country":"ZA","name":"Aston Bay"},{"_id":996256,"coord":{"lat":-28.01895,"lon":32.26762},"country":"ZA","name":"Hluhluwe"},{"_id":1013886,"coord":{"lat":-29.73333,"lon":30.58333},"country":"ZA","name":"Cato Ridge"},{"_id":958435,"coord":{"lat":-25.03586,"lon":31.113899},"country":"ZA","name":"Sabierivier"},{"_id":3364791,"coord":{"lat":-32.974449,"lon":18.1488},"country":"ZA","name":"Langebaanweg"},{"_id":942511,"coord":{"lat":-26.956591,"lon":24.728399},"country":"ZA","name":"Vryburg"},{"_id":8063768,"coord":{"lat":-26.147079,"lon":28.052601},"country":"ZA","name":"Melrose Estate"},{"_id":3364246,"coord":{"lat":-33.94725,"lon":19.82906},"country":"ZA","name":"McGregor"},{"_id":956098,"coord":{"lat":-30.80064,"lon":30.41427},"country":"ZA","name":"Shelly Beach"},{"_id":949049,"coord":{"lat":-26.65406,"lon":27.97621},"country":"ZA","name":"Three Rivers"},{"_id":1003953,"coord":{"lat":-32.774769,"lon":26.63376},"country":"ZA","name":"Fort Beaufort"},{"_id":945995,"coord":{"lat":-29.79084,"lon":29.49448},"country":"ZA","name":"Underberg"},{"_id":944120,"coord":{"lat":-29.6434,"lon":31.0471},"country":"ZA","name":"Verulam"},{"_id":1005040,"coord":{"lat":-28.88648,"lon":31.4699},"country":"ZA","name":"Eshowe"},{"_id":3368039,"coord":{"lat":-33.930729,"lon":18.585409},"country":"ZA","name":"Elsiesrivier"},{"_id":3368014,"coord":{"lat":-33.935081,"lon":18.57756},"country":"ZA","name":"Epping Forest"},{"_id":1021396,"coord":{"lat":-26.663309,"lon":28.59016},"country":"ZA","name":"Balfour"},{"_id":952747,"coord":{"lat":-26.933661,"lon":29.24152},"country":"ZA","name":"Standerton"},{"_id":1005976,"coord":{"lat":-25.831881,"lon":28.255381},"country":"ZA","name":"Elarduspark"},{"_id":3367877,"coord":{"lat":-33.910751,"lon":19.119801},"country":"ZA","name":"Franschhoek"},{"_id":1014257,"coord":{"lat":-33.532318,"lon":21.68862},"country":"ZA","name":"Calitzdorp"},{"_id":972206,"coord":{"lat":-24.51667,"lon":28.716669},"country":"ZA","name":"Naboomspruit"},{"_id":940359,"coord":{"lat":-26.16667,"lon":27.883329},"country":"ZA","name":"Western Township"},{"_id":987648,"coord":{"lat":-25.86301,"lon":26.89756},"country":"ZA","name":"Koster"},{"_id":990825,"coord":{"lat":-26.41663,"lon":29.086679},"country":"ZA","name":"Kinross"},{"_id":1000065,"coord":{"lat":-29.783331,"lon":31.01667},"country":"ZA","name":"Greenwood Park"},{"_id":963961,"coord":{"lat":-29.80006,"lon":31.02973},"country":"ZA","name":"Prospect"},{"_id":945142,"coord":{"lat":-24.16667,"lon":28.1},"country":"ZA","name":"Vaalwater"},{"_id":1001736,"coord":{"lat":-28.17827,"lon":30.14702},"country":"ZA","name":"Glencoe"},{"_id":3361084,"coord":{"lat":-34.4394,"lon":19.45615},"country":"ZA","name":"Stanford"},{"_id":941812,"coord":{"lat":-29.40661,"lon":31.05022},"country":"ZA","name":"Waterfall"},{"_id":3362671,"coord":{"lat":-34.348179,"lon":18.827061},"country":"ZA","name":"Pringle Bay"},{"_id":963528,"coord":{"lat":-29.877689,"lon":30.906429},"country":"ZA","name":"Queensburgh"},{"_id":1020310,"coord":{"lat":-29.891951,"lon":30.950621},"country":"ZA","name":"Bellair"},{"_id":990849,"coord":{"lat":-32.88031,"lon":27.394541},"country":"ZA","name":"King William’s Town"},{"_id":958441,"coord":{"lat":-25.099899,"lon":30.78001},"country":"ZA","name":"Sabie"},{"_id":990902,"coord":{"lat":-30.08333,"lon":30.866671},"country":"ZA","name":"Kingsborough"},{"_id":3359094,"coord":{"lat":-33.414028,"lon":19.20052},"country":"ZA","name":"Wolseley"},{"_id":1023309,"coord":{"lat":-30.693661,"lon":26.711411},"country":"ZA","name":"Aliwal North"},{"_id":955313,"coord":{"lat":-25.11319,"lon":29.04454},"country":"ZA","name":"Siyabuswa"},{"_id":3369183,"coord":{"lat":-34.059978,"lon":18.485701},"country":"ZA","name":"Cafda Village"},{"_id":3363441,"coord":{"lat":-34.148609,"lon":18.353649},"country":"ZA","name":"Ocean View"},{"_id":3367458,"coord":{"lat":-34.047199,"lon":18.498631},"country":"ZA","name":"Grassy Park"},{"_id":964424,"coord":{"lat":-31.050671,"lon":30.227989},"country":"ZA","name":"Port Edward"},{"_id":982587,"coord":{"lat":-26.12092,"lon":27.89085},"country":"ZA","name":"Little Falls"},{"_id":1011858,"coord":{"lat":-25.740471,"lon":28.12747},"country":"ZA","name":"Danville"},{"_id":964132,"coord":{"lat":-25.754419,"lon":28.161249},"country":"ZA","name":"Pretoria-Wes"},{"_id":1013888,"coord":{"lat":-29.860701,"lon":30.945801},"country":"ZA","name":"Cato Manor"},{"_id":940504,"coord":{"lat":-26.200001,"lon":28.01667},"country":"ZA","name":"Wemmer"},{"_id":966189,"coord":{"lat":-26.161909,"lon":28.027321},"country":"ZA","name":"Parkview"},{"_id":1007968,"coord":{"lat":-30.938089,"lon":22.1341},"country":"ZA","name":"Drieweeksleegte"},{"_id":945970,"coord":{"lat":-33.658951,"lon":23.123171},"country":"ZA","name":"Uniondale"},{"_id":972674,"coord":{"lat":-26.037041,"lon":27.8512},"country":"ZA","name":"Muldersdrift"},{"_id":1015714,"coord":{"lat":-26.13526,"lon":28.29258},"country":"ZA","name":"Brentwood Park"},{"_id":1013911,"coord":{"lat":-32.2985,"lon":27.14362},"country":"ZA","name":"Cathcart"},{"_id":937136,"coord":{"lat":-25.536949,"lon":26.075121},"country":"ZA","name":"Zeerust"},{"_id":3363171,"coord":{"lat":-34.083328,"lon":18.433331},"country":"ZA","name":"Oude Raapkraal"},{"_id":1012080,"coord":{"lat":-29.340931,"lon":30.631189},"country":"ZA","name":"Dalton"},{"_id":3369174,"coord":{"lat":-31.47069,"lon":19.776011},"country":"ZA","name":"Calvinia"},{"_id":941976,"coord":{"lat":-27.854521,"lon":28.9653},"country":"ZA","name":"Warden"},{"_id":940394,"coord":{"lat":-29.59215,"lon":31.165489},"country":"ZA","name":"Westbrook"},{"_id":979330,"coord":{"lat":-29.866671,"lon":30.98333},"country":"ZA","name":"Manor Gardens"},{"_id":8063413,"coord":{"lat":-25.746401,"lon":28.221371},"country":"ZA","name":"Arcadia"},{"_id":1017354,"coord":{"lat":-24.835991,"lon":31.067181},"country":"ZA","name":"Bosbokrand"},{"_id":3369083,"coord":{"lat":-34.12487,"lon":18.43276},"country":"ZA","name":"Clovelly"},{"_id":3369090,"coord":{"lat":-33.93684,"lon":18.379141},"country":"ZA","name":"Clifton"},{"_id":3361711,"coord":{"lat":-33.918579,"lon":18.389681},"country":"ZA","name":"Sea Point"},{"_id":942683,"coord":{"lat":-27.008051,"lon":27.364599},"country":"ZA","name":"Vredefort"},{"_id":966737,"coord":{"lat":-26.183331,"lon":27.883329},"country":"ZA","name":"Paardekraal"},{"_id":977363,"coord":{"lat":-26.200001,"lon":27.883329},"country":"ZA","name":"Meadowlands"},{"_id":7870410,"coord":{"lat":-26.161449,"lon":27.974621},"country":"ZA","name":"Albertskroon"},{"_id":971377,"coord":{"lat":-29.35519,"lon":30.528021},"country":"ZA","name":"New Hanover"},{"_id":3368962,"coord":{"lat":-33.37817,"lon":18.379379},"country":"ZA","name":"Darling"},{"_id":986822,"coord":{"lat":-26.08577,"lon":27.77515},"country":"ZA","name":"Krugersdorp"},{"_id":1105777,"coord":{"lat":-25.85891,"lon":28.18577},"country":"ZA","name":"Centurion"},{"_id":7871282,"coord":{"lat":-33.85231,"lon":18.69684},"country":"ZA","name":"Cape Gate"},{"_id":961226,"coord":{"lat":-29.03801,"lon":24.602779},"country":"ZA","name":"Ritchie"},{"_id":968453,"coord":{"lat":-24.081579,"lon":30.3957},"country":"ZA","name":"Ofcolaco"},{"_id":956375,"coord":{"lat":-23.84664,"lon":29.38802},"country":"ZA","name":"Seshego"},{"_id":3362324,"coord":{"lat":-33.916672,"lon":18.433331},"country":"ZA","name":"Roggebaai"},{"_id":964137,"coord":{"lat":-25.74486,"lon":28.18783},"country":"ZA","name":"Pretoria"},{"_id":979691,"coord":{"lat":-26.203039,"lon":28.10165},"country":"ZA","name":"Malvern"},{"_id":956839,"coord":{"lat":-30.69611,"lon":30.491871},"country":"ZA","name":"Sea Park"},{"_id":967542,"coord":{"lat":-29.81381,"lon":24.41205},"country":"ZA","name":"Orania"},{"_id":982701,"coord":{"lat":-27.879101,"lon":27.913481},"country":"ZA","name":"Lindley"},{"_id":1023365,"coord":{"lat":-33.653461,"lon":26.41268},"country":"ZA","name":"Alexandria"},{"_id":3363913,"coord":{"lat":-33.900269,"lon":18.40531},"country":"ZA","name":"Mouille Point"},{"_id":974933,"coord":{"lat":-25.185049,"lon":27.266541},"country":"ZA","name":"Mogwase"},{"_id":1012358,"coord":{"lat":-29.360001,"lon":30.14007},"country":"ZA","name":"Curry’s Post"},{"_id":1003844,"coord":{"lat":-28.58333,"lon":28.133329},"country":"ZA","name":"Fouriesburg"},{"_id":982771,"coord":{"lat":-28.361959,"lon":23.469919},"country":"ZA","name":"Lime Acres"},{"_id":994257,"coord":{"lat":-29.761259,"lon":25.427059},"country":"ZA","name":"Jagersfontein"},{"_id":3368192,"coord":{"lat":-33.87241,"lon":18.53977},"country":"ZA","name":"Edgemead"},{"_id":3363983,"coord":{"lat":-33.863522,"lon":18.520321},"country":"ZA","name":"Montague Gardens"},{"_id":954486,"coord":{"lat":-30.213659,"lon":26.530701},"country":"ZA","name":"Smithfield"},{"_id":1019031,"coord":{"lat":-33.946419,"lon":22.41153},"country":"ZA","name":"Blanco"},{"_id":1005781,"coord":{"lat":-31.33333,"lon":27.85},"country":"ZA","name":"Elliot"},{"_id":1023698,"coord":{"lat":-30.03199,"lon":30.81568},"country":"ZA","name":"Adams College"},{"_id":951271,"coord":{"lat":-32.394348,"lon":20.66107},"country":"ZA","name":"Sutherland"},{"_id":1011632,"coord":{"lat":-30.64966,"lon":24.0123},"country":"ZA","name":"De Aar"},{"_id":983065,"coord":{"lat":-26.367371,"lon":28.9189},"country":"ZA","name":"Leslie"},{"_id":3363453,"coord":{"lat":-33.833328,"lon":18.683331},"country":"ZA","name":"Oakdale"},{"_id":1013675,"coord":{"lat":-29.918659,"lon":30.891701},"country":"ZA","name":"Chatsworth"},{"_id":982103,"coord":{"lat":-33.967232,"lon":25.51545},"country":"ZA","name":"Lorraine"},{"_id":951350,"coord":{"lat":-33.953991,"lon":25.52948},"country":"ZA","name":"Sunridge Park"},{"_id":3366939,"coord":{"lat":-34.047642,"lon":18.468081},"country":"ZA","name":"Heathfield"},{"_id":1023517,"coord":{"lat":-34.8223,"lon":20.01734},"country":"ZA","name":"Agulhas"},{"_id":976358,"coord":{"lat":-31.492849,"lon":25.00633},"country":"ZA","name":"Middelburg"},{"_id":1015657,"coord":{"lat":-29.939569,"lon":31.0009},"country":"ZA","name":"Brighton Beach"},{"_id":1005544,"coord":{"lat":-28.761971,"lon":31.89329},"country":"ZA","name":"Empangeni"},{"_id":966305,"coord":{"lat":-28.75383,"lon":31.89113},"country":"ZA","name":"Panorama"},{"_id":1012724,"coord":{"lat":-27.23226,"lon":28.852261},"country":"ZA","name":"Cornelia"},{"_id":971352,"coord":{"lat":-29.816669,"lon":31.01667},"country":"ZA","name":"New Kingsmead"},{"_id":1007420,"coord":{"lat":-33.01226,"lon":27.863319},"country":"ZA","name":"Duncan Village"},{"_id":1000116,"coord":{"lat":-33.033298,"lon":27.86216},"country":"ZA","name":"Greenfields"},{"_id":3362001,"coord":{"lat":-33.895721,"lon":18.49012},"country":"ZA","name":"Rugby"},{"_id":984896,"coord":{"lat":-29.639179,"lon":31.13106},"country":"ZA","name":"La Mercy"},{"_id":1022391,"coord":{"lat":-27.777161,"lon":29.950899},"country":"ZA","name":"Arbor Park"},{"_id":1105774,"coord":{"lat":-25.70546,"lon":28.314951},"country":"ZA","name":"Eersterus"},{"_id":1006978,"coord":{"lat":-25.70664,"lon":28.277769},"country":"ZA","name":"East Lynne"},{"_id":963944,"coord":{"lat":-26.033331,"lon":27.75},"country":"ZA","name":"Protea Ridge"},{"_id":3370331,"coord":{"lat":-32.705959,"lon":18.48514},"country":"ZA","name":"Aurora"},{"_id":982332,"coord":{"lat":-26.11832,"lon":28.124729},"country":"ZA","name":"Lombardy East"},{"_id":981139,"coord":{"lat":-26.12752,"lon":28.109051},"country":"ZA","name":"Lyndhurst"},{"_id":972138,"coord":{"lat":-26.303949,"lon":27.917879},"country":"ZA","name":"Nancefield"},{"_id":1005928,"coord":{"lat":-26.297119,"lon":27.89784},"country":"ZA","name":"Eldoradopark"},{"_id":1023454,"coord":{"lat":-29.44039,"lon":30.433439},"country":"ZA","name":"Albert Falls"},{"_id":1001632,"coord":{"lat":-33.950001,"lon":25.566669},"country":"ZA","name":"Glenhurd"},{"_id":1013337,"coord":{"lat":-29.793119,"lon":30.897881},"country":"ZA","name":"Clermont"},{"_id":1010728,"coord":{"lat":-33.490349,"lon":22.535231},"country":"ZA","name":"De Rust"},{"_id":937246,"coord":{"lat":-30.30225,"lon":27.08395},"country":"ZA","name":"Zastron"},{"_id":973971,"coord":{"lat":-32.704601,"lon":28.34112},"country":"ZA","name":"Morgan’s Bay"},{"_id":3370147,"coord":{"lat":-33.944809,"lon":18.62701},"country":"ZA","name":"Belhar"},{"_id":3369035,"coord":{"lat":-33.99445,"lon":18.59598},"country":"ZA","name":"Crossroads"},{"_id":982758,"coord":{"lat":-28.840731,"lon":22.50614},"country":"ZA","name":"Limewell"},{"_id":939493,"coord":{"lat":-25.82593,"lon":28.26709},"country":"ZA","name":"Wingate Park"},{"_id":981084,"coord":{"lat":-25.82988,"lon":28.2012},"country":"ZA","name":"Lyttelton"},{"_id":955487,"coord":{"lat":-25.676291,"lon":28.21987},"country":"ZA","name":"Sinoville"},{"_id":3359736,"coord":{"lat":-31.668329,"lon":18.50119},"country":"ZA","name":"Vredendal"},{"_id":8063447,"coord":{"lat":-29.75946,"lon":31.053711},"country":"ZA","name":"Glen Ashley"},{"_id":995160,"coord":{"lat":-26.97398,"lon":24.74107},"country":"ZA","name":"Huhudi"},{"_id":976539,"coord":{"lat":-31.55892,"lon":28.690571},"country":"ZA","name":"Mhlahlane"},{"_id":945945,"coord":{"lat":-28.44776,"lon":21.256121},"country":"ZA","name":"Upington"},{"_id":946257,"coord":{"lat":-28.33523,"lon":31.41617},"country":"ZA","name":"Ulundi"},{"_id":941225,"coord":{"lat":-23.85,"lon":30.383329},"country":"ZA","name":"Welbeloond"},{"_id":991664,"coord":{"lat":-27.69569,"lon":23.04929},"country":"ZA","name":"Kathu"},{"_id":3361142,"coord":{"lat":-29.664339,"lon":17.886499},"country":"ZA","name":"Springbok"},{"_id":951511,"coord":{"lat":-28.72192,"lon":32.042461},"country":"ZA","name":"Suits Me"},{"_id":944595,"coord":{"lat":-28.739941,"lon":32.061619},"country":"ZA","name":"Veldenvlei"},{"_id":995808,"coord":{"lat":-31.93598,"lon":26.89595},"country":"ZA","name":"Home Park"},{"_id":1005401,"coord":{"lat":-23.85747,"lon":29.46512},"country":"ZA","name":"Enkelbosch"},{"_id":980984,"coord":{"lat":-25.280531,"lon":27.204651},"country":"ZA","name":"Mabele-a-podi"},{"_id":965960,"coord":{"lat":-29.630739,"lon":30.3895},"country":"ZA","name":"Pelham"},{"_id":1014202,"coord":{"lat":-31.593019,"lon":29.5261},"country":"ZA","name":"Camerondale"},{"_id":953975,"coord":{"lat":-33.984039,"lon":25.611361},"country":"ZA","name":"Port Elizabeth Airport"},{"_id":942360,"coord":{"lat":-34.10078,"lon":23.342501},"country":"ZA","name":"Vyekraal"},{"_id":967106,"coord":{"lat":-33.590672,"lon":22.201401},"country":"ZA","name":"Oudtshoorn"},{"_id":940445,"coord":{"lat":-33.594101,"lon":22.19264},"country":"ZA","name":"Wesbank"},{"_id":978352,"coord":{"lat":-25.47629,"lon":30.92782},"country":"ZA","name":"Mataffin"},{"_id":1010511,"coord":{"lat":-34.1576,"lon":22.10376},"country":"ZA","name":"Diasstrand"},{"_id":982393,"coord":{"lat":-25.798679,"lon":25.570009},"country":"ZA","name":"Lokaleng"},{"_id":1004666,"coord":{"lat":-30.85,"lon":30.33333},"country":"ZA","name":"Faerie Glen"},{"_id":961331,"coord":{"lat":-23.078739,"lon":29.87392},"country":"ZA","name":"Rietvlei"},{"_id":7646541,"coord":{"lat":-25.93981,"lon":27.934891},"country":"ZA","name":"Lanseria"},{"_id":3365707,"coord":{"lat":-29.677139,"lon":17.0709},"country":"ZA","name":"Kleinsee"},{"_id":988290,"coord":{"lat":-25.433201,"lon":31.954781},"country":"ZA","name":"Komatipoort"},{"_id":1007195,"coord":{"lat":-25.359751,"lon":31.100321},"country":"ZA","name":"Dwaleni"},{"_id":960812,"coord":{"lat":-28.78916,"lon":24.75688},"country":"ZA","name":"Ronald’s Vlei"},{"_id":7870390,"coord":{"lat":-26.240999,"lon":28.132469},"country":"ZA","name":"Alberton North"},{"_id":7304422,"coord":{"lat":-34.048321,"lon":22.397091},"country":"ZA","name":"Herolds Bay"},{"_id":1105776,"coord":{"lat":-25.96361,"lon":28.137779},"country":"ZA","name":"Midrand"},{"_id":939666,"coord":{"lat":-33.041382,"lon":27.816481},"country":"ZA","name":"Willow Park"},{"_id":1014884,"coord":{"lat":-32.884361,"lon":27.252859},"country":"ZA","name":"Bulembu"},{"_id":3365164,"coord":{"lat":-28.56181,"lon":16.54413},"country":"ZA","name":"Kortdoorn"},{"_id":976885,"coord":{"lat":-22.351311,"lon":30.0396},"country":"ZA","name":"Messina"},{"_id":939608,"coord":{"lat":-28.518049,"lon":27.009331},"country":"ZA","name":"Winburg"},{"_id":939676,"coord":{"lat":-33.292648,"lon":23.48954},"country":"ZA","name":"Willowmore"},{"_id":940186,"coord":{"lat":-32.17588,"lon":26.824369},"country":"ZA","name":"Whittlesea"},{"_id":942701,"coord":{"lat":-27.42573,"lon":29.16585},"country":"ZA","name":"Vrede"},{"_id":944540,"coord":{"lat":-28.085609,"lon":27.13814},"country":"ZA","name":"Ventersburg"},{"_id":945813,"coord":{"lat":-27.658621,"lon":30.321659},"country":"ZA","name":"Utrecht"},{"_id":949026,"coord":{"lat":-24.72459,"lon":31.19939},"country":"ZA","name":"Thulamahashi"},{"_id":951441,"coord":{"lat":-29.133711,"lon":31.39752},"country":"ZA","name":"Sundumbili"},{"_id":964090,"coord":{"lat":-29.664089,"lon":22.747419},"country":"ZA","name":"Prieska"},{"_id":964408,"coord":{"lat":-31.62291,"lon":29.544769},"country":"ZA","name":"Port Saint Johns"},{"_id":967580,"coord":{"lat":-26.48333,"lon":27.866671},"country":"ZA","name":"Orange Farm"},{"_id":972673,"coord":{"lat":-26.03673,"lon":27.83798},"country":"ZA","name":"Muldersdriseloop"},{"_id":974222,"coord":{"lat":-29.208241,"lon":29.9946},"country":"ZA","name":"Mooirivier"},{"_id":974719,"coord":{"lat":-31.396761,"lon":26.362459},"country":"ZA","name":"Molteno"},{"_id":975144,"coord":{"lat":-26.08909,"lon":28.16534},"country":"ZA","name":"Modderfontein"},{"_id":978677,"coord":{"lat":-28.66449,"lon":27.430479},"country":"ZA","name":"Marquard"},{"_id":979365,"coord":{"lat":-23.9,"lon":29.816669},"country":"ZA","name":"Mankoeng"},{"_id":986134,"coord":{"lat":-27.4524,"lon":23.432461},"country":"ZA","name":"Kuruman"},{"_id":987875,"coord":{"lat":-27.241791,"lon":27.574221},"country":"ZA","name":"Koppies"},{"_id":994023,"coord":{"lat":-27.922461,"lon":24.830521},"country":"ZA","name":"Jan Kempdorp"},{"_id":994939,"coord":{"lat":-31.976761,"lon":27.042669},"country":"ZA","name":"Ilinge"},{"_id":995573,"coord":{"lat":-27.832741,"lon":25.908331},"country":"ZA","name":"Hoopstad"},{"_id":1000006,"coord":{"lat":-29.064159,"lon":30.592791},"country":"ZA","name":"Greytown"},{"_id":1003462,"coord":{"lat":-23.633329,"lon":30.216669},"country":"ZA","name":"GAKGAPANE"},{"_id":1006420,"coord":{"lat":-28.46752,"lon":30.15513},"country":"ZA","name":"Ekuvukeni"},{"_id":1008858,"coord":{"lat":-31.372,"lon":27.04878},"country":"ZA","name":"Dordrecht"},{"_id":1010962,"coord":{"lat":-26.8908,"lon":28.097071},"country":"ZA","name":"Deneysville"},{"_id":1011918,"coord":{"lat":-28.18873,"lon":23.539511},"country":"ZA","name":"Danielskuil"},{"_id":1013076,"coord":{"lat":-30.71999,"lon":25.097179},"country":"ZA","name":"Colesberg"},{"_id":1013266,"coord":{"lat":-28.91367,"lon":27.565559},"country":"ZA","name":"Clocolan"},{"_id":1014034,"coord":{"lat":-30.968269,"lon":22.13303},"country":"ZA","name":"Carnarvon"},{"_id":1014653,"coord":{"lat":-30.99766,"lon":26.328621},"country":"ZA","name":"Burgersdorp"},{"_id":1015694,"coord":{"lat":-26.30176,"lon":29.986959},"country":"ZA","name":"Breyten"},{"_id":1015776,"coord":{"lat":-34.53215,"lon":20.04031},"country":"ZA","name":"Bredasdorp"},{"_id":1020066,"coord":{"lat":-29.851851,"lon":30.99337},"country":"ZA","name":"Berea"},{"_id":1020340,"coord":{"lat":-25.689911,"lon":30.03504},"country":"ZA","name":"Belfast"},{"_id":1023332,"coord":{"lat":-32.787491,"lon":26.8344},"country":"ZA","name":"Alice"},{"_id":1023656,"coord":{"lat":-32.70747,"lon":26.295641},"country":"ZA","name":"Adelaide"},{"_id":3362024,"coord":{"lat":-33.955559,"lon":18.474171},"country":"ZA","name":"Rosebank"},{"_id":3369056,"coord":{"lat":-34.031391,"lon":18.418329},"country":"ZA","name":"Constantia"},{"_id":3369098,"coord"