{"countryCode":"ZA","countryName":"South Africa","countryFilePath":"ZA.json","countryCityList":[{"_id":975511,"name":"Mkuze","country":"ZA","coord":{"lon":32.038609,"lat":-27.616409}},{"_id":7870412,"name":"Bartlett","country":"ZA","coord":{"lon":28.25263,"lat":-26.17061}},{"_id":961935,"name":"Rietfontein","country":"ZA","coord":{"lon":29.200001,"lat":-25.5}},{"_id":1016666,"name":"Botswana","country":"ZA","coord":{"lon":30.533331,"lat":-24.33333}},{"_id":1014012,"name":"Carolina","country":"ZA","coord":{"lon":30.114889,"lat":-26.069269}},{"_id":964078,"name":"Prince Albert","country":"ZA","coord":{"lon":22.02993,"lat":-33.22263}},{"_id":939702,"name":"Williston","country":"ZA","coord":{"lon":20.91544,"lat":-31.340481}},{"_id":944024,"name":"Victoria West","country":"ZA","coord":{"lon":23.114611,"lat":-31.403641}},{"_id":988429,"name":"Koffiefontein","country":"ZA","coord":{"lon":25.00309,"lat":-29.40661}},{"_id":996409,"name":"Himeville","country":"ZA","coord":{"lon":29.513611,"lat":-29.74674}},{"_id":1002108,"name":"Germiston","country":"ZA","coord":{"lon":28.176649,"lat":-26.23481}},{"_id":973709,"name":"Mossel Bay","country":"ZA","coord":{"lon":22.146049,"lat":-34.183071}},{"_id":3363094,"name":"Paarl","country":"ZA","coord":{"lon":18.975229,"lat":-33.73378}},{"_id":984998,"name":"Ladysmith","country":"ZA","coord":{"lon":29.7827,"lat":-28.553909}},{"_id":1004962,"name":"Estcourt","country":"ZA","coord":{"lon":29.86619,"lat":-29.01269}},{"_id":996195,"name":"Hoedspruit","country":"ZA","coord":{"lon":30.95332,"lat":-24.351219}},{"_id":980595,"name":"Mafikeng","country":"ZA","coord":{"lon":25.644211,"lat":-25.865219}},{"_id":961152,"name":"Riversdale","country":"ZA","coord":{"lon":21.25725,"lat":-34.093449}},{"_id":976764,"name":"Meyerton","country":"ZA","coord":{"lon":28.019501,"lat":-26.55987}},{"_id":972803,"name":"Mtubatuba","country":"ZA","coord":{"lon":32.18483,"lat":-28.417891}},{"_id":1019933,"name":"Bergville","country":"ZA","coord":{"lon":29.35187,"lat":-28.73122}},{"_id":1022145,"name":"Ashton","country":"ZA","coord":{"lon":20.055941,"lat":-33.83136}},{"_id":994418,"name":"Ixopo","country":"ZA","coord":{"lon":30.08333,"lat":-30.15}},{"_id":978944,"name":"Marble Hall","country":"ZA","coord":{"lon":29.29068,"lat":-24.96627}},{"_id":944531,"name":"Ventersdorp","country":"ZA","coord":{"lon":26.822229,"lat":-26.314011}},{"_id":985004,"name":"Lady Grey","country":"ZA","coord":{"lon":27.216129,"lat":-30.71084}},{"_id":1010967,"name":"Dendron","country":"ZA","coord":{"lon":29.323709,"lat":-23.36669}},{"_id":1008612,"name":"Douglas","country":"ZA","coord":{"lon":23.7743,"lat":-29.055309}},{"_id":997861,"name":"Harding","country":"ZA","coord":{"lon":29.88401,"lat":-30.576429}},{"_id":1012528,"name":"Creighton","country":"ZA","coord":{"lon":29.83955,"lat":-30.027201}},{"_id":1002917,"name":"Ganyesa","country":"ZA","coord":{"lon":24.176121,"lat":-26.596121}},{"_id":1011062,"name":"Delareyville","country":"ZA","coord":{"lon":25.45907,"lat":-26.68638}},{"_id":1004303,"name":"Ficksburg","country":"ZA","coord":{"lon":27.875059,"lat":-28.872}},{"_id":957339,"name":"Schapenrust","country":"ZA","coord":{"lon":28.366421,"lat":-26.267509}},{"_id":963525,"name":"Queensdale","country":"ZA","coord":{"lon":26.978621,"lat":-31.87101}},{"_id":974670,"name":"Mondlo","country":"ZA","coord":{"lon":30.71769,"lat":-27.98299}},{"_id":985011,"name":"Lady Frere","country":"ZA","coord":{"lon":27.232901,"lat":-31.703119}},{"_id":1005768,"name":"Ellisras","country":"ZA","coord":{"lon":27.744261,"lat":-23.6649}},{"_id":1012600,"name":"Cradock","country":"ZA","coord":{"lon":25.619181,"lat":-32.164219}},{"_id":969582,"name":"Noupoort","country":"ZA","coord":{"lon":24.949909,"lat":-31.187361}},{"_id":940908,"name":"Welkom","country":"ZA","coord":{"lon":31.27319,"lat":-28.48925}},{"_id":1003790,"name":"Fraaiuitzicht","country":"ZA","coord":{"lon":28.195601,"lat":-28.093201}},{"_id":1085598,"name":"Province of North-West","country":"ZA","coord":{"lon":26.0,"lat":-26.5}},{"_id":976897,"name":"Mesa","country":"ZA","coord":{"lon":26.98333,"lat":-26.48333}},{"_id":1085594,"name":"Gauteng","country":"ZA","coord":{"lon":28.25,"lat":-26.08333}},{"_id":1001642,"name":"Glenharvie","country":"ZA","coord":{"lon":27.615919,"lat":-26.389891}},{"_id":7302797,"name":"Eden Glen","country":"ZA","coord":{"lon":28.168591,"lat":-26.132299}},{"_id":1017115,"name":"Boschrand","country":"ZA","coord":{"lon":30.956949,"lat":-25.41736}},{"_id":1105748,"name":"Soutpan","country":"ZA","coord":{"lon":28.10306,"lat":-25.407221}},{"_id":1003197,"name":"Ga-Modjadji","country":"ZA","coord":{"lon":30.439939,"lat":-23.51623}},{"_id":966466,"name":"Palmietfontein","country":"ZA","coord":{"lon":29.25572,"lat":-23.53479}},{"_id":978678,"name":"Marowe","country":"ZA","coord":{"lon":29.26236,"lat":-23.50816}},{"_id":979031,"name":"Mara","country":"ZA","coord":{"lon":29.399731,"lat":-23.09086}},{"_id":986873,"name":"Kroondal","country":"ZA","coord":{"lon":27.315969,"lat":-25.719351}},{"_id":1013550,"name":"Christiana","country":"ZA","coord":{"lon":25.16111,"lat":-27.914021}},{"_id":3369086,"name":"Cloetesville","country":"ZA","coord":{"lon":18.85507,"lat":-33.912392}},{"_id":1022393,"name":"Arboretum","country":"ZA","coord":{"lon":32.061741,"lat":-28.756849}},{"_id":946877,"name":"Uitenhage","country":"ZA","coord":{"lon":25.3971,"lat":-33.757568}},{"_id":8063455,"name":"Malanshof","country":"ZA","coord":{"lon":27.976,"lat":-26.0951}},{"_id":998210,"name":"Halfway House","country":"ZA","coord":{"lon":28.126369,"lat":-26.00526}},{"_id":1005265,"name":"Erand","country":"ZA","coord":{"lon":28.116671,"lat":-25.98333}},{"_id":946058,"name":"Umtata","country":"ZA","coord":{"lon":28.78443,"lat":-31.58893}},{"_id":973537,"name":"Mount Edgecombe","country":"ZA","coord":{"lon":31.025101,"lat":-29.706671}},{"_id":957655,"name":"Sandton","country":"ZA","coord":{"lon":28.05891,"lat":-26.05447}},{"_id":3360687,"name":"Table View","country":"ZA","coord":{"lon":18.4881,"lat":-33.81913}},{"_id":3362349,"name":"Robertson","country":"ZA","coord":{"lon":19.88537,"lat":-33.803421}},{"_id":951506,"name":"Sukani","country":"ZA","coord":{"lon":30.716669,"lat":-23.316669}},{"_id":1105773,"name":"Garsfontein","country":"ZA","coord":{"lon":28.299999,"lat":-25.793501}},{"_id":986820,"name":"Krugersdorp West","country":"ZA","coord":{"lon":27.748409,"lat":-26.0979}},{"_id":994557,"name":"Irene","country":"ZA","coord":{"lon":28.21777,"lat":-25.87044}},{"_id":941376,"name":"Waverley","country":"ZA","coord":{"lon":28.259069,"lat":-25.702299}},{"_id":967827,"name":"Onverwacht","country":"ZA","coord":{"lon":27.68828,"lat":-23.69117}},{"_id":1006984,"name":"East London","country":"ZA","coord":{"lon":27.911619,"lat":-33.015289}},{"_id":1016181,"name":"Brakpan","country":"ZA","coord":{"lon":28.369381,"lat":-26.236561}},{"_id":949880,"name":"Tembisa","country":"ZA","coord":{"lon":28.226801,"lat":-25.996361}},{"_id":3363675,"name":"Nieuwoudtville","country":"ZA","coord":{"lon":19.1122,"lat":-31.37656}},{"_id":945260,"name":"Vaalpark","country":"ZA","coord":{"lon":27.84984,"lat":-26.769251}},{"_id":980921,"name":"Mabopane","country":"ZA","coord":{"lon":28.100651,"lat":-25.497681}},{"_id":1085597,"name":"Limpopo Province","country":"ZA","coord":{"lon":29.5,"lat":-24.0}},{"_id":1023061,"name":"Alton","country":"ZA","coord":{"lon":32.00679,"lat":-28.762051}},{"_id":3361721,"name":"Scottsville","country":"ZA","coord":{"lon":18.703711,"lat":-33.855381}},{"_id":3359348,"name":"Windsor Park","country":"ZA","coord":{"lon":18.70698,"lat":-33.845928}},{"_id":971417,"name":"Newclare","country":"ZA","coord":{"lon":28.08333,"lat":-26.200001}},{"_id":977734,"name":"Mbango","country":"ZA","coord":{"lon":30.446119,"lat":-30.756359}},{"_id":943032,"name":"Volksrust","country":"ZA","coord":{"lon":29.88175,"lat":-27.365419}},{"_id":1001775,"name":"Glen Austin","country":"ZA","coord":{"lon":28.15,"lat":-25.966669}},{"_id":936374,"name":"Roodepoort","country":"ZA","coord":{"lon":27.872499,"lat":-26.1625}},{"_id":938457,"name":"Wolmaransstad","country":"ZA","coord":{"lon":25.98311,"lat":-27.197399}},{"_id":940424,"name":"Wesselsbron","country":"ZA","coord":{"lon":26.365829,"lat":-27.8549}},{"_id":941931,"name":"Warrenton","country":"ZA","coord":{"lon":24.84753,"lat":-28.11396}},{"_id":944986,"name":"Vanderbijlpark","country":"ZA","coord":{"lon":27.83795,"lat":-26.71171}},{"_id":946128,"name":"Umkomaas","country":"ZA","coord":{"lon":30.79776,"lat":-30.206739}},{"_id":949282,"name":"Theunissen","country":"ZA","coord":{"lon":26.701071,"lat":-28.41098}},{"_id":949703,"name":"Thaba Nchu","country":"ZA","coord":{"lon":26.83898,"lat":-29.20932}},{"_id":951650,"name":"Stutterheim","country":"ZA","coord":{"lon":27.42396,"lat":-32.570759}},{"_id":952192,"name":"Stilfontein","country":"ZA","coord":{"lon":26.76829,"lat":-26.844931}},{"_id":952865,"name":"Springs","country":"ZA","coord":{"lon":28.4,"lat":-26.25}},{"_id":956507,"name":"Senekal","country":"ZA","coord":{"lon":27.620819,"lat":-28.31971}},{"_id":956878,"name":"Scottburgh","country":"ZA","coord":{"lon":30.75316,"lat":-30.286659}},{"_id":957487,"name":"Sasolburg","country":"ZA","coord":{"lon":27.81695,"lat":-26.81358}},{"_id":962330,"name":"Richmond","country":"ZA","coord":{"lon":30.27235,"lat":-29.87196}},{"_id":962847,"name":"Reitz","country":"ZA","coord":{"lon":28.427259,"lat":-27.80138}},{"_id":963230,"name":"Randfontein","country":"ZA","coord":{"lon":27.70203,"lat":-26.184401}},{"_id":963516,"name":"Queenstown","country":"ZA","coord":{"lon":26.87533,"lat":-31.89756}},{"_id":964406,"name":"Port Shepstone","country":"ZA","coord":{"lon":30.45499,"lat":-30.741369}},{"_id":965401,"name":"Phuthaditjhaba","country":"ZA","coord":{"lon":28.815821,"lat":-28.524229}},{"_id":966166,"name":"Parys","country":"ZA","coord":{"lon":27.45727,"lat":-26.903299}},{"_id":966380,"name":"Pampierstad","country":"ZA","coord":{"lon":24.687679,"lat":-27.783239}},{"_id":970341,"name":"Nkowakowa","country":"ZA","coord":{"lon":30.287081,"lat":-23.887819}},{"_id":973111,"name":"Mpumalanga","country":"ZA","coord":{"lon":30.636459,"lat":-29.81292}},{"_id":973139,"name":"Mpophomeni","country":"ZA","coord":{"lon":30.18618,"lat":-29.56822}},{"_id":975436,"name":"Mmabatho","country":"ZA","coord":{"lon":25.633329,"lat":-25.85}},{"_id":976361,"name":"Middelburg","country":"ZA","coord":{"lon":29.464821,"lat":-25.77507}},{"_id":978895,"name":"Margate","country":"ZA","coord":{"lon":30.37052,"lat":-30.8636}},{"_id":985015,"name":"Ladybrand","country":"ZA","coord":{"lon":27.45739,"lat":-29.194481}},{"_id":986083,"name":"Kutloanong","country":"ZA","coord":{"lon":26.75,"lat":-27.83333}},{"_id":986717,"name":"Kruisfontein","country":"ZA","coord":{"lon":24.731421,"lat":-34.00333}},{"_id":987202,"name":"Kriel","country":"ZA","coord":{"lon":29.2253,"lat":-26.273911}},{"_id":988698,"name":"Knysna","country":"ZA","coord":{"lon":23.047131,"lat":-34.03627}},{"_id":996918,"name":"Hennenman","country":"ZA","coord":{"lon":27.024229,"lat":-27.97654}},{"_id":996930,"name":"Hendrina","country":"ZA","coord":{"lon":29.715281,"lat":-26.15881}},{"_id":997140,"name":"Heilbron","country":"ZA","coord":{"lon":27.9709,"lat":-27.281151}},{"_id":997151,"name":"Heidelberg","country":"ZA","coord":{"lon":28.359209,"lat":-26.504761}},{"_id":997751,"name":"Harrismith","country":"ZA","coord":{"lon":29.129459,"lat":-28.27276}},{"_id":1000501,"name":"Grahamstown","country":"ZA","coord":{"lon":26.532761,"lat":-33.304218}},{"_id":1001860,"name":"Giyani","country":"ZA","coord":{"lon":30.718679,"lat":-23.30246}},{"_id":1002851,"name":"Ga-Rankuwa","country":"ZA","coord":{"lon":27.994711,"lat":-25.61692}},{"_id":1003764,"name":"Frankfort","country":"ZA","coord":{"lon":28.48333,"lat":-27.26667}},{"_id":1004109,"name":"Fochville","country":"ZA","coord":{"lon":27.49387,"lat":-26.488621}},{"_id":1005029,"name":"eSikhawini","country":"ZA","coord":{"lon":31.899611,"lat":-28.87097}},{"_id":1005646,"name":"eMbalenhle","country":"ZA","coord":{"lon":29.066669,"lat":-26.533331}},{"_id":1007514,"name":"Duiwelskloof","country":"ZA","coord":{"lon":30.14002,"lat":-23.69339}},{"_id":1008261,"name":"Driefontein","country":"ZA","coord":{"lon":30.449789,"lat":-27.0177}},{"_id":1014489,"name":"Butterworth","country":"ZA","coord":{"lon":28.149811,"lat":-32.33083}},{"_id":1016670,"name":"Botshabelo","country":"ZA","coord":{"lon":26.7052,"lat":-29.270161}},{"_id":1016698,"name":"Bothaville","country":"ZA","coord":{"lon":26.61701,"lat":-27.3887}},{"_id":1018673,"name":"Bloemhof","country":"ZA","coord":{"lon":25.60697,"lat":-27.64686}},{"_id":1019760,"name":"Bethal","country":"ZA","coord":{"lon":29.46553,"lat":-26.457939}},{"_id":1021360,"name":"Ballitoville","country":"ZA","coord":{"lon":31.21439,"lat":-29.538971}},{"_id":1023287,"name":"Allanridge","country":"ZA","coord":{"lon":26.64382,"lat":-27.754311}},{"_id":1105726,"name":"Ekangala","country":"ZA","coord":{"lon":28.74918,"lat":-25.69619}},{"_id":3363613,"name":"Noorder-Paarl","country":"ZA","coord":{"lon":18.965521,"lat":-33.704681}},{"_id":3364346,"name":"Malmesbury","country":"ZA","coord":{"lon":18.72714,"lat":-33.4608}},{"_id":3367513,"name":"Grabouw","country":"ZA","coord":{"lon":19.015091,"lat":-34.15152}},{"_id":3369129,"name":"Ceres","country":"ZA","coord":{"lon":19.310961,"lat":-33.368889}},{"_id":3370352,"name":"Atlantis","country":"ZA","coord":{"lon":18.483351,"lat":-33.566681}},{"_id":953987,"name":"Republic of South Africa","country":"ZA","coord":{"lon":26.0,"lat":-30.0}},{"_id":1085599,"name":"Province of the Western Cape","country":"ZA","coord":{"lon":20.0,"lat":-34.0}},{"_id":963941,"name":"Protem","country":"ZA","coord":{"lon":20.07873,"lat":-34.268242}},{"_id":3365617,"name":"Klipdale","country":"ZA","coord":{"lon":19.96633,"lat":-34.306171}},{"_id":3367634,"name":"Glen Dirk","country":"ZA","coord":{"lon":18.44351,"lat":-33.994331}},{"_id":3362764,"name":"Plumstead","country":"ZA","coord":{"lon":18.47834,"lat":-34.019089}},{"_id":3361077,"name":"Steenberg","country":"ZA","coord":{"lon":18.47023,"lat":-34.074421}},{"_id":3363222,"name":"Ottery","country":"ZA","coord":{"lon":18.505039,"lat":-34.016781}},{"_id":1085593,"name":"Province of Eastern Cape","country":"ZA","coord":{"lon":26.0,"lat":-32.0}},{"_id":957517,"name":"Sardinia Bay","country":"ZA","coord":{"lon":24.5,"lat":-34.01667}},{"_id":3361025,"name":"Stellenbosch","country":"ZA","coord":{"lon":18.86676,"lat":-33.93462}},{"_id":3370221,"name":"Banghoek","country":"ZA","coord":{"lon":18.91667,"lat":-33.916672}},{"_id":3367573,"name":"Goodwood","country":"ZA","coord":{"lon":18.548809,"lat":-33.904919}},{"_id":3363978,"name":"Monte Vista","country":"ZA","coord":{"lon":18.55385,"lat":-33.87925}},{"_id":1001783,"name":"Glen Ambrose","country":"ZA","coord":{"lon":26.383329,"lat":-33.216671}},{"_id":973786,"name":"Mortimer","country":"ZA","coord":{"lon":25.683331,"lat":-32.366669}},{"_id":1020641,"name":"Beaufort West","country":"ZA","coord":{"lon":22.582951,"lat":-32.356709}},{"_id":1000543,"name":"Graaff-Reinet","country":"ZA","coord":{"lon":24.53075,"lat":-32.252151}},{"_id":3367527,"name":"Graafwater","country":"ZA","coord":{"lon":18.603189,"lat":-32.154659}},{"_id":1085596,"name":"Province of Northern Cape","country":"ZA","coord":{"lon":22.0,"lat":-29.5}},{"_id":1013311,"name":"Clifford","country":"ZA","coord":{"lon":27.44853,"lat":-31.08148}},{"_id":993643,"name":"Josefsdeel","country":"ZA","coord":{"lon":26.21751,"lat":-30.58157}},{"_id":967573,"name":"Free State","country":"ZA","coord":{"lon":26.0,"lat":-29.0}},{"_id":944403,"name":"Verdun","country":"ZA","coord":{"lon":26.44364,"lat":-30.44841}},{"_id":964334,"name":"Potfontein","country":"ZA","coord":{"lon":24.108879,"lat":-30.204109}},{"_id":1015612,"name":"Britstown","country":"ZA","coord":{"lon":23.50391,"lat":-30.58746}},{"_id":998606,"name":"Guinesses","country":"ZA","coord":{"lon":26.99441,"lat":-30.189079}},{"_id":972062,"name":"Province of KwaZulu-Natal","country":"ZA","coord":{"lon":30.0,"lat":-29.0}},{"_id":1022953,"name":"Amanzimtoti","country":"ZA","coord":{"lon":30.885269,"lat":-30.052191}},{"_id":943951,"name":"Villa Maria","country":"ZA","coord":{"lon":30.573669,"lat":-29.57617}},{"_id":995202,"name":"Howick","country":"ZA","coord":{"lon":30.23057,"lat":-29.477949}},{"_id":1001719,"name":"Glendean","country":"ZA","coord":{"lon":30.216669,"lat":-29.23333}},{"_id":978660,"name":"Marseilles","country":"ZA","coord":{"lon":27.287901,"lat":-29.1838}},{"_id":996571,"name":"Highlands","country":"ZA","coord":{"lon":26.183331,"lat":-29.066669}},{"_id":972755,"name":"Muden","country":"ZA","coord":{"lon":30.37146,"lat":-28.984961}},{"_id":997324,"name":"Hattingspruit","country":"ZA","coord":{"lon":30.1252,"lat":-28.07905}},{"_id":987015,"name":"Kromhof","country":"ZA","coord":{"lon":29.5,"lat":-27.933331}},{"_id":940909,"name":"Welkom","country":"ZA","coord":{"lon":26.70661,"lat":-27.986441}},{"_id":1020604,"name":"Bedelia West","country":"ZA","coord":{"lon":26.683331,"lat":-27.966669}},{"_id":996683,"name":"Heuningspruit","country":"ZA","coord":{"lon":27.41857,"lat":-27.44894}},{"_id":986958,"name":"Krompan","country":"ZA","coord":{"lon":28.31756,"lat":-27.075411}},{"_id":994334,"name":"Jackson’s Drift","country":"ZA","coord":{"lon":27.98901,"lat":-26.33201}},{"_id":991676,"name":"Kate Hamel","country":"ZA","coord":{"lon":28.23333,"lat":-26.299999}},{"_id":1085595,"name":"Mpumalanga","country":"ZA","coord":{"lon":30.0,"lat":-26.0}},{"_id":1010245,"name":"Diepfontein","country":"ZA","coord":{"lon":29.51156,"lat":-26.32745}},{"_id":1017780,"name":"Boksburg","country":"ZA","coord":{"lon":28.259581,"lat":-26.211969}},{"_id":982899,"name":"Lichtenburg","country":"ZA","coord":{"lon":26.159679,"lat":-26.152}},{"_id":7870444,"name":"Linbro Park","country":"ZA","coord":{"lon":28.122601,"lat":-26.087469}},{"_id":1008613,"name":"Douglas","country":"ZA","coord":{"lon":29.368179,"lat":-26.02817}},{"_id":995746,"name":"Honeyvale","country":"ZA","coord":{"lon":28.15,"lat":-25.533331}},{"_id":1105735,"name":"Sybrandskraal","country":"ZA","coord":{"lon":28.63913,"lat":-25.47109}},{"_id":964420,"name":"Port Elizabeth","country":"ZA","coord":{"lon":25.57007,"lat":-33.917992}},{"_id":942071,"name":"Walmer","country":"ZA","coord":{"lon":25.583549,"lat":-33.97789}},{"_id":8030222,"name":"Heiderand","country":"ZA","coord":{"lon":22.110331,"lat":-34.187809}},{"_id":949482,"name":"The Highlands","country":"ZA","coord":{"lon":28.290831,"lat":-25.798059}},{"_id":981117,"name":"Lynnwood","country":"ZA","coord":{"lon":28.26506,"lat":-25.759741000000002}},{"_id":971421,"name":"Newcastle","country":"ZA","coord":{"lon":29.931801,"lat":-27.757959}},{"_id":995039,"name":"Hutton Heights","country":"ZA","coord":{"lon":29.926809,"lat":-27.735229}},{"_id":1007311,"name":"Durban","country":"ZA","coord":{"lon":31.0292,"lat":-29.857901}},{"_id":972535,"name":"Musgrave","country":"ZA","coord":{"lon":30.994049,"lat":-29.84989}},{"_id":8184439,"name":"Vierlanden","country":"ZA","coord":{"lon":18.65727,"lat":-33.81229}},{"_id":948130,"name":"Trichardt","country":"ZA","coord":{"lon":29.228781,"lat":-26.49155}},{"_id":8063460,"name":"Radiokop","country":"ZA","coord":{"lon":27.91643,"lat":-26.108589}},{"_id":3366920,"name":"Helderberg","country":"ZA","coord":{"lon":18.831129,"lat":-34.030479}},{"_id":8030071,"name":"Moreletapark","country":"ZA","coord":{"lon":28.28636,"lat":-25.82802}},{"_id":7870467,"name":"Strydompark","country":"ZA","coord":{"lon":27.973721,"lat":-26.082069}},{"_id":989747,"name":"Klipdrift","country":"ZA","coord":{"lon":28.33824,"lat":-25.36027}},{"_id":981158,"name":"Lydenburg","country":"ZA","coord":{"lon":30.459669,"lat":-25.097799}},{"_id":7870407,"name":"Randpark","country":"ZA","coord":{"lon":27.970591,"lat":-26.11013}},{"_id":7302538,"name":"De Waterkant","country":"ZA","coord":{"lon":18.41667,"lat":-33.915279}},{"_id":965301,"name":"Pietermaritzburg","country":"ZA","coord":{"lon":30.39278,"lat":-29.616779}},{"_id":964349,"name":"Potchefstroom","country":"ZA","coord":{"lon":27.1,"lat":-26.716669}},{"_id":1018725,"name":"Bloemfontein","country":"ZA","coord":{"lon":26.214001,"lat":-29.121059}},{"_id":1002174,"name":"Generaal de Wet","country":"ZA","coord":{"lon":26.20215,"lat":-29.14242}},{"_id":990873,"name":"Kingsmead","country":"ZA","coord":{"lon":31.01667,"lat":-29.85}},{"_id":7870450,"name":"North Riding","country":"ZA","coord":{"lon":27.963039,"lat":-26.05085}},{"_id":993800,"name":"Johannesburg","country":"ZA","coord":{"lon":28.043631,"lat":-26.202271}},{"_id":1017447,"name":"Bophelong","country":"ZA","coord":{"lon":27.79747,"lat":-26.69385}},{"_id":959103,"name":"Rosslyn","country":"ZA","coord":{"lon":28.09417,"lat":-25.62417}},{"_id":1105785,"name":"Denneboom","country":"ZA","coord":{"lon":28.334169,"lat":-25.71806}},{"_id":991415,"name":"Kempton Park","country":"ZA","coord":{"lon":28.2377,"lat":-26.108589}},{"_id":1020605,"name":"Bedelia","country":"ZA","coord":{"lon":26.71406,"lat":-27.981199}},{"_id":949224,"name":"Thohoyandou","country":"ZA","coord":{"lon":30.48497,"lat":-22.945641}},{"_id":944385,"name":"Vereeniging","country":"ZA","coord":{"lon":27.926149,"lat":-26.67313}},{"_id":6951112,"name":"Somerset West","country":"ZA","coord":{"lon":18.821131,"lat":-34.084011}},{"_id":988886,"name":"Kloof","country":"ZA","coord":{"lon":30.82325,"lat":-29.78529}},{"_id":952200,"name":"Still Bay","country":"ZA","coord":{"lon":21.40748,"lat":-34.369301}},{"_id":952199,"name":"Stilbaai-Oos","country":"ZA","coord":{"lon":21.42083,"lat":-34.36853}},{"_id":965289,"name":"Polokwane","country":"ZA","coord":{"lon":29.468849,"lat":-23.90448}},{"_id":939270,"name":"Witbank","country":"ZA","coord":{"lon":29.233231,"lat":-25.87133}},{"_id":941728,"name":"Waterkloof","country":"ZA","coord":{"lon":28.23802,"lat":-25.778629}},{"_id":974532,"name":"Monument Park","country":"ZA","coord":{"lon":28.22691,"lat":-25.806881}},{"_id":7302802,"name":"Rondebosch","country":"ZA","coord":{"lon":18.476391,"lat":-33.963329}},{"_id":966196,"name":"Parkhurst","country":"ZA","coord":{"lon":28.01737,"lat":-26.138639}},{"_id":3368538,"name":"Doordrift","country":"ZA","coord":{"lon":18.455721,"lat":-34.01915}},{"_id":946973,"name":"Tzaneen","country":"ZA","coord":{"lon":30.163509,"lat":-23.83322}},{"_id":3369157,"name":"Cape Town","country":"ZA","coord":{"lon":18.42322,"lat":-33.925838}},{"_id":3363444,"name":"Observatory","country":"ZA","coord":{"lon":18.467871,"lat":-33.936131}},{"_id":3363901,"name":"Mowbray","country":"ZA","coord":{"lon":18.47333,"lat":-33.948021}},{"_id":971534,"name":"Nelspruit","country":"ZA","coord":{"lon":30.970329,"lat":-25.47448}},{"_id":1020098,"name":"Benoni","country":"ZA","coord":{"lon":28.32078,"lat":-26.18848}},{"_id":958724,"name":"Rustenburg","country":"ZA","coord":{"lon":27.242081,"lat":-25.667561}},{"_id":1015621,"name":"Brits","country":"ZA","coord":{"lon":27.78022,"lat":-25.634729}},{"_id":946165,"name":"Umhlanga","country":"ZA","coord":{"lon":31.066669,"lat":-29.716669}},{"_id":1005125,"name":"Ermelo","country":"ZA","coord":{"lon":29.98333,"lat":-26.533331}},{"_id":994858,"name":"Inanda","country":"ZA","coord":{"lon":28.054529,"lat":-26.12015}},{"_id":3368439,"name":"Drieankerbaai","country":"ZA","coord":{"lon":18.395741,"lat":-33.909069}},{"_id":989921,"name":"Klerksdorp","country":"ZA","coord":{"lon":26.666719,"lat":-26.852131}},{"_id":3364682,"name":"Lansdowne","country":"ZA","coord":{"lon":18.497459,"lat":-33.98735}},{"_id":964649,"name":"Point","country":"ZA","coord":{"lon":31.04126,"lat":-29.86471}},{"_id":1011880,"name":"Da Nova","country":"ZA","coord":{"lon":22.13343,"lat":-34.184479}},{"_id":962367,"name":"Richards Bay","country":"ZA","coord":{"lon":32.037682,"lat":-28.78301}},{"_id":949276,"name":"The Village","country":"ZA","coord":{"lon":32.097561,"lat":-28.790939}},{"_id":3359510,"name":"Wellington","country":"ZA","coord":{"lon":19.0112,"lat":-33.639809}},{"_id":962597,"name":"Reunion","country":"ZA","coord":{"lon":30.942921,"lat":-29.96455}},{"_id":994321,"name":"Jacobs","country":"ZA","coord":{"lon":30.98333,"lat":-29.91667}},{"_id":995409,"name":"Horton","country":"ZA","coord":{"lon":27.0158,"lat":-33.098209}},{"_id":3361934,"name":"Saldanha","country":"ZA","coord":{"lon":17.944201,"lat":-33.011669}},{"_id":3369179,"name":"Caledon","country":"ZA","coord":{"lon":19.4265,"lat":-34.229969}},{"_id":943937,"name":"Villiers","country":"ZA","coord":{"lon":28.600611,"lat":-27.03026}},{"_id":7290494,"name":"Greenhills","country":"ZA","coord":{"lon":27.693529,"lat":-26.1611}},{"_id":1012413,"name":"Cullinan","country":"ZA","coord":{"lon":28.52364,"lat":-25.670879}},{"_id":955407,"name":"Sishen","country":"ZA","coord":{"lon":22.98333,"lat":-27.783331}},{"_id":1002145,"name":"George","country":"ZA","coord":{"lon":22.461729,"lat":-33.963001}},{"_id":953781,"name":"Soweto","country":"ZA","coord":{"lon":27.85849,"lat":-26.267811}},{"_id":979692,"name":"Malvern","country":"ZA","coord":{"lon":30.925211,"lat":-29.88521}},{"_id":939435,"name":"Winston Park","country":"ZA","coord":{"lon":30.786711,"lat":-29.798731}},{"_id":996506,"name":"Hillcrest","country":"ZA","coord":{"lon":30.76396,"lat":-29.77475}},{"_id":1015504,"name":"Bronkhorstspruit","country":"ZA","coord":{"lon":28.742479,"lat":-25.81015}},{"_id":1015969,"name":"Brandfort","country":"ZA","coord":{"lon":26.459681,"lat":-28.700081}},{"_id":940316,"name":"Westonaria","country":"ZA","coord":{"lon":27.6486,"lat":-26.319059}},{"_id":943952,"name":"Village of Happiness","country":"ZA","coord":{"lon":30.36293,"lat":-30.85589}},{"_id":942470,"name":"Vryheid","country":"ZA","coord":{"lon":30.791651,"lat":-27.76952}},{"_id":988356,"name":"Kokstad","country":"ZA","coord":{"lon":29.42412,"lat":-30.54723}},{"_id":952734,"name":"Stanger","country":"ZA","coord":{"lon":31.289539,"lat":-29.328159}},{"_id":970566,"name":"Nigel","country":"ZA","coord":{"lon":28.477131,"lat":-26.431379}},{"_id":964315,"name":"Mokopane","country":"ZA","coord":{"lon":29.009741000000002,"lat":-24.194361}},{"_id":1011031,"name":"Delmas","country":"ZA","coord":{"lon":28.68322,"lat":-26.146601}},{"_id":938694,"name":"White River","country":"ZA","coord":{"lon":31.01166,"lat":-25.33177}},{"_id":964712,"name":"Plettenberg Bay","country":"ZA","coord":{"lon":23.371599,"lat":-34.052738}},{"_id":994493,"name":"Isipingo","country":"ZA","coord":{"lon":30.91853,"lat":-29.986389}},{"_id":956754,"name":"Sedgefield","country":"ZA","coord":{"lon":22.8055,"lat":-34.021099}},{"_id":952745,"name":"Standplaas","country":"ZA","coord":{"lon":22.57687,"lat":-33.977928}},{"_id":1019330,"name":"Bhisho","country":"ZA","coord":{"lon":27.442181,"lat":-32.84721}},{"_id":3359041,"name":"Worcester","country":"ZA","coord":{"lon":19.448521,"lat":-33.646511}},{"_id":1019704,"name":"Bethlehem","country":"ZA","coord":{"lon":28.30707,"lat":-28.23078}},{"_id":956907,"name":"Schweizer-Reneke","country":"ZA","coord":{"lon":25.329309,"lat":-27.188709}},{"_id":3366880,"name":"Hermanus","country":"ZA","coord":{"lon":19.234461,"lat":-34.418701}},{"_id":949683,"name":"Thabazimbi","country":"ZA","coord":{"lon":27.411551,"lat":-24.59165}},{"_id":981827,"name":"Louis Trichardt","country":"ZA","coord":{"lon":29.903191,"lat":-23.04385}},{"_id":956767,"name":"Secunda","country":"ZA","coord":{"lon":29.16667,"lat":-26.549999}},{"_id":965241,"name":"Piet Retief","country":"ZA","coord":{"lon":30.813231,"lat":-27.007059}},{"_id":3358975,"name":"Yzerfontein","country":"ZA","coord":{"lon":18.16157,"lat":-33.344379}},{"_id":964432,"name":"Port Alfred","country":"ZA","coord":{"lon":26.891041,"lat":-33.590569}},{"_id":1021040,"name":"Barkly West","country":"ZA","coord":{"lon":24.521509,"lat":-28.53537}},{"_id":943960,"name":"Viljoenskroon","country":"ZA","coord":{"lon":26.948549,"lat":-27.20841}},{"_id":990930,"name":"Kimberley","country":"ZA","coord":{"lon":24.76232,"lat":-28.73226}},{"_id":1021086,"name":"Barberton","country":"ZA","coord":{"lon":31.05319,"lat":-25.78842}},{"_id":963049,"name":"Rayton","country":"ZA","coord":{"lon":28.533381,"lat":-25.73917}},{"_id":986846,"name":"Kroonstad","country":"ZA","coord":{"lon":27.23488,"lat":-27.65036}},{"_id":941966,"name":"Warmbaths","country":"ZA","coord":{"lon":28.283331,"lat":-24.883329}},{"_id":990802,"name":"Kirkwood","country":"ZA","coord":{"lon":25.44278,"lat":-33.398289}},{"_id":950709,"name":"Swellendam","country":"ZA","coord":{"lon":20.44171,"lat":-34.022621}},{"_id":991247,"name":"Kew","country":"ZA","coord":{"lon":28.09573,"lat":-26.121321}},{"_id":1015420,"name":"Brown Stones","country":"ZA","coord":{"lon":29.98381,"lat":-29.19655}},{"_id":3360934,"name":"Strand","country":"ZA","coord":{"lon":18.827511,"lat":-34.106869}},{"_id":962649,"name":"Reservoir Hills","country":"ZA","coord":{"lon":30.942699,"lat":-29.802441}},{"_id":954161,"name":"Somerset East","country":"ZA","coord":{"lon":25.588039,"lat":-32.721729}},{"_id":3364795,"name":"Langebaan","country":"ZA","coord":{"lon":18.0315,"lat":-33.097511}},{"_id":967476,"name":"Orkney","country":"ZA","coord":{"lon":26.67272,"lat":-26.98023}},{"_id":943882,"name":"Virginia","country":"ZA","coord":{"lon":26.865931,"lat":-28.10391}},{"_id":969619,"name":"Nottingham Road","country":"ZA","coord":{"lon":29.98333,"lat":-29.35}},{"_id":965528,"name":"Phalaborwa","country":"ZA","coord":{"lon":31.141069,"lat":-23.942989}},{"_id":3362864,"name":"Pinelands","country":"ZA","coord":{"lon":18.506809,"lat":-33.942219}},{"_id":1007400,"name":"Dundee","country":"ZA","coord":{"lon":30.233709,"lat":-28.16678}},{"_id":993911,"name":"Jeffreys Bay","country":"ZA","coord":{"lon":24.9195,"lat":-34.05064}},{"_id":984087,"name":"Lebowakgomo","country":"ZA","coord":{"lon":29.5,"lat":-24.200001}},{"_id":968665,"name":"Modimolle","country":"ZA","coord":{"lon":28.4,"lat":-24.700001}},{"_id":1023672,"name":"Addo","country":"ZA","coord":{"lon":25.689899,"lat":-33.548328}},{"_id":1013397,"name":"Clarens","country":"ZA","coord":{"lon":28.419849,"lat":-28.5154}},{"_id":940377,"name":"West End","country":"ZA","coord":{"lon":27.44523,"lat":-26.90514}},{"_id":945094,"name":"Valhalla","country":"ZA","coord":{"lon":28.149429,"lat":-25.80584}},{"_id":7778818,"name":"Auckland Park","country":"ZA","coord":{"lon":28.003851,"lat":-26.181351}},{"_id":1013081,"name":"Colenso","country":"ZA","coord":{"lon":29.825821,"lat":-28.739321}},{"_id":1014073,"name":"Carletonville","country":"ZA","coord":{"lon":27.397671,"lat":-26.360941}},{"_id":1011951,"name":"Danabaai","country":"ZA","coord":{"lon":22.03891,"lat":-34.19891}},{"_id":1022108,"name":"Aston Bay","country":"ZA","coord":{"lon":24.905689,"lat":-34.079971}},{"_id":996256,"name":"Hluhluwe","country":"ZA","coord":{"lon":32.26762,"lat":-28.01895}},{"_id":1013886,"name":"Cato Ridge","country":"ZA","coord":{"lon":30.58333,"lat":-29.73333}},{"_id":958435,"name":"Sabierivier","country":"ZA","coord":{"lon":31.113899,"lat":-25.03586}},{"_id":3364791,"name":"Langebaanweg","country":"ZA","coord":{"lon":18.1488,"lat":-32.974449}},{"_id":942511,"name":"Vryburg","country":"ZA","coord":{"lon":24.728399,"lat":-26.956591}},{"_id":8063768,"name":"Melrose Estate","country":"ZA","coord":{"lon":28.052601,"lat":-26.147079}},{"_id":3364246,"name":"McGregor","country":"ZA","coord":{"lon":19.82906,"lat":-33.94725}},{"_id":956098,"name":"Shelly Beach","country":"ZA","coord":{"lon":30.41427,"lat":-30.80064}},{"_id":949049,"name":"Three Rivers","country":"ZA","coord":{"lon":27.97621,"lat":-26.65406}},{"_id":1003953,"name":"Fort Beaufort","country":"ZA","coord":{"lon":26.63376,"lat":-32.774769}},{"_id":945995,"name":"Underberg","country":"ZA","coord":{"lon":29.49448,"lat":-29.79084}},{"_id":944120,"name":"Verulam","country":"ZA","coord":{"lon":31.0471,"lat":-29.6434}},{"_id":1005040,"name":"Eshowe","country":"ZA","coord":{"lon":31.4699,"lat":-28.88648}},{"_id":3368039,"name":"Elsiesrivier","country":"ZA","coord":{"lon":18.585409,"lat":-33.930729}},{"_id":3368014,"name":"Epping Forest","country":"ZA","coord":{"lon":18.57756,"lat":-33.935081}},{"_id":1021396,"name":"Balfour","country":"ZA","coord":{"lon":28.59016,"lat":-26.663309}},{"_id":952747,"name":"Standerton","country":"ZA","coord":{"lon":29.24152,"lat":-26.933661}},{"_id":1005976,"name":"Elarduspark","country":"ZA","coord":{"lon":28.255381,"lat":-25.831881}},{"_id":3367877,"name":"Franschhoek","country":"ZA","coord":{"lon":19.119801,"lat":-33.910751}},{"_id":1014257,"name":"Calitzdorp","country":"ZA","coord":{"lon":21.68862,"lat":-33.532318}},{"_id":972206,"name":"Naboomspruit","country":"ZA","coord":{"lon":28.716669,"lat":-24.51667}},{"_id":940359,"name":"Western Township","country":"ZA","coord":{"lon":27.883329,"lat":-26.16667}},{"_id":987648,"name":"Koster","country":"ZA","coord":{"lon":26.89756,"lat":-25.86301}},{"_id":990825,"name":"Kinross","country":"ZA","coord":{"lon":29.086679,"lat":-26.41663}},{"_id":1000065,"name":"Greenwood Park","country":"ZA","coord":{"lon":31.01667,"lat":-29.783331}},{"_id":963961,"name":"Prospect","country":"ZA","coord":{"lon":31.02973,"lat":-29.80006}},{"_id":945142,"name":"Vaalwater","country":"ZA","coord":{"lon":28.1,"lat":-24.16667}},{"_id":1001736,"name":"Glencoe","country":"ZA","coord":{"lon":30.14702,"lat":-28.17827}},{"_id":3361084,"name":"Stanford","country":"ZA","coord":{"lon":19.45615,"lat":-34.4394}},{"_id":941812,"name":"Waterfall","country":"ZA","coord":{"lon":31.05022,"lat":-29.40661}},{"_id":3362671,"name":"Pringle Bay","country":"ZA","coord":{"lon":18.827061,"lat":-34.348179}},{"_id":963528,"name":"Queensburgh","country":"ZA","coord":{"lon":30.906429,"lat":-29.877689}},{"_id":1020310,"name":"Bellair","country":"ZA","coord":{"lon":30.950621,"lat":-29.891951}},{"_id":990849,"name":"King William’s Town","country":"ZA","coord":{"lon":27.394541,"lat":-32.88031}},{"_id":958441,"name":"Sabie","country":"ZA","coord":{"lon":30.78001,"lat":-25.099899}},{"_id":990902,"name":"Kingsborough","country":"ZA","coord":{"lon":30.866671,"lat":-30.08333}},{"_id":3359094,"name":"Wolseley","country":"ZA","coord":{"lon":19.20052,"lat":-33.414028}},{"_id":1023309,"name":"Aliwal North","country":"ZA","coord":{"lon":26.711411,"lat":-30.693661}},{"_id":955313,"name":"Siyabuswa","country":"ZA","coord":{"lon":29.04454,"lat":-25.11319}},{"_id":3369183,"name":"Cafda Village","country":"ZA","coord":{"lon":18.485701,"lat":-34.059978}},{"_id":3363441,"name":"Ocean View","country":"ZA","coord":{"lon":18.353649,"lat":-34.148609}},{"_id":3367458,"name":"Grassy Park","country":"ZA","coord":{"lon":18.498631,"lat":-34.047199}},{"_id":964424,"name":"Port Edward","country":"ZA","coord":{"lon":30.227989,"lat":-31.050671}},{"_id":982587,"name":"Little Falls","country":"ZA","coord":{"lon":27.89085,"lat":-26.12092}},{"_id":1011858,"name":"Danville","country":"ZA","coord":{"lon":28.12747,"lat":-25.740471}},{"_id":964132,"name":"Pretoria-Wes","country":"ZA","coord":{"lon":28.161249,"lat":-25.754419}},{"_id":1013888,"name":"Cato Manor","country":"ZA","coord":{"lon":30.945801,"lat":-29.860701}},{"_id":940504,"name":"Wemmer","country":"ZA","coord":{"lon":28.01667,"lat":-26.200001}},{"_id":966189,"name":"Parkview","country":"ZA","coord":{"lon":28.027321,"lat":-26.161909}},{"_id":1007968,"name":"Drieweeksleegte","country":"ZA","coord":{"lon":22.1341,"lat":-30.938089}},{"_id":945970,"name":"Uniondale","country":"ZA","coord":{"lon":23.123171,"lat":-33.658951}},{"_id":972674,"name":"Muldersdrift","country":"ZA","coord":{"lon":27.8512,"lat":-26.037041}},{"_id":1015714,"name":"Brentwood Park","country":"ZA","coord":{"lon":28.29258,"lat":-26.13526}},{"_id":1013911,"name":"Cathcart","country":"ZA","coord":{"lon":27.14362,"lat":-32.2985}},{"_id":937136,"name":"Zeerust","country":"ZA","coord":{"lon":26.075121,"lat":-25.536949}},{"_id":3363171,"name":"Oude Raapkraal","country":"ZA","coord":{"lon":18.433331,"lat":-34.083328}},{"_id":1012080,"name":"Dalton","country":"ZA","coord":{"lon":30.631189,"lat":-29.340931}},{"_id":3369174,"name":"Calvinia","country":"ZA","coord":{"lon":19.776011,"lat":-31.47069}},{"_id":941976,"name":"Warden","country":"ZA","coord":{"lon":28.9653,"lat":-27.854521}},{"_id":940394,"name":"Westbrook","country":"ZA","coord":{"lon":31.165489,"lat":-29.59215}},{"_id":979330,"name":"Manor Gardens","country":"ZA","coord":{"lon":30.98333,"lat":-29.866671}},{"_id":8063413,"name":"Arcadia","country":"ZA","coord":{"lon":28.221371,"lat":-25.746401}},{"_id":1017354,"name":"Bosbokrand","country":"ZA","coord":{"lon":31.067181,"lat":-24.835991}},{"_id":3369083,"name":"Clovelly","country":"ZA","coord":{"lon":18.43276,"lat":-34.12487}},{"_id":3369090,"name":"Clifton","country":"ZA","coord":{"lon":18.379141,"lat":-33.93684}},{"_id":3361711,"name":"Sea Point","country":"ZA","coord":{"lon":18.389681,"lat":-33.918579}},{"_id":942683,"name":"Vredefort","country":"ZA","coord":{"lon":27.364599,"lat":-27.008051}},{"_id":966737,"name":"Paardekraal","country":"ZA","coord":{"lon":27.883329,"lat":-26.183331}},{"_id":977363,"name":"Meadowlands","country":"ZA","coord":{"lon":27.883329,"lat":-26.200001}},{"_id":7870410,"name":"Albertskroon","country":"ZA","coord":{"lon":27.974621,"lat":-26.161449}},{"_id":971377,"name":"New Hanover","country":"ZA","coord":{"lon":30.528021,"lat":-29.35519}},{"_id":3368962,"name":"Darling","country":"ZA","coord":{"lon":18.379379,"lat":-33.37817}},{"_id":986822,"name":"Krugersdorp","country":"ZA","coord":{"lon":27.77515,"lat":-26.08577}},{"_id":1105777,"name":"Centurion","country":"ZA","coord":{"lon":28.18577,"lat":-25.85891}},{"_id":7871282,"name":"Cape Gate","country":"ZA","coord":{"lon":18.69684,"lat":-33.85231}},{"_id":961226,"name":"Ritchie","country":"ZA","coord":{"lon":24.602779,"lat":-29.03801}},{"_id":968453,"name":"Ofcolaco","country":"ZA","coord":{"lon":30.3957,"lat":-24.081579}},{"_id":956375,"name":"Seshego","country":"ZA","coord":{"lon":29.38802,"lat":-23.84664}},{"_id":3362324,"name":"Roggebaai","country":"ZA","coord":{"lon":18.433331,"lat":-33.916672}},{"_id":964137,"name":"Pretoria","country":"ZA","coord":{"lon":28.18783,"lat":-25.74486}},{"_id":979691,"name":"Malvern","country":"ZA","coord":{"lon":28.10165,"lat":-26.203039}},{"_id":956839,"name":"Sea Park","country":"ZA","coord":{"lon":30.491871,"lat":-30.69611}},{"_id":967542,"name":"Orania","country":"ZA","coord":{"lon":24.41205,"lat":-29.81381}},{"_id":982701,"name":"Lindley","country":"ZA","coord":{"lon":27.913481,"lat":-27.879101}},{"_id":1023365,"name":"Alexandria","country":"ZA","coord":{"lon":26.41268,"lat":-33.653461}},{"_id":3363913,"name":"Mouille Point","country":"ZA","coord":{"lon":18.40531,"lat":-33.900269}},{"_id":974933,"name":"Mogwase","country":"ZA","coord":{"lon":27.266541,"lat":-25.185049}},{"_id":1012358,"name":"Curry’s Post","country":"ZA","coord":{"lon":30.14007,"lat":-29.360001}},{"_id":1003844,"name":"Fouriesburg","country":"ZA","coord":{"lon":28.133329,"lat":-28.58333}},{"_id":982771,"name":"Lime Acres","country":"ZA","coord":{"lon":23.469919,"lat":-28.361959}},{"_id":994257,"name":"Jagersfontein","country":"ZA","coord":{"lon":25.427059,"lat":-29.761259}},{"_id":3368192,"name":"Edgemead","country":"ZA","coord":{"lon":18.53977,"lat":-33.87241}},{"_id":3363983,"name":"Montague Gardens","country":"ZA","coord":{"lon":18.520321,"lat":-33.863522}},{"_id":954486,"name":"Smithfield","country":"ZA","coord":{"lon":26.530701,"lat":-30.213659}},{"_id":1019031,"name":"Blanco","country":"ZA","coord":{"lon":22.41153,"lat":-33.946419}},{"_id":1005781,"name":"Elliot","country":"ZA","coord":{"lon":27.85,"lat":-31.33333}},{"_id":1023698,"name":"Adams College","country":"ZA","coord":{"lon":30.81568,"lat":-30.03199}},{"_id":951271,"name":"Sutherland","country":"ZA","coord":{"lon":20.66107,"lat":-32.394348}},{"_id":1011632,"name":"De Aar","country":"ZA","coord":{"lon":24.0123,"lat":-30.64966}},{"_id":983065,"name":"Leslie","country":"ZA","coord":{"lon":28.9189,"lat":-26.367371}},{"_id":3363453,"name":"Oakdale","country":"ZA","coord":{"lon":18.683331,"lat":-33.833328}},{"_id":1013675,"name":"Chatsworth","country":"ZA","coord":{"lon":30.891701,"lat":-29.918659}},{"_id":982103,"name":"Lorraine","country":"ZA","coord":{"lon":25.51545,"lat":-33.967232}},{"_id":951350,"name":"Sunridge Park","country":"ZA","coord":{"lon":25.52948,"lat":-33.953991}},{"_id":3366939,"name":"Heathfield","country":"ZA","coord":{"lon":18.468081,"lat":-34.047642}},{"_id":1023517,"name":"Agulhas","country":"ZA","coord":{"lon":20.01734,"lat":-34.8223}},{"_id":976358,"name":"Middelburg","country":"ZA","coord":{"lon":25.00633,"lat":-31.492849}},{"_id":1015657,"name":"Brighton Beach","country":"ZA","coord":{"lon":31.0009,"lat":-29.939569}},{"_id":1005544,"name":"Empangeni","country":"ZA","coord":{"lon":31.89329,"lat":-28.761971}},{"_id":966305,"name":"Panorama","country":"ZA","coord":{"lon":31.89113,"lat":-28.75383}},{"_id":1012724,"name":"Cornelia","country":"ZA","coord":{"lon":28.852261,"lat":-27.23226}},{"_id":971352,"name":"New Kingsmead","country":"ZA","coord":{"lon":31.01667,"lat":-29.816669}},{"_id":1007420,"name":"Duncan Village","country":"ZA","coord":{"lon":27.863319,"lat":-33.01226}},{"_id":1000116,"name":"Greenfields","country":"ZA","coord":{"lon":27.86216,"lat":-33.033298}},{"_id":3362001,"name":"Rugby","country":"ZA","coord":{"lon":18.49012,"lat":-33.895721}},{"_id":984896,"name":"La Mercy","country":"ZA","coord":{"lon":31.13106,"lat":-29.639179}},{"_id":1022391,"name":"Arbor Park","country":"ZA","coord":{"lon":29.950899,"lat":-27.777161}},{"_id":1105774,"name":"Eersterus","country":"ZA","coord":{"lon":28.314951,"lat":-25.70546}},{"_id":1006978,"name":"East Lynne","country":"ZA","coord":{"lon":28.277769,"lat":-25.70664}},{"_id":963944,"name":"Protea Ridge","country":"ZA","coord":{"lon":27.75,"lat":-26.033331}},{"_id":3370331,"name":"Aurora","country":"ZA","coord":{"lon":18.48514,"lat":-32.705959}},{"_id":982332,"name":"Lombardy East","country":"ZA","coord":{"lon":28.124729,"lat":-26.11832}},{"_id":981139,"name":"Lyndhurst","country":"ZA","coord":{"lon":28.109051,"lat":-26.12752}},{"_id":972138,"name":"Nancefield","country":"ZA","coord":{"lon":27.917879,"lat":-26.303949}},{"_id":1005928,"name":"Eldoradopark","country":"ZA","coord":{"lon":27.89784,"lat":-26.297119}},{"_id":1023454,"name":"Albert Falls","country":"ZA","coord":{"lon":30.433439,"lat":-29.44039}},{"_id":1001632,"name":"Glenhurd","country":"ZA","coord":{"lon":25.566669,"lat":-33.950001}},{"_id":1013337,"name":"Clermont","country":"ZA","coord":{"lon":30.897881,"lat":-29.793119}},{"_id":1010728,"name":"De Rust","country":"ZA","coord":{"lon":22.535231,"lat":-33.490349}},{"_id":937246,"name":"Zastron","country":"ZA","coord":{"lon":27.08395,"lat":-30.30225}},{"_id":973971,"name":"Morgan’s Bay","country":"ZA","coord":{"lon":28.34112,"lat":-32.704601}},{"_id":3370147,"name":"Belhar","country":"ZA","coord":{"lon":18.62701,"lat":-33.944809}},{"_id":3369035,"name":"Crossroads","country":"ZA","coord":{"lon":18.59598,"lat":-33.99445}},{"_id":982758,"name":"Limewell","country":"ZA","coord":{"lon":22.50614,"lat":-28.840731}},{"_id":939493,"name":"Wingate Park","country":"ZA","coord":{"lon":28.26709,"lat":-25.82593}},{"_id":981084,"name":"Lyttelton","country":"ZA","coord":{"lon":28.2012,"lat":-25.82988}},{"_id":955487,"name":"Sinoville","country":"ZA","coord":{"lon":28.21987,"lat":-25.676291}},{"_id":3359736,"name":"Vredendal","country":"ZA","coord":{"lon":18.50119,"lat":-31.668329}},{"_id":8063447,"name":"Glen Ashley","country":"ZA","coord":{"lon":31.053711,"lat":-29.75946}},{"_id":995160,"name":"Huhudi","country":"ZA","coord":{"lon":24.74107,"lat":-26.97398}},{"_id":976539,"name":"Mhlahlane","country":"ZA","coord":{"lon":28.690571,"lat":-31.55892}},{"_id":945945,"name":"Upington","country":"ZA","coord":{"lon":21.256121,"lat":-28.44776}},{"_id":946257,"name":"Ulundi","country":"ZA","coord":{"lon":31.41617,"lat":-28.33523}},{"_id":941225,"name":"Welbeloond","country":"ZA","coord":{"lon":30.383329,"lat":-23.85}},{"_id":991664,"name":"Kathu","country":"ZA","coord":{"lon":23.04929,"lat":-27.69569}},{"_id":3361142,"name":"Springbok","country":"ZA","coord":{"lon":17.886499,"lat":-29.664339}},{"_id":951511,"name":"Suits Me","country":"ZA","coord":{"lon":32.042461,"lat":-28.72192}},{"_id":944595,"name":"Veldenvlei","country":"ZA","coord":{"lon":32.061619,"lat":-28.739941}},{"_id":995808,"name":"Home Park","country":"ZA","coord":{"lon":26.89595,"lat":-31.93598}},{"_id":1005401,"name":"Enkelbosch","country":"ZA","coord":{"lon":29.46512,"lat":-23.85747}},{"_id":980984,"name":"Mabele-a-podi","country":"ZA","coord":{"lon":27.204651,"lat":-25.280531}},{"_id":965960,"name":"Pelham","country":"ZA","coord":{"lon":30.3895,"lat":-29.630739}},{"_id":1014202,"name":"Camerondale","country":"ZA","coord":{"lon":29.5261,"lat":-31.593019}},{"_id":953975,"name":"Port Elizabeth Airport","country":"ZA","coord":{"lon":25.611361,"lat":-33.984039}},{"_id":942360,"name":"Vyekraal","country":"ZA","coord":{"lon":23.342501,"lat":-34.10078}},{"_id":967106,"name":"Oudtshoorn","country":"ZA","coord":{"lon":22.201401,"lat":-33.590672}},{"_id":940445,"name":"Wesbank","country":"ZA","coord":{"lon":22.19264,"lat":-33.594101}},{"_id":978352,"name":"Mataffin","country":"ZA","coord":{"lon":30.92782,"lat":-25.47629}},{"_id":1010511,"name":"Diasstrand","country":"ZA","coord":{"lon":22.10376,"lat":-34.1576}},{"_id":982393,"name":"Lokaleng","country":"ZA","coord":{"lon":25.570009,"lat":-25.798679}},{"_id":1004666,"name":"Faerie Glen","country":"ZA","coord":{"lon":30.33333,"lat":-30.85}},{"_id":961331,"name":"Rietvlei","country":"ZA","coord":{"lon":29.87392,"lat":-23.078739}},{"_id":7646541,"name":"Lanseria","country":"ZA","coord":{"lon":27.934891,"lat":-25.93981}},{"_id":3365707,"name":"Kleinsee","country":"ZA","coord":{"lon":17.0709,"lat":-29.677139}},{"_id":988290,"name":"Komatipoort","country":"ZA","coord":{"lon":31.954781,"lat":-25.433201}},{"_id":1007195,"name":"Dwaleni","country":"ZA","coord":{"lon":31.100321,"lat":-25.359751}},{"_id":960812,"name":"Ronald’s Vlei","country":"ZA","coord":{"lon":24.75688,"lat":-28.78916}},{"_id":7870390,"name":"Alberton North","country":"ZA","coord":{"lon":28.132469,"lat":-26.240999}},{"_id":7304422,"name":"Herolds Bay","country":"ZA","coord":{"lon":22.397091,"lat":-34.048321}},{"_id":1105776,"name":"Midrand","country":"ZA","coord":{"lon":28.137779,"lat":-25.96361}},{"_id":939666,"name":"Willow Park","country":"ZA","coord":{"lon":27.816481,"lat":-33.041382}},{"_id":1014884,"name":"Bulembu","country":"ZA","coord":{"lon":27.252859,"lat":-32.884361}},{"_id":3365164,"name":"Kortdoorn","country":"ZA","coord":{"lon":16.54413,"lat":-28.56181}},{"_id":976885,"name":"Messina","country":"ZA","coord":{"lon":30.0396,"lat":-22.351311}},{"_id":939608,"name":"Winburg","country":"ZA","coord":{"lon":27.009331,"lat":-28.518049}},{"_id":939676,"name":"Willowmore","country":"ZA","coord":{"lon":23.48954,"lat":-33.292648}},{"_id":940186,"name":"Whittlesea","country":"ZA","coord":{"lon":26.824369,"lat":-32.17588}},{"_id":942701,"name":"Vrede","country":"ZA","coord":{"lon":29.16585,"lat":-27.42573}},{"_id":944540,"name":"Ventersburg","country":"ZA","coord":{"lon":27.13814,"lat":-28.085609}},{"_id":945813,"name":"Utrecht","country":"ZA","coord":{"lon":30.321659,"lat":-27.658621}},{"_id":949026,"name":"Thulamahashi","country":"ZA","coord":{"lon":31.19939,"lat":-24.72459}},{"_id":951441,"name":"Sundumbili","country":"ZA","coord":{"lon":31.39752,"lat":-29.133711}},{"_id":964090,"name":"Prieska","country":"ZA","coord":{"lon":22.747419,"lat":-29.664089}},{"_id":964408,"name":"Port Saint Johns","country":"ZA","coord":{"lon":29.544769,"lat":-31.62291}},{"_id":967580,"name":"Orange Farm","country":"ZA","coord":{"lon":27.866671,"lat":-26.48333}},{"_id":972673,"name":"Muldersdriseloop","country":"ZA","coord":{"lon":27.83798,"lat":-26.03673}},{"_id":974222,"name":"Mooirivier","country":"ZA","coord":{"lon":29.9946,"lat":-29.208241}},{"_id":974719,"name":"Molteno","country":"ZA","coord":{"lon":26.362459,"lat":-31.396761}},{"_id":975144,"name":"Modderfontein","country":"ZA","coord":{"lon":28.16534,"lat":-26.08909}},{"_id":978677,"name":"Marquard","country":"ZA","coord":{"lon":27.430479,"lat":-28.66449}},{"_id":979365,"name":"Mankoeng","country":"ZA","coord":{"lon":29.816669,"lat":-23.9}},{"_id":986134,"name":"Kuruman","country":"ZA","coord":{"lon":23.432461,"lat":-27.4524}},{"_id":987875,"name":"Koppies","country":"ZA","coord":{"lon":27.574221,"lat":-27.241791}},{"_id":994023,"name":"Jan Kempdorp","country":"ZA","coord":{"lon":24.830521,"lat":-27.922461}},{"_id":994939,"name":"Ilinge","country":"ZA","coord":{"lon":27.042669,"lat":-31.976761}},{"_id":995573,"name":"Hoopstad","country":"ZA","coord":{"lon":25.908331,"lat":-27.832741}},{"_id":1000006,"name":"Greytown","country":"ZA","coord":{"lon":30.592791,"lat":-29.064159}},{"_id":1003462,"name":"GAKGAPANE","country":"ZA","coord":{"lon":30.216669,"lat":-23.633329}},{"_id":1006420,"name":"Ekuvukeni","country":"ZA","coord":{"lon":30.15513,"lat":-28.46752}},{"_id":1008858,"name":"Dordrecht","country":"ZA","coord":{"lon":27.04878,"lat":-31.372}},{"_id":1010962,"name":"Deneysville","country":"ZA","coord":{"lon":28.097071,"lat":-26.8908}},{"_id":1011918,"name":"Danielskuil","country":"ZA","coord":{"lon":23.539511,"lat":-28.18873}},{"_id":1013076,"name":"Colesberg","country":"ZA","coord":{"lon":25.097179,"lat":-30.71999}},{"_id":1013266,"name":"Clocolan","country":"ZA","coord":{"lon":27.565559,"lat":-28.91367}},{"_id":1014034,"name":"Carnarvon","country":"ZA","coord":{"lon":22.13303,"lat":-30.968269}},{"_id":1014653,"name":"Burgersdorp","country":"ZA","coord":{"lon":26.328621,"lat":-30.99766}},{"_id":1015694,"name":"Breyten","country":"ZA","coord":{"lon":29.986959,"lat":-26.30176}},{"_id":1015776,"name":"Bredasdorp","country":"ZA","coord":{"lon":20.04031,"lat":-34.53215}},{"_id":1020066,"name":"Berea","country":"ZA","coord":{"lon":30.99337,"lat":-29.851851}},{"_id":1020340,"name":"Belfast","country":"ZA","coord":{"lon":30.03504,"lat":-25.689911}},{"_id":1023332,"name":"Alice","country":"ZA","coord":{"lon":26.8344,"lat":-32.787491}},{"_id":1023656,"name":"Adelaide","country":"ZA","coord":{"lon":26.295641,"lat":-32.70747}},{"_id":3362024,"name":"Rosebank","country":"ZA","coord":{"lon":18.474171,"lat":-33.955559}},{"_id":3369056,"name":"Constantia","country":"ZA","coord":{"lon":18.418329,"lat":-34.031391}},{"_id":3369098,"name":"Claremont","country":"ZA","coord":{"lon":18.465281,"lat":-33.98056}},{"_id":6942529,"name":"Sunset Beach","country":"ZA","coord":{"lon":18.49231,"lat":-33.853951}},{"_id":8063445,"name":"Glenmarais","country":"ZA","coord":{"lon":28.270309,"lat":-26.057859}},{"_id":3365999,"name":"Kenridge","country":"ZA","coord":{"lon":18.63633,"lat":-33.85918}},{"_id":3361026,"name":"Stellenberg","country":"ZA","coord":{"lon":18.65992,"lat":-33.866089}},{"_id":959931,"name":"Rooihuiskraal","country":"ZA","coord":{"lon":28.150761,"lat":-25.894279}},{"_id":1015633,"name":"Brink’s Vlakfontein","country":"ZA","coord":{"lon":27.799999,"lat":-26.183331}},{"_id":1006919,"name":"Ebenhaezer","country":"ZA","coord":{"lon":28.283331,"lat":-28.383329}}]}
