{"countryCode":"AL","countryName":"Albania","countryFilePath":"AL.json","countryCityList":[{"_id":782519,"name":"Librazhd","country":"AL","coord":{"lon":20.315001,"lat":41.17944}},{"_id":781988,"name":"Pogradec","country":"AL","coord":{"lon":20.6525,"lat":40.9025}},{"_id":363320,"name":"Konispol","country":"AL","coord":{"lon":20.181391,"lat":39.65889}},{"_id":782632,"name":"Kurbnesh","country":"AL","coord":{"lon":20.083611,"lat":41.77972}},{"_id":783214,"name":"Fushe-Arrez","country":"AL","coord":{"lon":20.01667,"lat":42.062222}},{"_id":3184197,"name":"Selenice","country":"AL","coord":{"lon":19.63583,"lat":40.53056}},{"_id":3184388,"name":"Puke","country":"AL","coord":{"lon":19.899719,"lat":42.044441}},{"_id":3184575,"name":"Orikum","country":"AL","coord":{"lon":19.47139,"lat":40.325279}},{"_id":3184702,"name":"Milot","country":"AL","coord":{"lon":19.715561,"lat":41.683891}},{"_id":3183875,"name":"Tirana","country":"AL","coord":{"lon":19.81889,"lat":41.327499}},{"_id":3184753,"name":"Mbyet","country":"AL","coord":{"lon":19.56111,"lat":40.708061}},{"_id":363383,"name":"Delvine","country":"AL","coord":{"lon":20.09778,"lat":39.951111}},{"_id":781919,"name":"Perrenjas-Fshat","country":"AL","coord":{"lon":20.53528,"lat":41.066669}},{"_id":781979,"name":"Polican","country":"AL","coord":{"lon":20.098061,"lat":40.612221}},{"_id":782070,"name":"Permet","country":"AL","coord":{"lon":20.351669,"lat":40.233608}},{"_id":782393,"name":"Maliq","country":"AL","coord":{"lon":20.69972,"lat":40.70583}},{"_id":782523,"name":"Libohove","country":"AL","coord":{"lon":20.26306,"lat":40.031109}},{"_id":782535,"name":"Leskovik","country":"AL","coord":{"lon":20.597219,"lat":40.15139}},{"_id":782843,"name":"Kelcyre","country":"AL","coord":{"lon":20.18944,"lat":40.313061}},{"_id":783259,"name":"Erseke","country":"AL","coord":{"lon":20.67889,"lat":40.33778}},{"_id":783408,"name":"Corovode","country":"AL","coord":{"lon":20.227221,"lat":40.504169}},{"_id":783508,"name":"Bulqize","country":"AL","coord":{"lon":20.221939,"lat":41.491669}},{"_id":783606,"name":"Bilisht","country":"AL","coord":{"lon":20.99,"lat":40.627499}},{"_id":832209,"name":"Librazhd-Qender","country":"AL","coord":{"lon":20.33556,"lat":41.196941}},{"_id":3183691,"name":"Vukatane, Vukatan","country":"AL","coord":{"lon":19.547779,"lat":42.028061}},{"_id":3183708,"name":"Vore","country":"AL","coord":{"lon":19.655001,"lat":41.390831}},{"_id":3183814,"name":"Ura Vajgurore","country":"AL","coord":{"lon":19.877781,"lat":40.76889}},{"_id":3184099,"name":"Shijak","country":"AL","coord":{"lon":19.567221,"lat":41.345558}},{"_id":3184136,"name":"Shengjin","country":"AL","coord":{"lon":19.593889,"lat":41.81361}},{"_id":3184238,"name":"Rubik","country":"AL","coord":{"lon":19.78611,"lat":41.774441}},{"_id":3184252,"name":"Rrogozhine","country":"AL","coord":{"lon":19.665279,"lat":41.076389}},{"_id":3184264,"name":"Rreshen","country":"AL","coord":{"lon":19.875561,"lat":41.767502}},{"_id":3184290,"name":"Roskovec","country":"AL","coord":{"lon":19.702221,"lat":40.737499}},{"_id":3184743,"name":"Memaliaj","country":"AL","coord":{"lon":19.98028,"lat":40.351669}},{"_id":3184806,"name":"Mamurras","country":"AL","coord":{"lon":19.692221,"lat":41.577499}},{"_id":3185087,"name":"Krrabe","country":"AL","coord":{"lon":19.97139,"lat":41.215561}},{"_id":3185133,"name":"Koplik","country":"AL","coord":{"lon":19.43639,"lat":42.213612}},{"_id":3185270,"name":"Kamez","country":"AL","coord":{"lon":19.760281,"lat":41.381672}},{"_id":3185377,"name":"Himare","country":"AL","coord":{"lon":19.74472,"lat":40.101669}},{"_id":3185638,"name":"Fushe-Kruje","country":"AL","coord":{"lon":19.717779,"lat":41.478329}},{"_id":3186145,"name":"Ballsh","country":"AL","coord":{"lon":19.73472,"lat":40.598888}},{"_id":865732,"name":"Qarku i Elbasanit","country":"AL","coord":{"lon":20.299999,"lat":41.116669}},{"_id":782861,"name":"Karkavec","country":"AL","coord":{"lon":20.48,"lat":41.062778}},{"_id":3183719,"name":"Vlore","country":"AL","coord":{"lon":19.489719,"lat":40.466671}},{"_id":783754,"name":"Republic of Albania","country":"AL","coord":{"lon":20.0,"lat":41.0}},{"_id":3344951,"name":"Qarku i Tiranës","country":"AL","coord":{"lon":19.89167,"lat":41.299999}},{"_id":3184285,"name":"Rrakull","country":"AL","coord":{"lon":19.53194,"lat":41.192501}},{"_id":783493,"name":"Burrel","country":"AL","coord":{"lon":20.00889,"lat":41.610279}},{"_id":3344950,"name":"Qarku i Shkodrës","country":"AL","coord":{"lon":19.75,"lat":42.183331}},{"_id":3184081,"name":"Shkoder","country":"AL","coord":{"lon":19.512581,"lat":42.068279}},{"_id":865734,"name":"Qarku i Korçës","country":"AL","coord":{"lon":20.65,"lat":40.583328}},{"_id":782756,"name":"Korce","country":"AL","coord":{"lon":20.78083,"lat":40.61861}},{"_id":3344952,"name":"Qarku i Vlorës","country":"AL","coord":{"lon":19.799999,"lat":40.166672}},{"_id":3344948,"name":"Qarku i Fierit","country":"AL","coord":{"lon":19.75,"lat":40.75}},{"_id":3184862,"name":"Lushnje","country":"AL","coord":{"lon":19.705,"lat":40.94194}},{"_id":3185672,"name":"Fier","country":"AL","coord":{"lon":19.55611,"lat":40.723888}},{"_id":3344947,"name":"Qarku i Durrësit","country":"AL","coord":{"lon":19.58333,"lat":41.48333}},{"_id":3185728,"name":"Durres","country":"AL","coord":{"lon":19.441389,"lat":41.323059}},{"_id":3184497,"name":"Peqin","country":"AL","coord":{"lon":19.75111,"lat":41.046108}},{"_id":783263,"name":"Elbasan","country":"AL","coord":{"lon":20.08222,"lat":41.112499}},{"_id":865730,"name":"Qarku i Beratit","country":"AL","coord":{"lon":20.066669,"lat":40.650002}},{"_id":3186084,"name":"Berat","country":"AL","coord":{"lon":19.952221,"lat":40.70583}},{"_id":3185897,"name":"Cerrik","country":"AL","coord":{"lon":19.97583,"lat":41.03167}},{"_id":3344949,"name":"Qarku i Lezhës","country":"AL","coord":{"lon":19.866671,"lat":41.833328}},{"_id":3184935,"name":"Lezhe","country":"AL","coord":{"lon":19.64361,"lat":41.783611}},{"_id":865733,"name":"Qarku i Gjirokastrës","country":"AL","coord":{"lon":20.200001,"lat":40.216671}},{"_id":783148,"name":"Gjirokaster","country":"AL","coord":{"lon":20.138889,"lat":40.075829}},{"_id":3185082,"name":"Kruje","country":"AL","coord":{"lon":19.79278,"lat":41.509171}},{"_id":865735,"name":"Qarku i Kukësit","country":"AL","coord":{"lon":20.366671,"lat":42.200001}},{"_id":829448,"name":"Bllatë","country":"AL","coord":{"lon":20.070829,"lat":42.34222}},{"_id":781171,"name":"Vushnicë","country":"AL","coord":{"lon":20.066669,"lat":42.349998}},{"_id":782661,"name":"Kukes","country":"AL","coord":{"lon":20.42194,"lat":42.076939}},{"_id":363243,"name":"Sarande","country":"AL","coord":{"lon":20.00528,"lat":39.875561}},{"_id":3185211,"name":"Kavaje","country":"AL","coord":{"lon":19.55694,"lat":41.185558}},{"_id":781443,"name":"Tepelene","country":"AL","coord":{"lon":20.019171,"lat":40.29583}},{"_id":783059,"name":"Gramsh","country":"AL","coord":{"lon":20.184441,"lat":40.86972}},{"_id":865731,"name":"Qarku i Dibrës","country":"AL","coord":{"lon":20.16667,"lat":41.666672}},{"_id":782061,"name":"Peshkopi","country":"AL","coord":{"lon":20.42889,"lat":41.685001}},{"_id":3185060,"name":"Kucove","country":"AL","coord":{"lon":19.91667,"lat":40.800282}},{"_id":781360,"name":"Rrethi i Tropojës","country":"AL","coord":{"lon":20.16283,"lat":42.399502}},{"_id":782859,"name":"Kasaj","country":"AL","coord":{"lon":20.193331,"lat":42.408058}},{"_id":864834,"name":"Klos-Katund","country":"AL","coord":{"lon":20.108061,"lat":41.48444}},{"_id":3184368,"name":"Qerek","country":"AL","coord":{"lon":19.735001,"lat":41.41}},{"_id":3184517,"name":"Patos Fshat","country":"AL","coord":{"lon":19.650829,"lat":40.64278}},{"_id":3185012,"name":"Lac","country":"AL","coord":{"lon":19.71306,"lat":41.635559}},{"_id":3185670,"name":"Fier-Cifci","country":"AL","coord":{"lon":19.566669,"lat":40.716671}}]}
