{"countryCode":"BA","countryName":"Bosnia and Herzegovina","countryFilePath":"BA.json","countryCityList":[{"_id":3256023,"name":"Kalanac","country":"BA","coord":{"lon":18.78389,"lat":44.86861}},{"_id":3269932,"name":"Tinje","country":"BA","coord":{"lon":18.18417,"lat":43.521671}},{"_id":3202822,"name":"Cazin","country":"BA","coord":{"lon":15.94306,"lat":44.966942}},{"_id":3186588,"name":"Zeljezno Polje","country":"BA","coord":{"lon":17.93194,"lat":44.408329}},{"_id":3191426,"name":"Rumboci","country":"BA","coord":{"lon":17.50111,"lat":43.832218}},{"_id":3201060,"name":"Dubrave Gornje","country":"BA","coord":{"lon":18.729719,"lat":44.47139}},{"_id":3202589,"name":"Cim","country":"BA","coord":{"lon":17.77722,"lat":43.352779}},{"_id":3204168,"name":"Bila","country":"BA","coord":{"lon":16.92528,"lat":43.782501}},{"_id":3294903,"name":"Brcko District of Bosnia and Herzegovina","country":"BA","coord":{"lon":18.83333,"lat":44.833328}},{"_id":3287997,"name":"Vinine","country":"BA","coord":{"lon":17.477221,"lat":43.209438}},{"_id":3190327,"name":"Sopot","country":"BA","coord":{"lon":18.255831,"lat":43.51083}},{"_id":3242584,"name":"Miljeviči","country":"BA","coord":{"lon":18.45083,"lat":44.26194}},{"_id":3268170,"name":"Alipašino Polje","country":"BA","coord":{"lon":18.35556,"lat":43.840561}},{"_id":3199744,"name":"Gradacac","country":"BA","coord":{"lon":18.426941,"lat":44.880829}},{"_id":3337476,"name":"Konjic","country":"BA","coord":{"lon":17.96139,"lat":43.651939}},{"_id":3186679,"name":"Zboriste","country":"BA","coord":{"lon":16.01778,"lat":45.145828}},{"_id":3191302,"name":"Sanica","country":"BA","coord":{"lon":16.641109,"lat":44.61417}},{"_id":3201057,"name":"Dubravica","country":"BA","coord":{"lon":18.118059,"lat":44.44194}},{"_id":3277605,"name":"Bosnia and Herzegovina","country":"BA","coord":{"lon":17.83333,"lat":44.25}},{"_id":3229999,"name":"Federation of Bosnia and Herzegovina","country":"BA","coord":{"lon":17.58333,"lat":44.0}},{"_id":3199415,"name":"Harambašići","country":"BA","coord":{"lon":17.54278,"lat":44.131672}},{"_id":3200484,"name":"Goleš","country":"BA","coord":{"lon":17.532221,"lat":44.194172}},{"_id":3244171,"name":"Podsokolina","country":"BA","coord":{"lon":18.483891,"lat":44.239719}},{"_id":3262955,"name":"Gostići","country":"BA","coord":{"lon":18.415279,"lat":44.53083}},{"_id":3260178,"name":"Gajići","country":"BA","coord":{"lon":18.183889,"lat":44.576672}},{"_id":3263542,"name":"Riđušića Han","country":"BA","coord":{"lon":17.84833,"lat":43.28833}},{"_id":3188225,"name":"Velika Kladusa","country":"BA","coord":{"lon":15.81167,"lat":45.189442}},{"_id":3268175,"name":"Hrasno","country":"BA","coord":{"lon":18.382219,"lat":43.843891}},{"_id":3230000,"name":"Republika Srpska","country":"BA","coord":{"lon":17.183331,"lat":44.933331}},{"_id":3204541,"name":"Banja Luka","country":"BA","coord":{"lon":17.18556,"lat":44.775829}},{"_id":3186573,"name":"Zenica","country":"BA","coord":{"lon":17.906389,"lat":44.201389}},{"_id":3194828,"name":"Mostar","country":"BA","coord":{"lon":17.80806,"lat":43.34333}},{"_id":3260158,"name":"Kojšino","country":"BA","coord":{"lon":18.683331,"lat":44.548328}},{"_id":3260164,"name":"Tušanj","country":"BA","coord":{"lon":18.676941,"lat":44.54583}},{"_id":3204222,"name":"Bihac","country":"BA","coord":{"lon":15.87083,"lat":44.81694}},{"_id":3188924,"name":"Travnik","country":"BA","coord":{"lon":17.670561,"lat":44.226669}},{"_id":3199779,"name":"Gracanica","country":"BA","coord":{"lon":18.309719,"lat":44.703331}},{"_id":3198126,"name":"Kladanj","country":"BA","coord":{"lon":18.691389,"lat":44.226391}},{"_id":3187609,"name":"Visoko","country":"BA","coord":{"lon":18.178061,"lat":43.988892}},{"_id":3203521,"name":"Brcko","country":"BA","coord":{"lon":18.808331,"lat":44.87278}},{"_id":3200396,"name":"Gorazde","country":"BA","coord":{"lon":18.976391,"lat":43.666939}},{"_id":3203656,"name":"Bosanska Gradiska","country":"BA","coord":{"lon":17.25,"lat":45.141109}},{"_id":3189143,"name":"Teslic","country":"BA","coord":{"lon":17.85972,"lat":44.606392}},{"_id":3187681,"name":"Visegrad","country":"BA","coord":{"lon":19.29917,"lat":43.784721}},{"_id":3204186,"name":"Bijeljina","country":"BA","coord":{"lon":19.21611,"lat":44.756939}},{"_id":3193692,"name":"Pale","country":"BA","coord":{"lon":18.569441,"lat":43.816109}},{"_id":3188893,"name":"Trebinje","country":"BA","coord":{"lon":18.34417,"lat":42.711941}},{"_id":3192409,"name":"Prijedor","country":"BA","coord":{"lon":16.71306,"lat":44.981392}},{"_id":3187524,"name":"Vlasenica","country":"BA","coord":{"lon":18.940559,"lat":44.181938}},{"_id":3200837,"name":"Foca","country":"BA","coord":{"lon":18.77861,"lat":43.505001}},{"_id":3201984,"name":"Doboj","country":"BA","coord":{"lon":18.08778,"lat":44.734718}},{"_id":3203099,"name":"Bugojno","country":"BA","coord":{"lon":17.45083,"lat":44.05722}},{"_id":3186423,"name":"Zivinice","country":"BA","coord":{"lon":18.649719,"lat":44.44944}},{"_id":3196324,"name":"Ljubuski","country":"BA","coord":{"lon":17.545,"lat":43.196941}},{"_id":3190159,"name":"Srebrenica","country":"BA","coord":{"lon":19.29694,"lat":44.106392}},{"_id":3189146,"name":"Tesanj","country":"BA","coord":{"lon":17.987221,"lat":44.611671}},{"_id":3201933,"name":"Donja Dobrinja","country":"BA","coord":{"lon":18.309441,"lat":44.941391}},{"_id":3198934,"name":"Jajce","country":"BA","coord":{"lon":17.26556,"lat":44.34222}},{"_id":3194035,"name":"Orasje","country":"BA","coord":{"lon":18.693331,"lat":45.035561}},{"_id":3190172,"name":"Srbac","country":"BA","coord":{"lon":17.525,"lat":45.097778}},{"_id":3195946,"name":"Maglaj","country":"BA","coord":{"lon":18.09667,"lat":44.549171}},{"_id":3186567,"name":"Zepce","country":"BA","coord":{"lon":18.037781,"lat":44.42667}},{"_id":3188366,"name":"Vares","country":"BA","coord":{"lon":18.328329,"lat":44.16444}},{"_id":3196410,"name":"Livno","country":"BA","coord":{"lon":17.00778,"lat":43.826939}},{"_id":3200167,"name":"Gornja Tuzla","country":"BA","coord":{"lon":18.761391,"lat":44.55611}},{"_id":3202955,"name":"Busovaca","country":"BA","coord":{"lon":17.878889,"lat":44.0975}},{"_id":3200768,"name":"Gacko","country":"BA","coord":{"lon":18.53528,"lat":43.167221}},{"_id":3197492,"name":"Kozarac","country":"BA","coord":{"lon":16.84083,"lat":44.97361}},{"_id":3191156,"name":"Sekovici","country":"BA","coord":{"lon":18.852779,"lat":44.298611}},{"_id":3203657,"name":"Bosanska Dubica","country":"BA","coord":{"lon":16.809441,"lat":45.17667}},{"_id":3203653,"name":"Bosanska Krupa","country":"BA","coord":{"lon":16.15139,"lat":44.8825}},{"_id":3194514,"name":"Neum","country":"BA","coord":{"lon":17.615561,"lat":42.923328}},{"_id":3201136,"name":"Drvar","country":"BA","coord":{"lon":16.380831,"lat":44.37389}},{"_id":3203646,"name":"Bosanski Petrovac","country":"BA","coord":{"lon":16.36861,"lat":44.555}},{"_id":3203647,"name":"Bosanski Novi","country":"BA","coord":{"lon":16.38028,"lat":45.04583}},{"_id":3201376,"name":"Donji Vakuf","country":"BA","coord":{"lon":17.4,"lat":44.143608}},{"_id":3198050,"name":"Kljuc","country":"BA","coord":{"lon":16.772221,"lat":44.535}},{"_id":3203651,"name":"Bosanski Brod","country":"BA","coord":{"lon":17.989719,"lat":45.137501}},{"_id":3264817,"name":"Međugorje","country":"BA","coord":{"lon":17.852221,"lat":42.943611}},{"_id":3194724,"name":"Mrkonjic Grad","country":"BA","coord":{"lon":17.086109,"lat":44.415829}},{"_id":3203645,"name":"Bosanski Samac","country":"BA","coord":{"lon":18.46694,"lat":45.05917}},{"_id":3266417,"name":"Vranješ","country":"BA","coord":{"lon":18.374439,"lat":43.82056}},{"_id":3200651,"name":"Glamoc","country":"BA","coord":{"lon":16.84861,"lat":44.04583}},{"_id":3254932,"name":"Tuzlani","country":"BA","coord":{"lon":18.493891,"lat":44.914719}},{"_id":3199314,"name":"Hrasnica","country":"BA","coord":{"lon":18.316669,"lat":43.794441}},{"_id":3275385,"name":"Begići","country":"BA","coord":{"lon":18.73167,"lat":44.46917}},{"_id":3202947,"name":"Butmir","country":"BA","coord":{"lon":18.326111,"lat":43.819172}},{"_id":3188582,"name":"Tuzla","country":"BA","coord":{"lon":18.669439,"lat":44.542782}},{"_id":3191281,"name":"Sarajevo","country":"BA","coord":{"lon":18.35644,"lat":43.84864}},{"_id":3186246,"name":"Zvornik","country":"BA","coord":{"lon":19.101391,"lat":44.38694}},{"_id":3186422,"name":"Zivinice","country":"BA","coord":{"lon":17.375,"lat":44.547218}},{"_id":3186717,"name":"Zavidovici","country":"BA","coord":{"lon":18.149719,"lat":44.445831}},{"_id":3186961,"name":"Zabrisce","country":"BA","coord":{"lon":16.942221,"lat":43.7925}},{"_id":3187040,"name":"Vukovije Donje","country":"BA","coord":{"lon":18.753889,"lat":44.463612}},{"_id":3187162,"name":"Vrnograc","country":"BA","coord":{"lon":15.95361,"lat":45.163609}},{"_id":3187393,"name":"Vozuca","country":"BA","coord":{"lon":18.35778,"lat":44.361389}},{"_id":3187419,"name":"Voljevac","country":"BA","coord":{"lon":17.65917,"lat":43.878609}},{"_id":3187464,"name":"Vogosca","country":"BA","coord":{"lon":18.348061,"lat":43.901939}},{"_id":3187588,"name":"Vitina","country":"BA","coord":{"lon":17.483891,"lat":43.237499}},{"_id":3187590,"name":"Vitez","country":"BA","coord":{"lon":17.790279,"lat":44.154442}},{"_id":3187799,"name":"Vidosi","country":"BA","coord":{"lon":17.02833,"lat":43.771389}},{"_id":3188199,"name":"Velika Obarska","country":"BA","coord":{"lon":19.164169,"lat":44.805279}},{"_id":3188329,"name":"Velagici","country":"BA","coord":{"lon":16.73167,"lat":44.55722}},{"_id":3188357,"name":"Varoska Rijeka","country":"BA","coord":{"lon":16.01417,"lat":45.084721}},{"_id":3343726,"name":"Bosansko-Podrinjski Kanton","country":"BA","coord":{"lon":18.799999,"lat":43.655281}},{"_id":3188458,"name":"Ustikolina","country":"BA","coord":{"lon":18.790001,"lat":43.583611}},{"_id":3294874,"name":"Opština Ugljevik","country":"BA","coord":{"lon":18.99382,"lat":44.69297}},{"_id":3188532,"name":"Ugljevik","country":"BA","coord":{"lon":19.020281,"lat":44.663609}},{"_id":3188633,"name":"Turbe","country":"BA","coord":{"lon":17.57139,"lat":44.24361}},{"_id":3188691,"name":"Trzacka Rastela","country":"BA","coord":{"lon":15.79028,"lat":44.973331}},{"_id":3188817,"name":"Trn","country":"BA","coord":{"lon":17.236389,"lat":44.859718}},{"_id":3189046,"name":"Tojsici","country":"BA","coord":{"lon":18.785561,"lat":44.50111}},{"_id":3189236,"name":"Svodna","country":"BA","coord":{"lon":16.53833,"lat":45.03722}},{"_id":3189513,"name":"Sumatac","country":"BA","coord":{"lon":15.8575,"lat":45.098888}},{"_id":3189602,"name":"Sturlic","country":"BA","coord":{"lon":15.77806,"lat":45.063889}},{"_id":3189621,"name":"Stupari","country":"BA","coord":{"lon":18.68417,"lat":44.31472}},{"_id":3189823,"name":"Stolac","country":"BA","coord":{"lon":17.9575,"lat":43.084438}},{"_id":3189848,"name":"Stjepan-Polje","country":"BA","coord":{"lon":18.259439,"lat":44.71722}},{"_id":3189884,"name":"Stijena","country":"BA","coord":{"lon":16.01722,"lat":44.93528}},{"_id":3190158,"name":"Srebrenik","country":"BA","coord":{"lon":18.48806,"lat":44.707779}},{"_id":3190357,"name":"Solina","country":"BA","coord":{"lon":18.694719,"lat":44.56028}},{"_id":3190385,"name":"Sokolac","country":"BA","coord":{"lon":18.80167,"lat":43.93972}},{"_id":3190652,"name":"Sladna","country":"BA","coord":{"lon":18.42417,"lat":44.729439}},{"_id":3190733,"name":"Skender Vakuf","country":"BA","coord":{"lon":17.377501,"lat":44.490829}},{"_id":3190837,"name":"Sipovo","country":"BA","coord":{"lon":17.083891,"lat":44.281391}},{"_id":3190987,"name":"Serici","country":"BA","coord":{"lon":18.55806,"lat":44.465279}},{"_id":3191297,"name":"Sanski Most","country":"BA","coord":{"lon":16.66556,"lat":44.765282}},{"_id":3191449,"name":"Rudo","country":"BA","coord":{"lon":19.36639,"lat":43.617779}},{"_id":3191576,"name":"Rogatica","country":"BA","coord":{"lon":19.002501,"lat":43.800831}},{"_id":3191589,"name":"Rodoc","country":"BA","coord":{"lon":17.80694,"lat":43.308891}},{"_id":3192123,"name":"Radisici","country":"BA","coord":{"lon":17.54306,"lat":43.221939}},{"_id":3192206,"name":"Puracic","country":"BA","coord":{"lon":18.476669,"lat":44.54694}},{"_id":3192236,"name":"Novi Travnik","country":"BA","coord":{"lon":17.657499,"lat":44.171108}},{"_id":3192279,"name":"Prozor","country":"BA","coord":{"lon":17.609171,"lat":43.82222}},{"_id":3192327,"name":"Prnjavor","country":"BA","coord":{"lon":17.662781,"lat":44.870281}},{"_id":3192449,"name":"Priboj","country":"BA","coord":{"lon":18.931391,"lat":44.602779}},{"_id":3192456,"name":"Pribinic","country":"BA","coord":{"lon":17.690559,"lat":44.610561}},{"_id":3192653,"name":"Potoci","country":"BA","coord":{"lon":17.878611,"lat":43.408611}},{"_id":3192718,"name":"Popovi","country":"BA","coord":{"lon":19.2875,"lat":44.76556}},{"_id":3192793,"name":"Polje-Bijela","country":"BA","coord":{"lon":17.972219,"lat":43.633331}},{"_id":3192878,"name":"Podzvizd","country":"BA","coord":{"lon":15.87361,"lat":45.174171}},{"_id":3193008,"name":"Podhum","country":"BA","coord":{"lon":17.00111,"lat":43.723061}},{"_id":3193439,"name":"Petkovci","country":"BA","coord":{"lon":19.076111,"lat":44.45306}},{"_id":3193542,"name":"Pecigrad","country":"BA","coord":{"lon":15.89694,"lat":45.05444}},{"_id":3193545,"name":"Peci","country":"BA","coord":{"lon":16.78611,"lat":44.62722}},{"_id":3193563,"name":"Pazaric","country":"BA","coord":{"lon":18.16083,"lat":43.788609}},{"_id":3193776,"name":"Otoka","country":"BA","coord":{"lon":16.179171,"lat":44.959999}},{"_id":3193821,"name":"Ostrozac","country":"BA","coord":{"lon":15.94028,"lat":44.908611}},{"_id":3193855,"name":"Ostra Luka","country":"BA","coord":{"lon":18.588329,"lat":45.0}},{"_id":3194013,"name":"Orguz","country":"BA","coord":{"lon":16.86389,"lat":43.773891}},{"_id":3194041,"name":"Orasac","country":"BA","coord":{"lon":16.07111,"lat":44.628891}},{"_id":3194061,"name":"Orahovica Donja","country":"BA","coord":{"lon":18.370279,"lat":44.653061}},{"_id":3194120,"name":"Omarska","country":"BA","coord":{"lon":16.89917,"lat":44.889999}},{"_id":3194133,"name":"Olovo","country":"BA","coord":{"lon":18.582781,"lat":44.130001}},{"_id":3194199,"name":"Odzak","country":"BA","coord":{"lon":18.32667,"lat":45.011108}},{"_id":3194231,"name":"Obudovac","country":"BA","coord":{"lon":18.612221,"lat":44.965}},{"_id":3194358,"name":"Novi Seher","country":"BA","coord":{"lon":18.025829,"lat":44.510281}},{"_id":3194510,"name":"Nevesinje","country":"BA","coord":{"lon":18.113331,"lat":43.25861}},{"_id":3194773,"name":"Mramor","country":"BA","coord":{"lon":18.56444,"lat":44.591671}},{"_id":3195066,"name":"Mionica","country":"BA","coord":{"lon":18.46306,"lat":44.867222}},{"_id":3195128,"name":"Milici","country":"BA","coord":{"lon":19.090281,"lat":44.171108}},{"_id":3195399,"name":"Maslovare","country":"BA","coord":{"lon":17.533609,"lat":44.565559}},{"_id":3195500,"name":"Maricka","country":"BA","coord":{"lon":16.840561,"lat":44.86861}},{"_id":3195839,"name":"Mala Kladusa","country":"BA","coord":{"lon":15.85861,"lat":45.134171}},{"_id":3195930,"name":"Mahala","country":"BA","coord":{"lon":18.25528,"lat":44.01194}},{"_id":3195945,"name":"Maglajani","country":"BA","coord":{"lon":17.34944,"lat":44.948608}},{"_id":3196066,"name":"Lukavica","country":"BA","coord":{"lon":18.16889,"lat":44.762779}},{"_id":3196209,"name":"Lopare","country":"BA","coord":{"lon":18.842779,"lat":44.637779}},{"_id":3196243,"name":"Lokvine","country":"BA","coord":{"lon":17.85639,"lat":44.20472}},{"_id":3196364,"name":"Ljubinje","country":"BA","coord":{"lon":18.08861,"lat":42.950829}},{"_id":3196428,"name":"Siroki Brijeg","country":"BA","coord":{"lon":17.592779,"lat":43.383331}},{"_id":3196792,"name":"Laktasi","country":"BA","coord":{"lon":17.300831,"lat":44.908058}},{"_id":3197532,"name":"Kotor-Varos","country":"BA","coord":{"lon":17.37167,"lat":44.61694}},{"_id":3197944,"name":"Kocerin","country":"BA","coord":{"lon":17.485001,"lat":43.389721}},{"_id":3197964,"name":"Kobilja Glava","country":"BA","coord":{"lon":18.38917,"lat":43.881939}},{"_id":3198137,"name":"Kiseljak","country":"BA","coord":{"lon":18.56889,"lat":44.488892}},{"_id":3198138,"name":"Kiseljak","country":"BA","coord":{"lon":18.07667,"lat":43.942501}},{"_id":3198293,"name":"Karadaglije","country":"BA","coord":{"lon":18.01833,"lat":44.571671}},{"_id":3198462,"name":"Kalenderovci Donji","country":"BA","coord":{"lon":17.833891,"lat":44.945}},{"_id":3198490,"name":"Kakanj","country":"BA","coord":{"lon":18.118059,"lat":44.12722}},{"_id":3198618,"name":"Jezerski","country":"BA","coord":{"lon":16.084169,"lat":44.980831}},{"_id":3198895,"name":"Janja","country":"BA","coord":{"lon":19.24778,"lat":44.665279}},{"_id":3199027,"name":"Izacic","country":"BA","coord":{"lon":15.78194,"lat":44.875}},{"_id":3199142,"name":"Ilijas","country":"BA","coord":{"lon":18.27083,"lat":43.950829}},{"_id":3199417,"name":"Han Pijesak","country":"BA","coord":{"lon":18.952499,"lat":44.08083}},{"_id":3199438,"name":"Hadzici","country":"BA","coord":{"lon":18.206671,"lat":43.82222}},{"_id":3199509,"name":"Grude","country":"BA","coord":{"lon":17.420561,"lat":43.36417}},{"_id":3199525,"name":"Gromiljak","country":"BA","coord":{"lon":18.053061,"lat":43.966671}},{"_id":3199784,"name":"Gracanica","country":"BA","coord":{"lon":18.283331,"lat":43.73333}},{"_id":3199862,"name":"Gostovici","country":"BA","coord":{"lon":18.158331,"lat":44.415001}},{"_id":3199904,"name":"Gornji Vakuf","country":"BA","coord":{"lon":17.588329,"lat":43.938061}},{"_id":3200059,"name":"Gornje Zivinice","country":"BA","coord":{"lon":18.61694,"lat":44.428612}},{"_id":3200108,"name":"Gornje Mostre","country":"BA","coord":{"lon":18.15333,"lat":44.01889}},{"_id":3200245,"name":"Gornja Koprivna","country":"BA","coord":{"lon":15.95722,"lat":45.01194}},{"_id":3200538,"name":"Gnojnica","country":"BA","coord":{"lon":18.446671,"lat":44.62056}},{"_id":3200829,"name":"Fojnica","country":"BA","coord":{"lon":17.898331,"lat":43.962502}},{"_id":3200930,"name":"Tomislavgrad","country":"BA","coord":{"lon":17.226669,"lat":43.71806}},{"_id":3201061,"name":"Dubrave Donje","country":"BA","coord":{"lon":18.69611,"lat":44.48111}},{"_id":3201177,"name":"Drinovci","country":"BA","coord":{"lon":17.353889,"lat":43.355}},{"_id":3201660,"name":"Donja Medida","country":"BA","coord":{"lon":18.40333,"lat":44.802502}},{"_id":3201662,"name":"Donja Mahala","country":"BA","coord":{"lon":18.666389,"lat":45.04694}},{"_id":3201697,"name":"Donja Dubica","country":"BA","coord":{"lon":18.41139,"lat":45.075001}},{"_id":3201928,"name":"Dobrljin","country":"BA","coord":{"lon":16.477501,"lat":45.153332}},{"_id":3201931,"name":"Dobrinje","country":"BA","coord":{"lon":18.11944,"lat":44.049721}},{"_id":3202014,"name":"Divicani","country":"BA","coord":{"lon":17.326111,"lat":44.366669}},{"_id":3202081,"name":"Derventa","country":"BA","coord":{"lon":17.91028,"lat":44.977219}},{"_id":3202564,"name":"Citluk","country":"BA","coord":{"lon":17.70083,"lat":43.228611}},{"_id":3202817,"name":"Cecava","country":"BA","coord":{"lon":17.770559,"lat":44.686668}},{"_id":3202873,"name":"Capljina","country":"BA","coord":{"lon":17.684441,"lat":43.121391}},{"_id":3202895,"name":"Cajnice","country":"BA","coord":{"lon":19.07111,"lat":43.557499}},{"_id":3202935,"name":"Buzim","country":"BA","coord":{"lon":16.03194,"lat":45.054722}},{"_id":3203227,"name":"Bronzani Majdan","country":"BA","coord":{"lon":16.93111,"lat":44.786942}},{"_id":3203280,"name":"Brka","country":"BA","coord":{"lon":18.72444,"lat":44.829441}},{"_id":3203533,"name":"Bratunac","country":"BA","coord":{"lon":19.339439,"lat":44.1875}},{"_id":3203644,"name":"Bosansko Grahovo","country":"BA","coord":{"lon":16.36389,"lat":44.17944}},{"_id":3203655,"name":"Kostajnica","country":"BA","coord":{"lon":16.53583,"lat":45.219719}},{"_id":3203950,"name":"Blatnica","country":"BA","coord":{"lon":17.82333,"lat":44.486389}},{"_id":3203970,"name":"Blagaj","country":"BA","coord":{"lon":17.888611,"lat":43.2575}},{"_id":3204161,"name":"Bileca","country":"BA","coord":{"lon":18.42972,"lat":42.871941}},{"_id":3204520,"name":"Banovici","country":"BA","coord":{"lon":18.52417,"lat":44.405281}},{"_id":3204590,"name":"Balatun","country":"BA","coord":{"lon":19.341391,"lat":44.862782}},{"_id":3206012,"name":"Koran","country":"BA","coord":{"lon":18.56889,"lat":43.81028}},{"_id":3210439,"name":"Jelah","country":"BA","coord":{"lon":17.958059,"lat":44.654171}},{"_id":3210448,"name":"Stanari","country":"BA","coord":{"lon":17.829439,"lat":44.747219}},{"_id":3210593,"name":"Podbrdo","country":"BA","coord":{"lon":17.013889,"lat":44.44083}},{"_id":3210920,"name":"Malesici","country":"BA","coord":{"lon":18.27389,"lat":44.73806}},{"_id":3211287,"name":"Svojat","country":"BA","coord":{"lon":18.73917,"lat":44.394718}},{"_id":3211537,"name":"Dvorovi","country":"BA","coord":{"lon":19.260559,"lat":44.806671}},{"_id":3211929,"name":"Knezica","country":"BA","coord":{"lon":16.6775,"lat":45.102779}},{"_id":3212301,"name":"Pjanici","country":"BA","coord":{"lon":15.82278,"lat":44.983608}},{"_id":3212590,"name":"Polje","country":"BA","coord":{"lon":18.07444,"lat":43.880562}},{"_id":3213083,"name":"Ilici","country":"BA","coord":{"lon":17.768061,"lat":43.347221}},{"_id":3245419,"name":"Careva Cuprija","country":"BA","coord":{"lon":18.429171,"lat":44.265831}},{"_id":3247554,"name":"Celinac","country":"BA","coord":{"lon":17.32778,"lat":44.722778}},{"_id":3248643,"name":"Hiseti","country":"BA","coord":{"lon":17.17944,"lat":44.761108}},{"_id":3248645,"name":"Piskavica","country":"BA","coord":{"lon":16.97361,"lat":44.868061}},{"_id":3249941,"name":"Lamovita","country":"BA","coord":{"lon":16.907221,"lat":44.92556}},{"_id":3251418,"name":"Putiševac","country":"BA","coord":{"lon":17.06278,"lat":44.53944}},{"_id":3253010,"name":"Tesanjka","country":"BA","coord":{"lon":18.012779,"lat":44.673061}},{"_id":3257948,"name":"Kovaci","country":"BA","coord":{"lon":18.205,"lat":44.449169}},{"_id":3258022,"name":"Lijesnica","country":"BA","coord":{"lon":18.074169,"lat":44.494171}},{"_id":3259075,"name":"Coralici","country":"BA","coord":{"lon":15.87194,"lat":45.006939}},{"_id":3262021,"name":"Crnici","country":"BA","coord":{"lon":17.866671,"lat":43.128891}},{"_id":3262877,"name":"Barice","country":"BA","coord":{"lon":18.48111,"lat":44.540562}},{"_id":3268187,"name":"Hotonj","country":"BA","coord":{"lon":18.37278,"lat":43.894718}},{"_id":3278045,"name":"Skokovi","country":"BA","coord":{"lon":15.91444,"lat":45.031391}},{"_id":3283848,"name":"Dreznica","country":"BA","coord":{"lon":17.28194,"lat":43.528889}},{"_id":3289093,"name":"Kacuni","country":"BA","coord":{"lon":17.93861,"lat":44.064999}},{"_id":3293429,"name":"Pajic Polje","country":"BA","coord":{"lon":17.5275,"lat":43.97583}},{"_id":3295485,"name":"Gornja Breza","country":"BA","coord":{"lon":18.24472,"lat":44.036942}},{"_id":3301568,"name":"Todorovo","country":"BA","coord":{"lon":15.93083,"lat":45.088329}},{"_id":3344411,"name":"Jablanica","country":"BA","coord":{"lon":17.761669,"lat":43.660278}},{"_id":3344788,"name":"Bijela","country":"BA","coord":{"lon":17.951941,"lat":43.608608}}]}
