{"countryCode":"BD","countryName":"Bangladesh","countryFilePath":"BD.json","countryCityList":[{"_id":1185111,"name":"Satkhira","country":"BD","coord":{"lon":89.099998,"lat":22.716669}},{"_id":1185958,"name":"Tulāpāra","country":"BD","coord":{"lon":89.23333,"lat":24.51667}},{"_id":1185099,"name":"Sylhet","country":"BD","coord":{"lon":91.871674,"lat":24.896669}},{"_id":1185116,"name":"Netrakona","country":"BD","coord":{"lon":90.716667,"lat":24.883329}},{"_id":1185117,"name":"Narsingdi","country":"BD","coord":{"lon":90.718063,"lat":23.92083}},{"_id":1185138,"name":"Pirojpur","country":"BD","coord":{"lon":89.98333,"lat":22.566669}},{"_id":1185164,"name":"Muktagacha","country":"BD","coord":{"lon":90.23333,"lat":24.76667}},{"_id":1185206,"name":"Joypurhat","country":"BD","coord":{"lon":89.02169,"lat":25.09433}},{"_id":1185207,"name":"Ishurdi","country":"BD","coord":{"lon":89.083328,"lat":24.133329}},{"_id":1185251,"name":"Lalmohan","country":"BD","coord":{"lon":90.741898,"lat":22.3384}},{"_id":1185252,"name":"Khagrachhari","country":"BD","coord":{"lon":91.966667,"lat":23.1}},{"_id":1209562,"name":"Bera","country":"BD","coord":{"lon":89.616669,"lat":24.08333}},{"_id":1336136,"name":"Bhola","country":"BD","coord":{"lon":90.650002,"lat":22.683331}},{"_id":1209308,"name":"Bhāgyakul","country":"BD","coord":{"lon":90.23333,"lat":23.51667}},{"_id":1188909,"name":"Sāmāir","country":"BD","coord":{"lon":90.416672,"lat":23.799999}},{"_id":1185095,"name":"Teknaf","country":"BD","coord":{"lon":92.305817,"lat":20.862431}},{"_id":1185100,"name":"Dohar","country":"BD","coord":{"lon":90.146942,"lat":23.588329}},{"_id":1185108,"name":"Shibganj","country":"BD","coord":{"lon":88.159752,"lat":24.68293}},{"_id":1185247,"name":"Chilmari","country":"BD","coord":{"lon":89.671516,"lat":25.55592}},{"_id":1185249,"name":"Chhagalnaiya","country":"BD","coord":{"lon":91.506943,"lat":23.030001}},{"_id":1207047,"name":"Char Bhadrasan","country":"BD","coord":{"lon":90.216667,"lat":23.316669}},{"_id":1337239,"name":"Pirgaaj","country":"BD","coord":{"lon":88.363503,"lat":25.860399}},{"_id":1210997,"name":"People’s Republic of Bangladesh","country":"BD","coord":{"lon":90.0,"lat":24.0}},{"_id":1337200,"name":"Chittagong","country":"BD","coord":{"lon":91.5,"lat":22.91667}},{"_id":6413609,"name":"Purba Firoz Shah Colony","country":"BD","coord":{"lon":91.805901,"lat":22.3675}},{"_id":7701342,"name":"Bangshal","country":"BD","coord":{"lon":90.406281,"lat":23.71558}},{"_id":1337210,"name":"Khulna Division","country":"BD","coord":{"lon":89.25,"lat":22.91667}},{"_id":7486211,"name":"Gāllāmāri","country":"BD","coord":{"lon":89.548798,"lat":22.80106}},{"_id":1192691,"name":"Pānchgaon","country":"BD","coord":{"lon":91.833328,"lat":24.549999}},{"_id":1337166,"name":"Rājshāhi Division","country":"BD","coord":{"lon":89.0,"lat":25.0}},{"_id":1185128,"name":"Rajshahi","country":"BD","coord":{"lon":88.599998,"lat":24.366671}},{"_id":1207870,"name":"Chak Brindāban","country":"BD","coord":{"lon":89.366669,"lat":24.85}},{"_id":7671048,"name":"Rangpur Division","country":"BD","coord":{"lon":89.0,"lat":25.83333}},{"_id":1185188,"name":"Rangpur","country":"BD","coord":{"lon":89.25,"lat":25.75}},{"_id":1477362,"name":"Sylhet Division","country":"BD","coord":{"lon":91.666672,"lat":24.5}},{"_id":1185209,"name":"Habiganj","country":"BD","coord":{"lon":91.416672,"lat":24.383329}},{"_id":1188348,"name":"Sehara","country":"BD","coord":{"lon":90.400002,"lat":24.75}},{"_id":1337179,"name":"Dhaka Division","country":"BD","coord":{"lon":90.416672,"lat":24.16667}},{"_id":1348441,"name":"Mānikganj","country":"BD","coord":{"lon":90.012497,"lat":23.85528}},{"_id":1185166,"name":"Maulavi Bazar","country":"BD","coord":{"lon":91.783333,"lat":24.48333}},{"_id":7488262,"name":"Lālbāgkhāmār","country":"BD","coord":{"lon":88.627602,"lat":25.636}},{"_id":1337229,"name":"Borishal","country":"BD","coord":{"lon":90.333328,"lat":22.5}},{"_id":1336137,"name":"Barisal","country":"BD","coord":{"lon":90.371109,"lat":22.701941}},{"_id":1185224,"name":"Feni","country":"BD","coord":{"lon":91.410004,"lat":23.01861}},{"_id":1187197,"name":"Srīpur","country":"BD","coord":{"lon":89.48333,"lat":23.73333}},{"_id":1190716,"name":"Purbapāra","country":"BD","coord":{"lon":89.25,"lat":24.0}},{"_id":1336140,"name":"Jessore","country":"BD","coord":{"lon":89.21315,"lat":23.16869}},{"_id":1203344,"name":"Faridpur","country":"BD","coord":{"lon":89.833328,"lat":23.6}},{"_id":1185106,"name":"Jamalpur","country":"BD","coord":{"lon":89.933327,"lat":24.91667}},{"_id":1185092,"name":"Thakurgaon","country":"BD","coord":{"lon":88.466667,"lat":26.033331}},{"_id":1200902,"name":"Huzrāpur","country":"BD","coord":{"lon":88.284576,"lat":24.60178}},{"_id":1336144,"name":"Tangail","country":"BD","coord":{"lon":89.916672,"lat":24.25}},{"_id":1185186,"name":"Comilla","country":"BD","coord":{"lon":91.204437,"lat":23.457781}},{"_id":1207339,"name":"Chāndpur","country":"BD","coord":{"lon":90.716667,"lat":23.15}},{"_id":6415935,"name":"Lamuni Para","country":"BD","coord":{"lon":91.983772,"lat":21.418909}},{"_id":1212152,"name":"Badarpāsa","country":"BD","coord":{"lon":90.050003,"lat":23.216669}},{"_id":1204206,"name":"Dhopāgul","country":"BD","coord":{"lon":91.866669,"lat":24.966669}},{"_id":7487343,"name":"Kristopur","country":"BD","coord":{"lon":88.398262,"lat":26.01403}},{"_id":1186675,"name":"Takipur","country":"BD","coord":{"lon":88.616669,"lat":24.433331}},{"_id":1194898,"name":"Manoharpur","country":"BD","coord":{"lon":89.157707,"lat":23.183491}},{"_id":1200682,"name":"Iswardi","country":"BD","coord":{"lon":89.050003,"lat":24.15}},{"_id":6415551,"name":"Charpāra","country":"BD","coord":{"lon":91.795387,"lat":22.24407}},{"_id":6413898,"name":"Ahmad Hossaīn pāra","country":"BD","coord":{"lon":91.813812,"lat":22.25246}},{"_id":1185755,"name":"Unāisār","country":"BD","coord":{"lon":91.183327,"lat":23.433331}},{"_id":1193239,"name":"Nārāyanpur","country":"BD","coord":{"lon":91.23333,"lat":23.9}},{"_id":1185098,"name":"Tungi","country":"BD","coord":{"lon":90.40583,"lat":23.889999}},{"_id":1185115,"name":"Sirajganj","country":"BD","coord":{"lon":89.716667,"lat":24.450001}},{"_id":1185120,"name":"Sandwip","country":"BD","coord":{"lon":91.456108,"lat":22.467779}},{"_id":1185121,"name":"Shahzadpur","country":"BD","coord":{"lon":89.599998,"lat":24.16667}},{"_id":1185127,"name":"Ramganj","country":"BD","coord":{"lon":90.849998,"lat":23.1}},{"_id":1185141,"name":"Panchagarh","country":"BD","coord":{"lon":88.561996,"lat":26.331289}},{"_id":1185148,"name":"Patiya","country":"BD","coord":{"lon":91.976212,"lat":22.293119}},{"_id":1185149,"name":"Parbatipur","country":"BD","coord":{"lon":88.924698,"lat":25.664909}},{"_id":1185155,"name":"Narayanganj","country":"BD","coord":{"lon":90.501106,"lat":23.623329}},{"_id":1185156,"name":"Nalchiti","country":"BD","coord":{"lon":90.283333,"lat":22.633329}},{"_id":1185160,"name":"Nageswari","country":"BD","coord":{"lon":89.692993,"lat":25.968809}},{"_id":1185162,"name":"Mymensingh","country":"BD","coord":{"lon":90.400002,"lat":24.75}},{"_id":1185165,"name":"Mirzapur","country":"BD","coord":{"lon":90.099998,"lat":24.1}},{"_id":1185167,"name":"Morrelgonj","country":"BD","coord":{"lon":89.858704,"lat":22.453699}},{"_id":1185171,"name":"Mehendiganj","country":"BD","coord":{"lon":90.533333,"lat":22.816669}},{"_id":1185173,"name":"Mathba","country":"BD","coord":{"lon":89.962898,"lat":22.2855}},{"_id":1185181,"name":"Lalmanirhat","country":"BD","coord":{"lon":89.447289,"lat":25.912439}},{"_id":1185183,"name":"Laksham","country":"BD","coord":{"lon":91.142502,"lat":23.247219}},{"_id":1185191,"name":"Kushtia","country":"BD","coord":{"lon":89.12207,"lat":23.901051}},{"_id":1185199,"name":"Kaliganj","country":"BD","coord":{"lon":89.140198,"lat":23.4095}},{"_id":1185204,"name":"Jhingergacha","country":"BD","coord":{"lon":89.093803,"lat":23.1131}},{"_id":1185210,"name":"Gaurnadi","country":"BD","coord":{"lon":90.23333,"lat":22.966669}},{"_id":1185218,"name":"Gafargaon","country":"BD","coord":{"lon":90.566673,"lat":24.433331}},{"_id":1185236,"name":"Raipur","country":"BD","coord":{"lon":90.76667,"lat":23.049999}},{"_id":1185239,"name":"Sarankhola","country":"BD","coord":{"lon":89.789703,"lat":22.308201}},{"_id":1337178,"name":"Dhaka District","country":"BD","coord":{"lon":90.365417,"lat":23.81093}},{"_id":1185241,"name":"Dhaka","country":"BD","coord":{"lon":90.40744,"lat":23.7104}},{"_id":1185254,"name":"Chhatak","country":"BD","coord":{"lon":91.666672,"lat":25.033331}},{"_id":1185260,"name":"Bhatpara Abhaynagar","country":"BD","coord":{"lon":89.443199,"lat":23.01531}},{"_id":1185262,"name":"Bheramara","country":"BD","coord":{"lon":88.9925,"lat":24.023199}},{"_id":1185263,"name":"Bhairab Bazar","country":"BD","coord":{"lon":90.966667,"lat":24.066669}},{"_id":1185270,"name":"Bandarban","country":"BD","coord":{"lon":92.226196,"lat":22.196501}},{"_id":1185272,"name":"Kalia","country":"BD","coord":{"lon":89.632797,"lat":23.0396}},{"_id":1185274,"name":"Baniachang","country":"BD","coord":{"lon":91.366669,"lat":24.51667}},{"_id":1185276,"name":"Bajitpur","country":"BD","coord":{"lon":90.949997,"lat":24.216669}},{"_id":1185283,"name":"Badarganj","country":"BD","coord":{"lon":89.054901,"lat":25.67403}},{"_id":1185293,"name":"Narail","country":"BD","coord":{"lon":89.5,"lat":23.16667}},{"_id":1185920,"name":"Tungipara","country":"BD","coord":{"lon":89.916672,"lat":22.9}},{"_id":1188569,"name":"Sarishabari","country":"BD","coord":{"lon":89.833328,"lat":24.73333}},{"_id":1189056,"name":"Sakhipur","country":"BD","coord":{"lon":90.183327,"lat":24.299999}},{"_id":1189638,"name":"Raojan","country":"BD","coord":{"lon":91.919838,"lat":22.53702}},{"_id":1191139,"name":"Phultala","country":"BD","coord":{"lon":89.51667,"lat":22.700001}},{"_id":1191368,"name":"Palang","country":"BD","coord":{"lon":90.349998,"lat":23.216669}},{"_id":1192366,"name":"Par Naogaon","country":"BD","coord":{"lon":88.950844,"lat":24.80287}},{"_id":1193823,"name":"Nabinagar","country":"BD","coord":{"lon":90.973328,"lat":23.89167}},{"_id":1196292,"name":"Lakshmipur","country":"BD","coord":{"lon":90.833328,"lat":22.950001}},{"_id":1197895,"name":"Kesabpur","country":"BD","coord":{"lon":89.216667,"lat":22.91667}},{"_id":1201753,"name":"Hajiganj","country":"BD","coord":{"lon":90.859169,"lat":23.25111}},{"_id":1203891,"name":"Dinajpur","country":"BD","coord":{"lon":88.638641,"lat":25.62715}},{"_id":1205481,"name":"Uttar Char Fasson","country":"BD","coord":{"lon":90.713226,"lat":22.233219}},{"_id":1205733,"name":"Chittagong","country":"BD","coord":{"lon":91.836388,"lat":22.333059}},{"_id":1210565,"name":"Burhanuddin","country":"BD","coord":{"lon":90.723457,"lat":22.49184}},{"_id":1336133,"name":"Satkania","country":"BD","coord":{"lon":92.057198,"lat":22.079599}},{"_id":1336134,"name":"Coxs Bazar","country":"BD","coord":{"lon":91.979767,"lat":21.453239}},{"_id":1336135,"name":"Khulna","country":"BD","coord":{"lon":89.56723,"lat":22.81348}},{"_id":1336143,"name":"Pabna","country":"BD","coord":{"lon":89.25,"lat":24.0}},{"_id":1337233,"name":"Bogra","country":"BD","coord":{"lon":89.366669,"lat":24.85}},{"_id":1337240,"name":"Nawabganj","country":"BD","coord":{"lon":88.271019,"lat":24.59112}},{"_id":1337245,"name":"Madaripur","country":"BD","coord":{"lon":90.207222,"lat":23.17528}},{"_id":1337248,"name":"Sherpur","country":"BD","coord":{"lon":90.017509,"lat":25.01881}},{"_id":1337249,"name":"Kishorganj","country":"BD","coord":{"lon":90.76667,"lat":24.433331}},{"_id":1462681,"name":"Manikchari","country":"BD","coord":{"lon":91.844002,"lat":22.840799}},{"_id":1477498,"name":"Bhandaria","country":"BD","coord":{"lon":90.060898,"lat":22.486099}},{"_id":6414184,"name":"Fatikchari","country":"BD","coord":{"lon":91.785301,"lat":22.68726}},{"_id":6545349,"name":"Saidpur","country":"BD","coord":{"lon":88.891693,"lat":25.777691}},{"_id":7921384,"name":"Gaibandha","country":"BD","coord":{"lon":89.5438,"lat":25.3293}}]}
