{"countryCode":"BF","countryName":"Burkina Faso","countryFilePath":"BF.json","countryCityList":[{"_id":2354349,"name":"Titao","country":"BF","coord":{"lon":-2.06667,"lat":13.76667}},{"_id":6930703,"name":"Cascades","country":"BF","coord":{"lon":-4.76292,"lat":10.65015}},{"_id":2353169,"name":"Province du Zoundwéogo","country":"BF","coord":{"lon":-1.0,"lat":11.58333}},{"_id":2360615,"name":"Garango","country":"BF","coord":{"lon":-0.55056,"lat":11.8}},{"_id":2355248,"name":"Province du Soum","country":"BF","coord":{"lon":-1.25,"lat":14.33333}},{"_id":2354771,"name":"Province de la Tapoa","country":"BF","coord":{"lon":1.75,"lat":12.0}},{"_id":2358100,"name":"Manga","country":"BF","coord":{"lon":-1.07306,"lat":11.66361}},{"_id":2355474,"name":"Province de la Sissili","country":"BF","coord":{"lon":-2.25,"lat":11.33333}},{"_id":2358382,"name":"Leo","country":"BF","coord":{"lon":-2.1,"lat":11.1}},{"_id":2358700,"name":"Province du Kouritenga","country":"BF","coord":{"lon":-0.16667,"lat":12.0}},{"_id":2358738,"name":"Koupela","country":"BF","coord":{"lon":-0.35167,"lat":12.17944}},{"_id":2362973,"name":"Province du Bam","country":"BF","coord":{"lon":-1.66667,"lat":13.5}},{"_id":2359142,"name":"Kongoussi","country":"BF","coord":{"lon":-1.53472,"lat":13.32583}},{"_id":2362644,"name":"Province du Bazèga","country":"BF","coord":{"lon":-1.5,"lat":11.91667}},{"_id":2359227,"name":"Kombissiri","country":"BF","coord":{"lon":-1.3375,"lat":12.06556}},{"_id":2359317,"name":"Kokologo","country":"BF","coord":{"lon":-1.88556,"lat":12.18972}},{"_id":2355914,"name":"Province du Sanmatenga","country":"BF","coord":{"lon":-1.08333,"lat":13.25}},{"_id":2359608,"name":"Kaya","country":"BF","coord":{"lon":-1.08444,"lat":13.09167}},{"_id":2597267,"name":"Province du Tuy","country":"BF","coord":{"lon":-3.41667,"lat":11.41667}},{"_id":2360073,"name":"Hounde","country":"BF","coord":{"lon":-3.51667,"lat":11.5}},{"_id":2597270,"name":"Province du Zondoma","country":"BF","coord":{"lon":-2.16667,"lat":13.16667}},{"_id":2360238,"name":"Gourcy","country":"BF","coord":{"lon":-2.35,"lat":13.21667}},{"_id":2361177,"name":"Djibo","country":"BF","coord":{"lon":-1.63056,"lat":14.10222}},{"_id":2361373,"name":"Diapaga","country":"BF","coord":{"lon":1.78889,"lat":12.07083}},{"_id":2597262,"name":"Province du Kourwéogo","country":"BF","coord":{"lon":-1.8,"lat":12.58333}},{"_id":2361845,"name":"Bousse","country":"BF","coord":{"lon":-1.89222,"lat":12.66056}},{"_id":2357611,"name":"Province du Namentenga","country":"BF","coord":{"lon":-0.58333,"lat":13.25}},{"_id":2361946,"name":"Boulsa","country":"BF","coord":{"lon":-0.57583,"lat":12.6675}},{"_id":2359209,"name":"Province de la Comoé","country":"BF","coord":{"lon":-4.41667,"lat":10.33333}},{"_id":2362909,"name":"Banfora","country":"BF","coord":{"lon":-4.76667,"lat":10.63333}},{"_id":2359569,"name":"Province du Kénédougou","country":"BF","coord":{"lon":-5.0,"lat":11.41667}},{"_id":2356410,"name":"Poï","country":"BF","coord":{"lon":-2.56667,"lat":11.45}},{"_id":2360627,"name":"Province du Ganzourgou","country":"BF","coord":{"lon":-0.75,"lat":12.33333}},{"_id":2353197,"name":"Zorgho","country":"BF","coord":{"lon":-0.61583,"lat":12.24889}},{"_id":2597264,"name":"Province du Loroum","country":"BF","coord":{"lon":-2.16667,"lat":13.91667}},{"_id":6930705,"name":"Centre-Est","country":"BF","coord":{"lon":-0.35706,"lat":11.78922}},{"_id":2362006,"name":"Province du Boulgou","country":"BF","coord":{"lon":-0.5,"lat":11.5}},{"_id":2354675,"name":"Tenkodogo","country":"BF","coord":{"lon":-0.36972,"lat":11.78}},{"_id":2355930,"name":"Province du Sanguié","country":"BF","coord":{"lon":-2.66667,"lat":12.16667}},{"_id":2356228,"name":"Reo","country":"BF","coord":{"lon":-2.46667,"lat":12.31667}},{"_id":2357043,"name":"Ouahigouya","country":"BF","coord":{"lon":-2.42158,"lat":13.58278}},{"_id":2359027,"name":"Province de la Kossi","country":"BF","coord":{"lon":-3.83333,"lat":12.91667}},{"_id":2357163,"name":"Nouna","country":"BF","coord":{"lon":-3.86667,"lat":12.73333}},{"_id":6930706,"name":"Centre-Nord","country":"BF","coord":{"lon":-1.0855,"lat":13.09829}},{"_id":2361082,"name":"Dori","country":"BF","coord":{"lon":-0.0345,"lat":14.0354}},{"_id":2577164,"name":"Orodara","country":"BF","coord":{"lon":-4.93417,"lat":10.94917}},{"_id":2360286,"name":"Gouloure","country":"BF","coord":{"lon":-1.92889,"lat":12.23056}},{"_id":2361809,"name":"Burkina Faso","country":"BF","coord":{"lon":-2.0,"lat":13.0}},{"_id":6930704,"name":"Centre","country":"BF","coord":{"lon":-1.53276,"lat":12.37874}},{"_id":2359923,"name":"Province du Kadiogo","country":"BF","coord":{"lon":-1.5,"lat":12.33333}},{"_id":2357048,"name":"Ouagadougou","country":"BF","coord":{"lon":-1.53834,"lat":12.36423}},{"_id":6930701,"name":"Boucle du Mouhoun","country":"BF","coord":{"lon":-3.47305,"lat":12.47203}},{"_id":2357858,"name":"Province du Mouhoun","country":"BF","coord":{"lon":-3.41667,"lat":12.25}},{"_id":2361477,"name":"Dedougou","country":"BF","coord":{"lon":-3.46667,"lat":12.46667}},{"_id":6930707,"name":"Centre-Ouest","country":"BF","coord":{"lon":-2.36876,"lat":12.25488}},{"_id":2361988,"name":"Province du Boulkiemdé","country":"BF","coord":{"lon":-2.16667,"lat":12.33333}},{"_id":2358946,"name":"Koudougou","country":"BF","coord":{"lon":-2.36667,"lat":12.25}},{"_id":6930709,"name":"Est","country":"BF","coord":{"lon":0.36349,"lat":12.06308}},{"_id":2360223,"name":"Province du Gourma","country":"BF","coord":{"lon":0.5,"lat":12.08333}},{"_id":2360886,"name":"Fada NGourma","country":"BF","coord":{"lon":0.35778,"lat":12.06222}},{"_id":6930711,"name":"Nord","country":"BF","coord":{"lon":-2.4212,"lat":13.58809}},{"_id":2356667,"name":"Province du Passoré","country":"BF","coord":{"lon":-2.16667,"lat":12.91667}},{"_id":2353688,"name":"Yako","country":"BF","coord":{"lon":-2.26667,"lat":12.96667}},{"_id":6930712,"name":"Plateau-Central","country":"BF","coord":{"lon":-1.30102,"lat":12.58774}},{"_id":2356983,"name":"Province d' Oubritenga","country":"BF","coord":{"lon":-1.41667,"lat":12.58333}},{"_id":2353257,"name":"Ziniare","country":"BF","coord":{"lon":-1.29833,"lat":12.58222}},{"_id":6930710,"name":"Hauts-Bassins","country":"BF","coord":{"lon":-4.29634,"lat":11.20804}},{"_id":2360075,"name":"Province du Houet","country":"BF","coord":{"lon":-4.25,"lat":11.33333}},{"_id":2361145,"name":"Dogona","country":"BF","coord":{"lon":-4.28035,"lat":11.20476}},{"_id":2355211,"name":"Province du Sourou","country":"BF","coord":{"lon":-3.0,"lat":13.25}},{"_id":2354176,"name":"Tougan","country":"BF","coord":{"lon":-3.06667,"lat":13.06667}},{"_id":2355996,"name":"Samogan","country":"BF","coord":{"lon":-4.3427,"lat":11.13027}},{"_id":6930714,"name":"Sud-Ouest","country":"BF","coord":{"lon":-3.26097,"lat":10.28866}},{"_id":2356386,"name":"Province du Poni","country":"BF","coord":{"lon":-3.41667,"lat":10.25}},{"_id":2577162,"name":"Gaoua","country":"BF","coord":{"lon":-3.25083,"lat":10.29917}},{"_id":6930713,"name":"Sahel","country":"BF","coord":{"lon":-0.04575,"lat":14.03351}},{"_id":2355737,"name":"Province du Séno","country":"BF","coord":{"lon":-0.16667,"lat":13.91667}},{"_id":2353785,"name":"Wèndou","country":"BF","coord":{"lon":-0.0597,"lat":14.0366}},{"_id":6930708,"name":"Centre-Sud","country":"BF","coord":{"lon":-1.07374,"lat":11.67132}},{"_id":2357548,"name":"Province du Nahouri","country":"BF","coord":{"lon":-1.25,"lat":11.25}},{"_id":2356454,"name":"Po","country":"BF","coord":{"lon":-1.145,"lat":11.16972}},{"_id":2353568,"name":"Province du Yatenga","country":"BF","coord":{"lon":-2.41667,"lat":13.58333}},{"_id":2356948,"name":"Oufré","country":"BF","coord":{"lon":-2.42126,"lat":13.54909}},{"_id":2362344,"name":"Bobo-Dioulasso","country":"BF","coord":{"lon":-4.2979,"lat":11.17715}},{"_id":2597265,"name":"Province du Nayala","country":"BF","coord":{"lon":-3.0,"lat":12.66667}},{"_id":2354265,"name":"Toma","country":"BF","coord":{"lon":-2.88333,"lat":12.76667}},{"_id":2597250,"name":"Province des Banwa","country":"BF","coord":{"lon":-4.16667,"lat":12.16667}},{"_id":2355404,"name":"Salanso","country":"BF","coord":{"lon":-4.08333,"lat":12.18333}},{"_id":2597263,"name":"Province de la Léraba","country":"BF","coord":{"lon":-5.2,"lat":10.66667}},{"_id":2355548,"name":"Sindou","country":"BF","coord":{"lon":-5.16667,"lat":10.66667}},{"_id":2597268,"name":"Province du Yagha","country":"BF","coord":{"lon":0.58333,"lat":13.41667}},{"_id":2355803,"name":"Sebba","country":"BF","coord":{"lon":0.53044,"lat":13.43641}},{"_id":2597269,"name":"Province du Ziro","country":"BF","coord":{"lon":-1.91667,"lat":11.58333}},{"_id":2355869,"name":"Sapouy","country":"BF","coord":{"lon":-1.77361,"lat":11.55444}},{"_id":2356459,"name":"Pitmoaga","country":"BF","coord":{"lon":-1.87667,"lat":12.23972}},{"_id":2597260,"name":"Province de la Kompienga","country":"BF","coord":{"lon":0.91667,"lat":11.41667}},{"_id":2356738,"name":"Pama","country":"BF","coord":{"lon":0.7075,"lat":11.24972}},{"_id":2597261,"name":"Province du Koulpélogo","country":"BF","coord":{"lon":0.16667,"lat":11.41667}},{"_id":2357012,"name":"Ouargaye","country":"BF","coord":{"lon":0.05722,"lat":11.50333}},{"_id":2356982,"name":"Province de l' Oudalan","country":"BF","coord":{"lon":-0.33333,"lat":14.66667}},{"_id":2360372,"name":"Gorom Gorom","country":"BF","coord":{"lon":-0.23611,"lat":14.44389}},{"_id":2597259,"name":"Province de la Komandjoari","country":"BF","coord":{"lon":0.66667,"lat":12.66667}},{"_id":2360541,"name":"Gayeri","country":"BF","coord":{"lon":0.49306,"lat":12.64972}},{"_id":2362047,"name":"Province de la Bougouriba","country":"BF","coord":{"lon":-3.41667,"lat":10.83333}},{"_id":2361342,"name":"Diebougou","country":"BF","coord":{"lon":-3.25,"lat":10.96667}},{"_id":2597251,"name":"Province du Ioba","country":"BF","coord":{"lon":-3.08333,"lat":11.08333}},{"_id":2361586,"name":"Dano","country":"BF","coord":{"lon":-3.06667,"lat":11.15}},{"_id":2597248,"name":"Province des Balé","country":"BF","coord":{"lon":-3.16667,"lat":11.7}},{"_id":2362150,"name":"Boromo","country":"BF","coord":{"lon":-2.93333,"lat":11.75}},{"_id":2360516,"name":"Province de la Gnagna","country":"BF","coord":{"lon":0.0392,"lat":12.9188}},{"_id":2362323,"name":"Bogande","country":"BF","coord":{"lon":-0.14361,"lat":12.97139}},{"_id":2597266,"name":"Province du Noumbièl","country":"BF","coord":{"lon":-3.0,"lat":9.83333}},{"_id":2362669,"name":"Batie","country":"BF","coord":{"lon":-2.91667,"lat":9.88333}}]}
