{"countryCode":"BZ","countryName":"Belize","countryFilePath":"BZ.json","countryCityList":[{"_id":3582324,"name":"Consejo","country":"BZ","coord":{"lon":-88.283333,"lat":18.450001}},{"_id":3582429,"name":"Cayo District","country":"BZ","coord":{"lon":-88.916672,"lat":16.83333}},{"_id":3581418,"name":"Privassion Camp","country":"BZ","coord":{"lon":-88.949997,"lat":17.033331}},{"_id":3582302,"name":"Corozal District","country":"BZ","coord":{"lon":-88.333328,"lat":18.25}},{"_id":3582678,"name":"Belize","country":"BZ","coord":{"lon":-88.75,"lat":17.25}},{"_id":3582672,"name":"Belmopan","country":"BZ","coord":{"lon":-88.76667,"lat":17.25}},{"_id":3581367,"name":"Ranchito","country":"BZ","coord":{"lon":-88.400002,"lat":18.366671}},{"_id":3582662,"name":"Benque Viejo del Carmen","country":"BZ","coord":{"lon":-89.139168,"lat":17.075001}},{"_id":3580985,"name":"Spanish Lookout","country":"BZ","coord":{"lon":-88.98333,"lat":17.216669}},{"_id":3580975,"name":"Stann Creek District","country":"BZ","coord":{"lon":-88.5,"lat":16.83333}},{"_id":3581922,"name":"Hopkins","country":"BZ","coord":{"lon":-88.283333,"lat":16.866671}},{"_id":3581672,"name":"Middlesex","country":"BZ","coord":{"lon":-88.5,"lat":17.01667}},{"_id":3582487,"name":"Caledonia","country":"BZ","coord":{"lon":-88.466667,"lat":18.216669}},{"_id":3582676,"name":"Belize District","country":"BZ","coord":{"lon":-88.166672,"lat":17.25}},{"_id":3582383,"name":"Chicago","country":"BZ","coord":{"lon":-88.300003,"lat":17.799999}},{"_id":3581851,"name":"Ladyville","country":"BZ","coord":{"lon":-88.290001,"lat":17.55427}},{"_id":3581194,"name":"San Ignacio","country":"BZ","coord":{"lon":-89.071388,"lat":17.156111}},{"_id":3581511,"name":"Orange Walk District","country":"BZ","coord":{"lon":-88.833328,"lat":17.83333}},{"_id":3581514,"name":"Orange Walk","country":"BZ","coord":{"lon":-88.563278,"lat":18.08124}},{"_id":3582677,"name":"Belize City","country":"BZ","coord":{"lon":-88.197563,"lat":17.499519}},{"_id":3581164,"name":"San Pedro","country":"BZ","coord":{"lon":-87.965897,"lat":17.915979}},{"_id":3580913,"name":"Toledo District","country":"BZ","coord":{"lon":-88.75,"lat":16.33333}},{"_id":3581398,"name":"Punta Gorda","country":"BZ","coord":{"lon":-88.8097,"lat":16.098351}},{"_id":3582228,"name":"Dangriga","country":"BZ","coord":{"lon":-88.232063,"lat":16.96921}},{"_id":3582305,"name":"Corozal","country":"BZ","coord":{"lon":-88.394188,"lat":18.39794}},{"_id":3830322,"name":"Valley of Peace","country":"BZ","coord":{"lon":-88.834717,"lat":17.334721}}]}
