{"countryCode":"CO","countryName":"Colombia","countryFilePath":"CO.json","countryCityList":[{"_id":3681344,"name":"Departamento del Guaviare","country":"CO","coord":{"lon":-72.820282,"lat":1.68944}},{"_id":6851663,"name":"Inspección de Policía Puerto Ospina","country":"CO","coord":{"lon":-72.391029,"lat":2.47017}},{"_id":3674810,"name":"Departamento del Meta","country":"CO","coord":{"lon":-73.0,"lat":3.5}},{"_id":3668562,"name":"Santa Rita","country":"CO","coord":{"lon":-68.361122,"lat":4.86775}},{"_id":3668605,"name":"Santa Marta","country":"CO","coord":{"lon":-74.199043,"lat":11.24079}},{"_id":3674597,"name":"Mompos","country":"CO","coord":{"lon":-74.426666,"lat":9.24194}},{"_id":3675605,"name":"Malaga","country":"CO","coord":{"lon":-72.73233,"lat":6.69903}},{"_id":3689381,"name":"Ayapel","country":"CO","coord":{"lon":-75.139816,"lat":8.31372}},{"_id":3686110,"name":"Republic of Colombia","country":"CO","coord":{"lon":-72.0,"lat":4.0}},{"_id":3689982,"name":"Departamento del Amazonas","country":"CO","coord":{"lon":-71.938332,"lat":-1.01972}},{"_id":3827656,"name":"Rondiña","country":"CO","coord":{"lon":-69.995827,"lat":-4.19111}},{"_id":3666082,"name":"Departamento del Vichada","country":"CO","coord":{"lon":-69.5,"lat":5.0}},{"_id":3829421,"name":"Chananané","country":"CO","coord":{"lon":-70.550003,"lat":4.32556}},{"_id":3675686,"name":"Departamento del Magdalena","country":"CO","coord":{"lon":-74.5,"lat":10.0}},{"_id":3682254,"name":"Gaira","country":"CO","coord":{"lon":-74.222923,"lat":11.19321}},{"_id":3675252,"name":"Mariquita","country":"CO","coord":{"lon":-74.892952,"lat":5.19889}},{"_id":3687952,"name":"Caldas","country":"CO","coord":{"lon":-75.635689,"lat":6.09106}},{"_id":3688452,"name":"Buenaventura","country":"CO","coord":{"lon":-77.0,"lat":3.58333}},{"_id":3671178,"name":"Departamento del Putumayo","country":"CO","coord":{"lon":-76.0,"lat":0.5}},{"_id":6974754,"name":"El Mecaya","country":"CO","coord":{"lon":-75.186111,"lat":0.47361}},{"_id":3769975,"name":"Puerto Chigüiro","country":"CO","coord":{"lon":-73.343163,"lat":4.03772}},{"_id":3676623,"name":"Leticia","country":"CO","coord":{"lon":-69.940559,"lat":-4.21528}},{"_id":3674654,"name":"Mocoa","country":"CO","coord":{"lon":-76.646606,"lat":1.14933}},{"_id":3674740,"name":"Miraflores","country":"CO","coord":{"lon":-71.951111,"lat":1.33667}},{"_id":3665900,"name":"Villavicencio","country":"CO","coord":{"lon":-73.62664,"lat":4.142}},{"_id":3671519,"name":"Puerto Carreno","country":"CO","coord":{"lon":-67.485878,"lat":6.18903}},{"_id":3688685,"name":"Distrito Capital de Bogotá","country":"CO","coord":{"lon":-74.183327,"lat":4.25}},{"_id":3688689,"name":"Bogota","country":"CO","coord":{"lon":-74.081749,"lat":4.60971}},{"_id":7033305,"name":"Granada","country":"CO","coord":{"lon":-74.058372,"lat":4.64882}},{"_id":8182072,"name":"Estanzuela","country":"CO","coord":{"lon":-74.085861,"lat":4.60066}},{"_id":3670698,"name":"Departamento de Risaralda","country":"CO","coord":{"lon":-76.0,"lat":5.0}},{"_id":3672486,"name":"Pereira","country":"CO","coord":{"lon":-75.696114,"lat":4.81333}},{"_id":3680692,"name":"Departamento del Huila","country":"CO","coord":{"lon":-75.75,"lat":2.5}},{"_id":3672532,"name":"Peñón de Opia","country":"CO","coord":{"lon":-75.333328,"lat":2.91667}},{"_id":3685413,"name":"Departamento de Cundinamarca","country":"CO","coord":{"lon":-74.166672,"lat":5.0}},{"_id":3666997,"name":"Tocancipa","country":"CO","coord":{"lon":-73.91301,"lat":4.96531}},{"_id":3689436,"name":"Departamento del Atlántico","country":"CO","coord":{"lon":-75.0,"lat":10.75}},{"_id":3689147,"name":"Barranquilla","country":"CO","coord":{"lon":-74.796387,"lat":10.96389}},{"_id":3668578,"name":"Departamento de Santander","country":"CO","coord":{"lon":-73.25,"lat":7.0}},{"_id":3688465,"name":"Bucaramanga","country":"CO","coord":{"lon":-73.119797,"lat":7.12539}},{"_id":3670235,"name":"San Alonso","country":"CO","coord":{"lon":-73.122223,"lat":7.13306}},{"_id":3666313,"name":"Departamento del Valle del Cauca","country":"CO","coord":{"lon":-76.5,"lat":3.75}},{"_id":3687925,"name":"Cali","country":"CO","coord":{"lon":-76.522499,"lat":3.43722}},{"_id":3689815,"name":"Departamento de Antioquia","country":"CO","coord":{"lon":-75.5,"lat":7.0}},{"_id":3688889,"name":"Berlín","country":"CO","coord":{"lon":-75.547958,"lat":6.29238}},{"_id":3665657,"name":"Yumbo","country":"CO","coord":{"lon":-76.491463,"lat":3.58234}},{"_id":3680450,"name":"Itagui","country":"CO","coord":{"lon":-75.611389,"lat":6.17194}},{"_id":3688256,"name":"Buga","country":"CO","coord":{"lon":-76.297829,"lat":3.90089}},{"_id":3682028,"name":"Girardot","country":"CO","coord":{"lon":-74.80468,"lat":4.29866}},{"_id":3687951,"name":"Departamento de Caldas","country":"CO","coord":{"lon":-75.5,"lat":5.25}},{"_id":3675443,"name":"Manizales","country":"CO","coord":{"lon":-75.51738,"lat":5.06889}},{"_id":3682631,"name":"Envigado","country":"CO","coord":{"lon":-75.585312,"lat":6.17064}},{"_id":3674021,"name":"Departamento de Nariño","country":"CO","coord":{"lon":-78.0,"lat":1.5}},{"_id":3672778,"name":"Pasto","country":"CO","coord":{"lon":-77.281113,"lat":1.21361}},{"_id":3666951,"name":"Departamento de Tolima","country":"CO","coord":{"lon":-75.25,"lat":3.75}},{"_id":3680656,"name":"Ibague","country":"CO","coord":{"lon":-75.232224,"lat":4.43889}},{"_id":3688536,"name":"Departamento de Boyacá","country":"CO","coord":{"lon":-72.5,"lat":5.5}},{"_id":3685084,"name":"Duitama","country":"CO","coord":{"lon":-73.034081,"lat":5.8245}},{"_id":3689169,"name":"Barrancabermeja","country":"CO","coord":{"lon":-73.854721,"lat":7.06528}},{"_id":3673798,"name":"Departamento de Norte de Santander","country":"CO","coord":{"lon":-73.0,"lat":8.0}},{"_id":3685533,"name":"Cucuta","country":"CO","coord":{"lon":-72.50528,"lat":7.88333}},{"_id":3685889,"name":"Departamento de Córdoba","country":"CO","coord":{"lon":-75.666672,"lat":8.33333}},{"_id":3671732,"name":"Pringamosa","country":"CO","coord":{"lon":-75.886703,"lat":8.76566}},{"_id":3666645,"name":"Tulua","country":"CO","coord":{"lon":-76.195358,"lat":4.08466}},{"_id":3689124,"name":"Barrio Obrero","country":"CO","coord":{"lon":-74.199997,"lat":11.25}},{"_id":3671087,"name":"Departamento del Quindío","country":"CO","coord":{"lon":-75.666672,"lat":4.5}},{"_id":3689560,"name":"Armenia","country":"CO","coord":{"lon":-75.681107,"lat":4.53389}},{"_id":3686675,"name":"Chia","country":"CO","coord":{"lon":-74.058662,"lat":4.85876}},{"_id":3674292,"name":"Mosquera","country":"CO","coord":{"lon":-74.230209,"lat":4.70592}},{"_id":3670478,"name":"Sabaneta","country":"CO","coord":{"lon":-74.366669,"lat":4.35}},{"_id":3673045,"name":"Pamplona","country":"CO","coord":{"lon":-72.647949,"lat":7.37565}},{"_id":3667725,"name":"Departamento de Sucre","country":"CO","coord":{"lon":-75.0,"lat":9.0}},{"_id":3667983,"name":"Sincelejo","country":"CO","coord":{"lon":-75.397781,"lat":9.30472}},{"_id":3667849,"name":"Soledad","country":"CO","coord":{"lon":-74.764587,"lat":10.91843}},{"_id":3682516,"name":"Facatativa","country":"CO","coord":{"lon":-74.35453,"lat":4.81367}},{"_id":3687173,"name":"Departamento de Casanare","country":"CO","coord":{"lon":-71.5,"lat":5.5}},{"_id":3665688,"name":"Yopal","country":"CO","coord":{"lon":-72.395859,"lat":5.33775}},{"_id":3669808,"name":"San Gil","country":"CO","coord":{"lon":-73.133087,"lat":6.55573}},{"_id":3683427,"name":"El Poblado","country":"CO","coord":{"lon":-75.572403,"lat":6.21033}},{"_id":3667905,"name":"Soacha","country":"CO","coord":{"lon":-74.21682,"lat":4.57937}},{"_id":3689047,"name":"Bavaria","country":"CO","coord":{"lon":-73.366669,"lat":4.33333}},{"_id":3811890,"name":"Caja","country":"CO","coord":{"lon":-75.019173,"lat":10.88722}},{"_id":3687479,"name":"Departamento del Caquetá","country":"CO","coord":{"lon":-74.0,"lat":1.0}},{"_id":8184847,"name":"Barrio La Consolata","country":"CO","coord":{"lon":-75.61644,"lat":1.62133}},{"_id":3670719,"name":"Riosucio","country":"CO","coord":{"lon":-75.703178,"lat":5.42164}},{"_id":3779399,"name":"Canalete","country":"CO","coord":{"lon":-76.20417,"lat":8.67611}},{"_id":3688928,"name":"Bello","country":"CO","coord":{"lon":-75.557953,"lat":6.33732}},{"_id":3687230,"name":"Cartago","country":"CO","coord":{"lon":-75.911667,"lat":4.74639}},{"_id":7524718,"name":"Santa Maria","country":"CO","coord":{"lon":-73.944969,"lat":4.42406}},{"_id":3665918,"name":"Villa Rosa","country":"CO","coord":{"lon":-74.099998,"lat":4.81667}},{"_id":3671098,"name":"Quimbaya","country":"CO","coord":{"lon":-75.762779,"lat":4.62306}},{"_id":3764011,"name":"Jalisco","country":"CO","coord":{"lon":-76.543457,"lat":3.25413}},{"_id":3685095,"name":"Dos Quebradas","country":"CO","coord":{"lon":-75.667259,"lat":4.83916}},{"_id":3666025,"name":"Vijes","country":"CO","coord":{"lon":-76.442299,"lat":3.69934}},{"_id":3668454,"name":"Santa Rosa de Cabal","country":"CO","coord":{"lon":-75.621391,"lat":4.86806}},{"_id":3686561,"name":"Chinchina","country":"CO","coord":{"lon":-75.603607,"lat":4.9825}},{"_id":3675242,"name":"Marmato","country":"CO","coord":{"lon":-75.592667,"lat":5.47843}},{"_id":3682385,"name":"Floridablanca","country":"CO","coord":{"lon":-73.086441,"lat":7.06222}},{"_id":3686422,"name":"Choconta","country":"CO","coord":{"lon":-73.685783,"lat":5.14468}},{"_id":3666522,"name":"Ubaque","country":"CO","coord":{"lon":-73.937477,"lat":4.48668}},{"_id":3687209,"name":"Casablanca","country":"CO","coord":{"lon":-73.616669,"lat":5.08333}},{"_id":3689941,"name":"Anapoima","country":"CO","coord":{"lon":-74.539436,"lat":4.52028}},{"_id":3680539,"name":"Ipiales","country":"CO","coord":{"lon":-77.64959,"lat":0.83018}},{"_id":3688989,"name":"Belen de Umbria","country":"CO","coord":{"lon":-75.868652,"lat":5.20088}},{"_id":3681360,"name":"Guatavita","country":"CO","coord":{"lon":-73.833138,"lat":4.93658}},{"_id":3667447,"name":"Tangua","country":"CO","coord":{"lon":-77.394821,"lat":1.09473}},{"_id":3667697,"name":"Supia","country":"CO","coord":{"lon":-75.650719,"lat":5.45303}},{"_id":3681404,"name":"Guasca","country":"CO","coord":{"lon":-73.87748,"lat":4.86601}},{"_id":3671119,"name":"Quetame","country":"CO","coord":{"lon":-73.86142,"lat":4.33234}},{"_id":3681303,"name":"Guayabetal","country":"CO","coord":{"lon":-73.817192,"lat":4.21472}},{"_id":3687339,"name":"Carito","country":"CO","coord":{"lon":-75.804077,"lat":9.0568}},{"_id":3670730,"name":"Rionegro","country":"CO","coord":{"lon":-75.373711,"lat":6.15515}},{"_id":3681429,"name":"Guarne","country":"CO","coord":{"lon":-75.443542,"lat":6.28046}},{"_id":3668451,"name":"Santa Rosa de Osos","country":"CO","coord":{"lon":-75.460297,"lat":6.64738}},{"_id":3667816,"name":"Sopetrán","country":"CO","coord":{"lon":-75.747498,"lat":6.67028}},{"_id":3689870,"name":"Angostura","country":"CO","coord":{"lon":-75.334671,"lat":6.88508}},{"_id":3786682,"name":"Azucenos","country":"CO","coord":{"lon":-75.665833,"lat":6.60833}},{"_id":3670644,"name":"Roldanillo","country":"CO","coord":{"lon":-76.154572,"lat":4.41256}},{"_id":3665559,"name":"Zarzal","country":"CO","coord":{"lon":-76.071503,"lat":4.39462}},{"_id":3681797,"name":"Guacari","country":"CO","coord":{"lon":-76.332916,"lat":3.76383}},{"_id":3685292,"name":"Dagua","country":"CO","coord":{"lon":-76.688591,"lat":3.65685}},{"_id":3682281,"name":"Funza","country":"CO","coord":{"lon":-74.211952,"lat":4.71638}},{"_id":3686441,"name":"Choachi","country":"CO","coord":{"lon":-73.922729,"lat":4.52897}},{"_id":3666755,"name":"Tres Esquinas","country":"CO","coord":{"lon":-73.800003,"lat":5.05}},{"_id":3683776,"name":"El Mono","country":"CO","coord":{"lon":-74.7948,"lat":4.53288}},{"_id":3670629,"name":"Roncesvalles","country":"CO","coord":{"lon":-75.604927,"lat":4.0108}},{"_id":3686431,"name":"Departamento del Chocó","country":"CO","coord":{"lon":-77.0,"lat":6.0}},{"_id":3671116,"name":"Quibdo","country":"CO","coord":{"lon":-76.66111,"lat":5.69472}},{"_id":3780941,"name":"El Salero","country":"CO","coord":{"lon":-75.661346,"lat":2.65744}},{"_id":3665991,"name":"Villagómez","country":"CO","coord":{"lon":-74.196136,"lat":5.27372}},{"_id":3665542,"name":"Zipaquira","country":"CO","coord":{"lon":-74.004807,"lat":5.02208}},{"_id":3669981,"name":"San Cayetano","country":"CO","coord":{"lon":-74.069542,"lat":5.30153}},{"_id":3666608,"name":"Tunja","country":"CO","coord":{"lon":-73.367783,"lat":5.53528}},{"_id":3667807,"name":"Sopo","country":"CO","coord":{"lon":-73.9384,"lat":4.9075}},{"_id":3675432,"name":"Manta","country":"CO","coord":{"lon":-73.541153,"lat":5.00864}},{"_id":3673887,"name":"Nemocon","country":"CO","coord":{"lon":-73.883331,"lat":5.05}},{"_id":3670502,"name":"Sabanalarga","country":"CO","coord":{"lon":-74.920631,"lat":10.62962}},{"_id":3687964,"name":"Calarca","country":"CO","coord":{"lon":-75.640907,"lat":4.52949}},{"_id":3682380,"name":"Fomeque","country":"CO","coord":{"lon":-73.897491,"lat":4.48797}},{"_id":3683968,"name":"El Jordán","country":"CO","coord":{"lon":-73.883331,"lat":5.0}},{"_id":3668716,"name":"Santa Isabel","country":"CO","coord":{"lon":-75.097992,"lat":4.71418}},{"_id":3686880,"name":"Departamento del Cesar","country":"CO","coord":{"lon":-73.5,"lat":9.33333}},{"_id":3666304,"name":"Valledupar","country":"CO","coord":{"lon":-73.25322,"lat":10.46314}},{"_id":3688650,"name":"Departamento de Bolívar","country":"CO","coord":{"lon":-74.333328,"lat":9.0}},{"_id":3668861,"name":"Santa Catalina","country":"CO","coord":{"lon":-75.288239,"lat":10.60361}},{"_id":3669218,"name":"San Onofre","country":"CO","coord":{"lon":-75.52626,"lat":9.73586}},{"_id":3688705,"name":"Bochalema","country":"CO","coord":{"lon":-72.647743,"lat":7.61096}},{"_id":3686574,"name":"Chinacota","country":"CO","coord":{"lon":-72.601082,"lat":7.60731}},{"_id":3685529,"name":"Cucutilla","country":"CO","coord":{"lon":-72.772377,"lat":7.53941}},{"_id":3685069,"name":"Durania","country":"CO","coord":{"lon":-72.657593,"lat":7.71307}},{"_id":3674885,"name":"Melgar","country":"CO","coord":{"lon":-74.640747,"lat":4.20475}},{"_id":3667003,"name":"Tocaima","country":"CO","coord":{"lon":-74.634338,"lat":4.4582}},{"_id":3682573,"name":"Espinal","country":"CO","coord":{"lon":-74.884293,"lat":4.14924}},{"_id":3671020,"name":"Apulo","country":"CO","coord":{"lon":-74.592934,"lat":4.51952}},{"_id":3679277,"name":"La Dorada","country":"CO","coord":{"lon":-74.663109,"lat":5.44783}},{"_id":3686712,"name":"Charta","country":"CO","coord":{"lon":-72.967819,"lat":7.28025}},{"_id":3666092,"name":"Vetas","country":"CO","coord":{"lon":-72.871223,"lat":7.30911}},{"_id":3687644,"name":"Candelaria","country":"CO","coord":{"lon":-76.34819,"lat":3.40671}},{"_id":3670370,"name":"Salamina","country":"CO","coord":{"lon":-75.487488,"lat":5.40733}},{"_id":3673164,"name":"Palmira","country":"CO","coord":{"lon":-76.303612,"lat":3.53944}},{"_id":3668028,"name":"Silvania","country":"CO","coord":{"lon":-74.386703,"lat":4.40367}},{"_id":3780754,"name":"Montebello","country":"CO","coord":{"lon":-75.524277,"lat":5.9449}},{"_id":3669332,"name":"San Martin","country":"CO","coord":{"lon":-73.699577,"lat":3.69637}},{"_id":3681605,"name":"Guamal","country":"CO","coord":{"lon":-73.765663,"lat":3.88043}},{"_id":3666502,"name":"Ulloa","country":"CO","coord":{"lon":-75.74028,"lat":4.70444}},{"_id":3682549,"name":"Estancia Nueva","country":"CO","coord":{"lon":-72.829521,"lat":7.95422}},{"_id":3687321,"name":"Carmen de Carupa","country":"CO","coord":{"lon":-73.90168,"lat":5.34862}},{"_id":3686134,"name":"Cogua","country":"CO","coord":{"lon":-73.979248,"lat":5.06052}},{"_id":3689833,"name":"Anserma","country":"CO","coord":{"lon":-75.791107,"lat":5.33278}},{"_id":3670141,"name":"San Antonio","country":"CO","coord":{"lon":-73.599998,"lat":5.21667}},{"_id":3682185,"name":"Gama","country":"CO","coord":{"lon":-73.610901,"lat":4.76288}},{"_id":3683155,"name":"El Rosal","country":"CO","coord":{"lon":-74.259956,"lat":4.85314}},{"_id":3667290,"name":"Tenjo","country":"CO","coord":{"lon":-74.144348,"lat":4.8727}},{"_id":3684276,"name":"El Doncello","country":"CO","coord":{"lon":-75.28466,"lat":1.67817}},{"_id":3665881,"name":"Viota","country":"CO","coord":{"lon":-74.521568,"lat":4.43713}},{"_id":3667351,"name":"Tausa","country":"CO","coord":{"lon":-73.891281,"lat":5.19903}},{"_id":3686513,"name":"Chiquinquira","country":"CO","coord":{"lon":-73.817482,"lat":5.61637}},{"_id":3782173,"name":"Palacio","country":"CO","coord":{"lon":-73.821701,"lat":4.71493}},{"_id":3665811,"name":"Yacuanquer","country":"CO","coord":{"lon":-77.401688,"lat":1.11577}},{"_id":3678097,"name":"La Plata","country":"CO","coord":{"lon":-75.892319,"lat":2.39341}},{"_id":3689187,"name":"Barichara","country":"CO","coord":{"lon":-73.222816,"lat":6.63572}},{"_id":3678847,"name":"Departamento de La Guajira","country":"CO","coord":{"lon":-72.5,"lat":11.5}},{"_id":3670521,"name":"Sabana del Potrero","country":"CO","coord":{"lon":-72.866783,"lat":11.15699}},{"_id":3688462,"name":"Bucarasica","country":"CO","coord":{"lon":-72.865379,"lat":8.04096}},{"_id":3681966,"name":"Gramalote","country":"CO","coord":{"lon":-72.797493,"lat":7.88752}},{"_id":3670745,"name":"Riohacha","country":"CO","coord":{"lon":-72.907219,"lat":11.54444}},{"_id":3670514,"name":"Sabanagrande","country":"CO","coord":{"lon":-74.682777,"lat":10.71972}},{"_id":3689570,"name":"Arjona","country":"CO","coord":{"lon":-75.343887,"lat":10.25444}},{"_id":3668087,"name":"Sibate","country":"CO","coord":{"lon":-74.244987,"lat":4.48425}},{"_id":3787902,"name":"Yarumal","country":"CO","coord":{"lon":-75.67083,"lat":6.89028}},{"_id":3685893,"name":"Cordoba","country":"CO","coord":{"lon":-74.827049,"lat":9.58612}},{"_id":3675234,"name":"Marquetalia","country":"CO","coord":{"lon":-75.054962,"lat":5.29659}},{"_id":3673431,"name":"Pachavita","country":"CO","coord":{"lon":-73.397392,"lat":5.13969}},{"_id":3686540,"name":"Chinu","country":"CO","coord":{"lon":-75.398117,"lat":9.10569}},{"_id":3687029,"name":"Departamento del Cauca","country":"CO","coord":{"lon":-76.833328,"lat":2.5}},{"_id":3673398,"name":"Belalcazar","country":"CO","coord":{"lon":-75.992783,"lat":2.65472}},{"_id":3682395,"name":"Florian","country":"CO","coord":{"lon":-73.970291,"lat":5.80487}},{"_id":3686851,"name":"Chaguani","country":"CO","coord":{"lon":-74.593918,"lat":4.94829}},{"_id":3678328,"name":"Landazuri","country":"CO","coord":{"lon":-73.811211,"lat":6.21826}},{"_id":3666562,"name":"Turmeque","country":"CO","coord":{"lon":-73.490669,"lat":5.3236}},{"_id":3667717,"name":"Suesca","country":"CO","coord":{"lon":-73.798447,"lat":5.10289}},{"_id":3667887,"name":"Socorro","country":"CO","coord":{"lon":-73.260223,"lat":6.46838}},{"_id":3685442,"name":"Cumaral","country":"CO","coord":{"lon":-73.486687,"lat":4.2708}},{"_id":3686233,"name":"Circasia","country":"CO","coord":{"lon":-75.635834,"lat":4.61889}},{"_id":3670587,"name":"Rovira","country":"CO","coord":{"lon":-75.23996,"lat":4.23922}},{"_id":3669718,"name":"San Jeronimo","country":"CO","coord":{"lon":-75.728149,"lat":6.44344}},{"_id":3679554,"name":"La Ceja","country":"CO","coord":{"lon":-75.431503,"lat":6.03082}},{"_id":3685058,"name":"Ebejico","country":"CO","coord":{"lon":-75.768349,"lat":6.32598}},{"_id":3667820,"name":"Sonson","country":"CO","coord":{"lon":-75.310677,"lat":5.71062}},{"_id":3672068,"name":"Planeta Rica","country":"CO","coord":{"lon":-75.588333,"lat":8.41472}},{"_id":3686272,"name":"Cienaga de Oro","country":"CO","coord":{"lon":-75.620277,"lat":8.87443}},{"_id":3670419,"name":"Sahagun","country":"CO","coord":{"lon":-75.442749,"lat":8.94616}},{"_id":3686922,"name":"Cerete","country":"CO","coord":{"lon":-75.79052,"lat":8.88479}},{"_id":3690316,"name":"Aguazul","country":"CO","coord":{"lon":-72.547058,"lat":5.17282}},{"_id":3675826,"name":"Luruaco","country":"CO","coord":{"lon":-75.143089,"lat":10.60921}},{"_id":3669355,"name":"San Luis de Gaceno","country":"CO","coord":{"lon":-73.16851,"lat":4.82052}},{"_id":3672255,"name":"Pijao","country":"CO","coord":{"lon":-75.703484,"lat":4.33419}},{"_id":3667629,"name":"Tabio","country":"CO","coord":{"lon":-74.093643,"lat":4.91726}},{"_id":3666577,"name":"Turbaco","country":"CO","coord":{"lon":-75.411369,"lat":10.32944}},{"_id":3792425,"name":"Alto de Garzón","country":"CO","coord":{"lon":-75.64846,"lat":2.19614}},{"_id":3688006,"name":"Cajica","country":"CO","coord":{"lon":-74.027992,"lat":4.91857}},{"_id":3685943,"name":"Coper","country":"CO","coord":{"lon":-74.044159,"lat":5.47681}},{"_id":3686793,"name":"Chaparral","country":"CO","coord":{"lon":-75.483162,"lat":3.72315}},{"_id":3666481,"name":"Une","country":"CO","coord":{"lon":-74.025284,"lat":4.40306}},{"_id":3678118,"name":"La Pintada","country":"CO","coord":{"lon":-75.606262,"lat":5.74867}},{"_id":3670475,"name":"Sabaneta","country":"CO","coord":{"lon":-75.599998,"lat":6.15}},{"_id":3689012,"name":"Belalcazar","country":"CO","coord":{"lon":-75.812782,"lat":4.99528}},{"_id":3669549,"name":"San Jose del Palmar","country":"CO","coord":{"lon":-76.228333,"lat":4.97417}},{"_id":3673826,"name":"Nocaima","country":"CO","coord":{"lon":-74.377998,"lat":5.06983}},{"_id":3671072,"name":"Quipile","country":"CO","coord":{"lon":-74.563057,"lat":4.74806}},{"_id":3666550,"name":"Tuta","country":"CO","coord":{"lon":-73.227791,"lat":5.68966}},{"_id":3680176,"name":"Juan de Acosta","country":"CO","coord":{"lon":-75.033409,"lat":10.82813}},{"_id":3666226,"name":"Venadillo","country":"CO","coord":{"lon":-74.929176,"lat":4.7193}},{"_id":3672813,"name":"Pasca","country":"CO","coord":{"lon":-74.30056,"lat":4.30722}},{"_id":3781883,"name":"Gacheta","country":"CO","coord":{"lon":-73.636589,"lat":4.81854}},{"_id":3686324,"name":"Churidó","country":"CO","coord":{"lon":-76.666672,"lat":7.86667}},{"_id":3682465,"name":"Firavitoba","country":"CO","coord":{"lon":-72.992889,"lat":5.66885}},{"_id":3667873,"name":"Sogamoso","country":"CO","coord":{"lon":-72.933907,"lat":5.71434}},{"_id":3673424,"name":"Pacho","country":"CO","coord":{"lon":-74.159767,"lat":5.13278}},{"_id":3673511,"name":"Ortega","country":"CO","coord":{"lon":-75.221687,"lat":3.9361}},{"_id":3670764,"name":"Rioblanco","country":"CO","coord":{"lon":-75.680557,"lat":3.53083}},{"_id":3675118,"name":"Matanza","country":"CO","coord":{"lon":-73.01516,"lat":7.32233}},{"_id":3674010,"name":"Natagaima","country":"CO","coord":{"lon":-75.094147,"lat":3.62057}},{"_id":3685708,"name":"Coyaima","country":"CO","coord":{"lon":-75.194672,"lat":3.79936}},{"_id":3682047,"name":"Gigante","country":"CO","coord":{"lon":-75.545311,"lat":2.38677}},{"_id":3689450,"name":"Ataco","country":"CO","coord":{"lon":-75.381783,"lat":3.59147}},{"_id":3690431,"name":"Aguadas","country":"CO","coord":{"lon":-75.456238,"lat":5.61161}},{"_id":3679661,"name":"La Calera","country":"CO","coord":{"lon":-73.98333,"lat":4.38333}},{"_id":3665973,"name":"Villamaria","country":"CO","coord":{"lon":-75.514603,"lat":5.04492}},{"_id":3686279,"name":"Cienaga","country":"CO","coord":{"lon":-74.24765,"lat":11.00703}},{"_id":3672328,"name":"Piedecuesta","country":"CO","coord":{"lon":-73.04953,"lat":6.98789}},{"_id":3687426,"name":"Caramanta","country":"CO","coord":{"lon":-75.643677,"lat":5.54782}},{"_id":3667760,"name":"Subachoque","country":"CO","coord":{"lon":-74.172989,"lat":4.92614}},{"_id":3665895,"name":"Villeta","country":"CO","coord":{"lon":-74.47226,"lat":5.00886}},{"_id":3683528,"name":"El Paujil","country":"CO","coord":{"lon":-75.328629,"lat":1.57006}},{"_id":3682160,"name":"Garagoa","country":"CO","coord":{"lon":-73.363342,"lat":5.08236}},{"_id":3782136,"name":"Minas","country":"CO","coord":{"lon":-73.51889,"lat":4.99694}},{"_id":3682279,"name":"Fúquene","country":"CO","coord":{"lon":-73.796402,"lat":5.40425}},{"_id":3667701,"name":"Supata","country":"CO","coord":{"lon":-74.237198,"lat":5.06097}},{"_id":3686051,"name":"Combita","country":"CO","coord":{"lon":-73.316673,"lat":5.63333}},{"_id":3672261,"name":"Piendamó","country":"CO","coord":{"lon":-76.989166,"lat":2.64306}},{"_id":3666680,"name":"Trujillo","country":"CO","coord":{"lon":-76.31945,"lat":4.21217}},{"_id":3673386,"name":"Paicol","country":"CO","coord":{"lon":-75.775002,"lat":2.44962}},{"_id":3681025,"name":"Hato","country":"CO","coord":{"lon":-73.308258,"lat":6.54302}},{"_id":3672093,"name":"Pivijay","country":"CO","coord":{"lon":-74.616211,"lat":10.46168}},{"_id":3688811,"name":"Bituima","country":"CO","coord":{"lon":-74.539261,"lat":4.87252}},{"_id":3792404,"name":"San Antonio del Tequendama","country":"CO","coord":{"lon":-74.353889,"lat":4.61889}},{"_id":3688254,"name":"Bugalagrande","country":"CO","coord":{"lon":-76.15564,"lat":4.21207}},{"_id":3681175,"name":"Gutiérrez","country":"CO","coord":{"lon":-74.002502,"lat":4.25472}},{"_id":3684270,"name":"El Dorán","country":"CO","coord":{"lon":-74.433327,"lat":4.9}},{"_id":3682018,"name":"Giron","country":"CO","coord":{"lon":-73.169807,"lat":7.0682}},{"_id":3669084,"name":"San Pelayo","country":"CO","coord":{"lon":-75.836273,"lat":8.95833}},{"_id":3669173,"name":"San Pablo de Borbur","country":"CO","coord":{"lon":-74.062119,"lat":5.66034}},{"_id":3671315,"name":"Puerto Tejada","country":"CO","coord":{"lon":-76.416679,"lat":3.23114}},{"_id":3665803,"name":"Yaguara","country":"CO","coord":{"lon":-75.517532,"lat":2.66355}},{"_id":3672176,"name":"Piojo","country":"CO","coord":{"lon":-75.107758,"lat":10.74846}},{"_id":3675657,"name":"Maicao","country":"CO","coord":{"lon":-72.24321,"lat":11.38321}},{"_id":3681619,"name":"Gualmatan","country":"CO","coord":{"lon":-77.566513,"lat":0.91888}},{"_id":3666111,"name":"Vergara","country":"CO","coord":{"lon":-74.34549,"lat":5.11841}},{"_id":3678702,"name":"La Isla","country":"CO","coord":{"lon":-75.933327,"lat":4.26667}},{"_id":3684666,"name":"El Carmen de Bolivar","country":"CO","coord":{"lon":-75.120232,"lat":9.7174}},{"_id":3682266,"name":"Gachala","country":"CO","coord":{"lon":-73.520416,"lat":4.69244}},{"_id":3675287,"name":"Maria la Baja","country":"CO","coord":{"lon":-75.301552,"lat":9.9832}},{"_id":3689759,"name":"Aracataca","country":"CO","coord":{"lon":-74.189827,"lat":10.59181}},{"_id":3690577,"name":"Acacias","country":"CO","coord":{"lon":-73.757973,"lat":3.98695}},{"_id":3686311,"name":"Chuscal","country":"CO","coord":{"lon":-73.458061,"lat":5.24271}},{"_id":3688918,"name":"Beltrán","country":"CO","coord":{"lon":-74.741768,"lat":4.80165}},{"_id":3667651,"name":"Sutamarchan","country":"CO","coord":{"lon":-73.617012,"lat":5.61538}},{"_id":3690520,"name":"Agrado","country":"CO","coord":{"lon":-75.771423,"lat":2.25725}},{"_id":3672123,"name":"Pital","country":"CO","coord":{"lon":-75.80442,"lat":2.2665}},{"_id":3682292,"name":"Fundacion","country":"CO","coord":{"lon":-74.185043,"lat":10.52066}},{"_id":3666519,"name":"Ubate","country":"CO","coord":{"lon":-73.815742,"lat":5.30933}},{"_id":3666232,"name":"Velez","country":"CO","coord":{"lon":-73.673523,"lat":6.01335}},{"_id":3689838,"name":"Anorí","country":"CO","coord":{"lon":-75.147682,"lat":7.07272}},{"_id":3676397,"name":"Lorica","country":"CO","coord":{"lon":-75.813499,"lat":9.23648}},{"_id":3682358,"name":"Fosca","country":"CO","coord":{"lon":-73.938522,"lat":4.33916}},{"_id":3668572,"name":"Santander de Quilichao","country":"CO","coord":{"lon":-76.48494,"lat":3.00945}},{"_id":3684917,"name":"El Banco","country":"CO","coord":{"lon":-73.975807,"lat":9.00114}},{"_id":3671772,"name":"Pradera","country":"CO","coord":{"lon":-76.24472,"lat":3.42111}},{"_id":3665913,"name":"Villa del Rosario","country":"CO","coord":{"lon":-72.474167,"lat":7.83389}},{"_id":3792692,"name":"Fosfaco","country":"CO","coord":{"lon":-75.630463,"lat":2.44368}},{"_id":3666395,"name":"Urrao","country":"CO","coord":{"lon":-76.134201,"lat":6.3152}},{"_id":3792375,"name":"Carepa","country":"CO","coord":{"lon":-76.652542,"lat":7.75849}},{"_id":3681997,"name":"Gomez Plata","country":"CO","coord":{"lon":-75.219063,"lat":6.68178}},{"_id":3688071,"name":"Caicedonia","country":"CO","coord":{"lon":-75.826653,"lat":4.3324}},{"_id":3670856,"name":"Restrepo","country":"CO","coord":{"lon":-76.522423,"lat":3.82203}},{"_id":3679065,"name":"La Estrella","country":"CO","coord":{"lon":-75.643173,"lat":6.15769}},{"_id":3686569,"name":"Chinavita","country":"CO","coord":{"lon":-73.368233,"lat":5.16723}},{"_id":3684319,"name":"El Diamante","country":"CO","coord":{"lon":-74.9534,"lat":4.56798}},{"_id":3665987,"name":"Villa Hermosa","country":"CO","coord":{"lon":-74.48333,"lat":4.76667}},{"_id":3688106,"name":"Cachira","country":"CO","coord":{"lon":-73.048302,"lat":7.74104}},{"_id":3683463,"name":"El Pinon","country":"CO","coord":{"lon":-74.82415,"lat":10.40283}},{"_id":3674702,"name":"Miranda","country":"CO","coord":{"lon":-76.228142,"lat":3.24991}},{"_id":3687025,"name":"Caucasia","country":"CO","coord":{"lon":-75.193489,"lat":7.98654}},{"_id":3686532,"name":"Chipaque","country":"CO","coord":{"lon":-74.044167,"lat":4.4425}},{"_id":3665547,"name":"Zetaquira","country":"CO","coord":{"lon":-73.168961,"lat":5.28215}},{"_id":3672110,"name":"Pitalito","country":"CO","coord":{"lon":-76.047852,"lat":1.84966}},{"_id":3669133,"name":"San Pedro","country":"CO","coord":{"lon":-72.51667,"lat":7.83333}},{"_id":3665587,"name":"Zapatoca","country":"CO","coord":{"lon":-73.267677,"lat":6.81532}},{"_id":3667202,"name":"Tibu","country":"CO","coord":{"lon":-72.735832,"lat":8.63896}},{"_id":3668245,"name":"Sardinata","country":"CO","coord":{"lon":-72.800713,"lat":8.08289}},{"_id":3681702,"name":"Guaduas","country":"CO","coord":{"lon":-74.594994,"lat":5.06692}},{"_id":3671418,"name":"Puerto Lopez","country":"CO","coord":{"lon":-72.955971,"lat":4.08451}},{"_id":3680554,"name":"Inza","country":"CO","coord":{"lon":-76.06546,"lat":2.5513}},{"_id":3675791,"name":"Macanal","country":"CO","coord":{"lon":-73.319588,"lat":4.97214}},{"_id":3674166,"name":"Murillo","country":"CO","coord":{"lon":-75.171509,"lat":4.87393}},{"_id":3668332,"name":"Santo Tomas","country":"CO","coord":{"lon":-74.754509,"lat":10.75773}},{"_id":3669352,"name":"San Luis de Palenque","country":"CO","coord":{"lon":-71.731667,"lat":5.42139}},{"_id":3689717,"name":"Departamento de Arauca","country":"CO","coord":{"lon":-71.0,"lat":6.66667}},{"_id":3667478,"name":"Tame","country":"CO","coord":{"lon":-71.730042,"lat":6.461}},{"_id":3682458,"name":"Flandes","country":"CO","coord":{"lon":-74.819008,"lat":4.29413}},{"_id":3672428,"name":"Pesca","country":"CO","coord":{"lon":-73.050003,"lat":5.55}},{"_id":3670849,"name":"El Retiro","country":"CO","coord":{"lon":-75.503059,"lat":6.05861}},{"_id":3685823,"name":"Corozal","country":"CO","coord":{"lon":-75.292831,"lat":9.31505}},{"_id":3665678,"name":"Yotoco","country":"CO","coord":{"lon":-76.383636,"lat":3.86048}},{"_id":7523298,"name":"La Primavera","country":"CO","coord":{"lon":-74.926193,"lat":5.20926}},{"_id":3667288,"name":"Tenza","country":"CO","coord":{"lon":-73.420769,"lat":5.07664}},{"_id":3667811,"name":"Soplaviento","country":"CO","coord":{"lon":-75.140831,"lat":10.39306}},{"_id":3675692,"name":"Magangue","country":"CO","coord":{"lon":-74.754669,"lat":9.24202}},{"_id":3668257,"name":"Saravena","country":"CO","coord":{"lon":-71.875229,"lat":6.95376}},{"_id":3690429,"name":"Agua de Dios","country":"CO","coord":{"lon":-74.669952,"lat":4.37648}},{"_id":3678345,"name":"La Muerte","country":"CO","coord":{"lon":-75.378883,"lat":8.78282}},{"_id":3666570,"name":"Turbo","country":"CO","coord":{"lon":-76.726913,"lat":8.09368}},{"_id":3667665,"name":"Susa","country":"CO","coord":{"lon":-73.814362,"lat":5.4519}},{"_id":3689162,"name":"Barrancas","country":"CO","coord":{"lon":-72.787689,"lat":10.95756}},{"_id":3668025,"name":"Silvia","country":"CO","coord":{"lon":-76.378532,"lat":2.61103}},{"_id":3680317,"name":"Jerico","country":"CO","coord":{"lon":-75.786011,"lat":5.79211}},{"_id":3687318,"name":"Carmen de Viboral","country":"CO","coord":{"lon":-75.335091,"lat":6.08236}},{"_id":3671540,"name":"Puerto Berrio","country":"CO","coord":{"lon":-74.403259,"lat":6.49156}},{"_id":3673143,"name":"Palmito","country":"CO","coord":{"lon":-75.550003,"lat":9.33333}},{"_id":3681563,"name":"Guamo","country":"CO","coord":{"lon":-74.9701,"lat":4.03078}},{"_id":3682633,"name":"Entrerrios","country":"CO","coord":{"lon":-75.516899,"lat":6.5654}},{"_id":3676795,"name":"La Victoria","country":"CO","coord":{"lon":-75.901016,"lat":1.80671}},{"_id":3668323,"name":"Santuario","country":"CO","coord":{"lon":-75.264168,"lat":6.13833}},{"_id":3668017,"name":"Simijaca","country":"CO","coord":{"lon":-73.852272,"lat":5.50291}},{"_id":3685569,"name":"Cucaita","country":"CO","coord":{"lon":-73.45433,"lat":5.54373}},{"_id":3675263,"name":"Marinilla","country":"CO","coord":{"lon":-75.336212,"lat":6.17358}},{"_id":3670899,"name":"Remedios","country":"CO","coord":{"lon":-74.533333,"lat":7.03083}},{"_id":3673369,"name":"Paipa","country":"CO","coord":{"lon":-73.117081,"lat":5.78013}},{"_id":3673662,"name":"Ocana","country":"CO","coord":{"lon":-73.356041,"lat":8.23773}},{"_id":3689709,"name":"Arbelaez","country":"CO","coord":{"lon":-74.415131,"lat":4.27254}},{"_id":3671325,"name":"Puerto Santander","country":"CO","coord":{"lon":-72.406303,"lat":8.36361}},{"_id":3677010,"name":"La Tebaida","country":"CO","coord":{"lon":-75.78746,"lat":4.45265}},{"_id":3671497,"name":"Puerto Colombia","country":"CO","coord":{"lon":-74.95472,"lat":10.98778}},{"_id":3682374,"name":"Fonseca","country":"CO","coord":{"lon":-72.848701,"lat":10.88606}},{"_id":7910975,"name":"Santa Cruz de Mompox","country":"CO","coord":{"lon":-74.416672,"lat":9.23333}},{"_id":3669469,"name":"San Juan del Cesar","country":"CO","coord":{"lon":-73.003143,"lat":10.77108}},{"_id":3667728,"name":"Sucre","country":"CO","coord":{"lon":-74.72084,"lat":8.81136}},{"_id":3675595,"name":"Malambo","country":"CO","coord":{"lon":-74.773857,"lat":10.85953}},{"_id":3684770,"name":"El Calvario","country":"CO","coord":{"lon":-73.711472,"lat":4.35342}},{"_id":3671531,"name":"Puerto Boyaca","country":"CO","coord":{"lon":-74.588463,"lat":5.97584}},{"_id":3665992,"name":"Villagarzon","country":"CO","coord":{"lon":-76.626671,"lat":1.0375}},{"_id":3829343,"name":"Orito","country":"CO","coord":{"lon":-76.877121,"lat":0.67656}},{"_id":3672540,"name":"Peñol","country":"CO","coord":{"lon":-75.242981,"lat":6.21829}},{"_id":3687758,"name":"Campo de la Cruz","country":"CO","coord":{"lon":-74.88356,"lat":10.37808}},{"_id":3690465,"name":"Aguachica","country":"CO","coord":{"lon":-73.6166,"lat":8.30844}},{"_id":3689831,"name":"Ansermanuevo","country":"CO","coord":{"lon":-75.995003,"lat":4.79722}},{"_id":3684293,"name":"El Difícil","country":"CO","coord":{"lon":-74.236267,"lat":9.84975}},{"_id":3687111,"name":"Caserío Regalito","country":"CO","coord":{"lon":-71.891357,"lat":5.56368}},{"_id":3688673,"name":"Bojaca","country":"CO","coord":{"lon":-74.341293,"lat":4.73176}},{"_id":3680641,"name":"Icononzo","country":"CO","coord":{"lon":-74.532539,"lat":4.17698}},{"_id":3670692,"name":"Rivera","country":"CO","coord":{"lon":-75.256416,"lat":2.77717}},{"_id":3776374,"name":"El Mirador","country":"CO","coord":{"lon":-73.737221,"lat":5.51333}},{"_id":3686636,"name":"Chigorodo","country":"CO","coord":{"lon":-76.681061,"lat":7.66638}},{"_id":3686107,"name":"Colon","country":"CO","coord":{"lon":-76.968498,"lat":1.19117}},{"_id":3689172,"name":"Barranca","country":"CO","coord":{"lon":-75.537331,"lat":9.90715}},{"_id":3676674,"name":"Lebrija","country":"CO","coord":{"lon":-73.217796,"lat":7.11317}},{"_id":3685949,"name":"Municipio de Copacabana","country":"CO","coord":{"lon":-75.508881,"lat":6.34633}},{"_id":3671381,"name":"Puerto Niño","country":"CO","coord":{"lon":-74.900002,"lat":10.25}},{"_id":3667158,"name":"Tierralta","country":"CO","coord":{"lon":-76.059174,"lat":8.17361}},{"_id":3670199,"name":"San Antero","country":"CO","coord":{"lon":-75.758911,"lat":9.3741}},{"_id":3681491,"name":"Guapotá","country":"CO","coord":{"lon":-73.320198,"lat":6.30798}},{"_id":3828545,"name":"San Jose del Guaviare","country":"CO","coord":{"lon":-72.645912,"lat":2.57286}},{"_id":3670966,"name":"Raquira","country":"CO","coord":{"lon":-73.632011,"lat":5.53793}},{"_id":3669454,"name":"San Juan Nepomuceno","country":"CO","coord":{"lon":-75.081978,"lat":9.95156}},{"_id":3674603,"name":"Momil","country":"CO","coord":{"lon":-75.674889,"lat":9.23768}},{"_id":3678674,"name":"La Jagua de Ibirico","country":"CO","coord":{"lon":-73.334053,"lat":9.56228}},{"_id":3665691,"name":"Yondo","country":"CO","coord":{"lon":-73.909721,"lat":7.00621}},{"_id":3689899,"name":"Los Andes","country":"CO","coord":{"lon":-75.878769,"lat":5.6561}},{"_id":3666087,"name":"Viani","country":"CO","coord":{"lon":-74.562439,"lat":4.87384}},{"_id":3687324,"name":"Carmen de Apicala","country":"CO","coord":{"lon":-74.720139,"lat":4.14725}},{"_id":3675452,"name":"Mani","country":"CO","coord":{"lon":-72.288612,"lat":4.81722}},{"_id":3671549,"name":"Puerto Asis","country":"CO","coord":{"lon":-76.500748,"lat":0.51328}},{"_id":3670352,"name":"Salento","country":"CO","coord":{"lon":-75.570282,"lat":4.6375}},{"_id":3671002,"name":"Ramiriqui","country":"CO","coord":{"lon":-73.335442,"lat":5.4002}},{"_id":3687880,"name":"Caloto","country":"CO","coord":{"lon":-76.407883,"lat":3.03586}},{"_id":3685027,"name":"El Aguila","country":"CO","coord":{"lon":-76.040039,"lat":4.91345}},{"_id":3775199,"name":"Otanche","country":"CO","coord":{"lon":-74.181107,"lat":5.65917}},{"_id":3688112,"name":"Cachipay","country":"CO","coord":{"lon":-74.566673,"lat":5.26667}},{"_id":3666640,"name":"Tumaco","country":"CO","coord":{"lon":-78.815559,"lat":1.79861}},{"_id":3666582,"name":"Tuquerres","country":"CO","coord":{"lon":-77.62085,"lat":1.09234}},{"_id":3675637,"name":"Majagual","country":"CO","coord":{"lon":-74.620377,"lat":8.53886}},{"_id":3783478,"name":"Tuchín","country":"CO","coord":{"lon":-75.852966,"lat":8.55072}},{"_id":3670357,"name":"Saldana","country":"CO","coord":{"lon":-75.015167,"lat":3.92922}},{"_id":3689205,"name":"Barbosa","country":"CO","coord":{"lon":-75.33136,"lat":6.43809}},{"_id":3673407,"name":"Padilla","country":"CO","coord":{"lon":-76.31385,"lat":3.22038}},{"_id":3666939,"name":"Tolu","country":"CO","coord":{"lon":-75.58139,"lat":9.52392}},{"_id":3679505,"name":"La Chorrera","country":"CO","coord":{"lon":-74.349998,"lat":4.66667}},{"_id":3666673,"name":"Tubara","country":"CO","coord":{"lon":-74.978889,"lat":10.87444}},{"_id":3689697,"name":"Arboledas","country":"CO","coord":{"lon":-72.799438,"lat":7.64233}},{"_id":3671330,"name":"Puerto Salgar","country":"CO","coord":{"lon":-74.654358,"lat":5.46304}},{"_id":3671208,"name":"Purificacion","country":"CO","coord":{"lon":-74.93129,"lat":3.8587}},{"_id":3689235,"name":"Baranoa","country":"CO","coord":{"lon":-74.916397,"lat":10.79408}},{"_id":3674572,"name":"Moniquira","country":"CO","coord":{"lon":-73.572838,"lat":5.87638}},{"_id":3792376,"name":"Ciudad Bolivar","country":"CO","coord":{"lon":-76.025284,"lat":5.85389}},{"_id":3671287,"name":"Puerto Wilches","country":"CO","coord":{"lon":-73.896011,"lat":7.34828}},{"_id":3673829,"name":"Nobsa","country":"CO","coord":{"lon":-72.940987,"lat":5.76978}},{"_id":3683233,"name":"El Reten","country":"CO","coord":{"lon":-74.268242,"lat":10.61135}},{"_id":3673637,"name":"Oiba","country":"CO","coord":{"lon":-73.298759,"lat":6.26388}},{"_id":3669799,"name":"San Hilario","country":"CO","coord":{"lon":-74.087692,"lat":4.74679}},{"_id":3667355,"name":"Tauramena","country":"CO","coord":{"lon":-72.749191,"lat":5.01831}},{"_id":3668098,"name":"Siachia","country":"CO","coord":{"lon":-72.699997,"lat":6.33333}},{"_id":3686464,"name":"Chita","country":"CO","coord":{"lon":-72.472603,"lat":6.18715}},{"_id":3687418,"name":"Caraño","country":"CO","coord":{"lon":-78.183327,"lat":1.66667}},{"_id":3671228,"name":"Pupiales","country":"CO","coord":{"lon":-77.640266,"lat":0.87136}},{"_id":3668263,"name":"Sarancocho","country":"CO","coord":{"lon":-77.599998,"lat":1.35}},{"_id":3671091,"name":"Quinchia","country":"CO","coord":{"lon":-75.730179,"lat":5.33957}},{"_id":3667764,"name":"Suaza","country":"CO","coord":{"lon":-75.79454,"lat":1.97611}},{"_id":3681733,"name":"Guadalupe","country":"CO","coord":{"lon":-75.75589,"lat":2.0248}},{"_id":3686445,"name":"Chivolo","country":"CO","coord":{"lon":-74.622787,"lat":10.02502}},{"_id":3689589,"name":"Ariguani","country":"CO","coord":{"lon":-74.0,"lat":10.25}},{"_id":3680453,"name":"Istmina","country":"CO","coord":{"lon":-76.683968,"lat":5.16054}},{"_id":3685200,"name":"Distraccion","country":"CO","coord":{"lon":-72.886101,"lat":10.89693}},{"_id":3792392,"name":"Plato","country":"CO","coord":{"lon":-74.78244,"lat":9.79029}},{"_id":3775850,"name":"Bosconia","country":"CO","coord":{"lon":-73.883614,"lat":9.96889}},{"_id":3686479,"name":"Chiriguana","country":"CO","coord":{"lon":-73.603142,"lat":9.36238}},{"_id":3669346,"name":"San Marcos","country":"CO","coord":{"lon":-75.12809,"lat":8.65972}},{"_id":3666381,"name":"Urumita","country":"CO","coord":{"lon":-73.012321,"lat":10.55894}},{"_id":3681756,"name":"Guachucal","country":"CO","coord":{"lon":-77.731598,"lat":0.96093}},{"_id":3689714,"name":"Arauquita","country":"CO","coord":{"lon":-71.428062,"lat":7.02917}},{"_id":3792379,"name":"Santa Rosa del Sur","country":"CO","coord":{"lon":-74.054443,"lat":7.96444}},{"_id":3667892,"name":"Socha Viejo","country":"CO","coord":{"lon":-72.715027,"lat":5.9817}},{"_id":3682330,"name":"Fresno","country":"CO","coord":{"lon":-75.03624,"lat":5.15264}},{"_id":3681652,"name":"Departamento del Guainía","country":"CO","coord":{"lon":-69.0,"lat":2.5}},{"_id":3671450,"name":"Inirida","country":"CO","coord":{"lon":-67.923889,"lat":3.86528}},{"_id":3685178,"name":"Dolores","country":"CO","coord":{"lon":-74.900284,"lat":3.0725}},{"_id":3666887,"name":"Toribio","country":"CO","coord":{"lon":-76.268387,"lat":2.95481}},{"_id":3674931,"name":"Medina","country":"CO","coord":{"lon":-73.349823,"lat":4.51005}},{"_id":3685702,"name":"Cravo Norte","country":"CO","coord":{"lon":-70.204147,"lat":6.30174}},{"_id":3671203,"name":"Purisima","country":"CO","coord":{"lon":-75.721901,"lat":9.23657}},{"_id":7544228,"name":"El Ejido","country":"CO","coord":{"lon":-76.92778,"lat":1.19615}},{"_id":3675409,"name":"Manzanares","country":"CO","coord":{"lon":-75.156937,"lat":5.32472}},{"_id":3731933,"name":"Palmas del Socorro","country":"CO","coord":{"lon":-73.286942,"lat":6.40667}},{"_id":3682510,"name":"Falan","country":"CO","coord":{"lon":-74.948936,"lat":5.11564}},{"_id":3673352,"name":"Pajarito","country":"CO","coord":{"lon":-72.702766,"lat":5.2929}},{"_id":3670303,"name":"Samaca","country":"CO","coord":{"lon":-73.485367,"lat":5.49274}},{"_id":3666881,"name":"Toro","country":"CO","coord":{"lon":-76.08139,"lat":4.61167}},{"_id":3686142,"name":"Coello","country":"CO","coord":{"lon":-74.898247,"lat":4.28908}},{"_id":3668292,"name":"San Vicente de Chucuri","country":"CO","coord":{"lon":-73.409767,"lat":6.881}},{"_id":3681368,"name":"Guatape","country":"CO","coord":{"lon":-75.158638,"lat":6.23274}},{"_id":8016083,"name":"Puerto Real","country":"CO","coord":{"lon":-73.739754,"lat":8.33387}},{"_id":3680434,"name":"Ituango","country":"CO","coord":{"lon":-75.764038,"lat":7.17117}},{"_id":3687084,"name":"Castilla La Nueva","country":"CO","coord":{"lon":-73.679871,"lat":3.82845}},{"_id":3686736,"name":"Charalá","country":"CO","coord":{"lon":-73.147217,"lat":6.28581}},{"_id":3687835,"name":"Campamento","country":"CO","coord":{"lon":-75.297241,"lat":6.9792}},{"_id":3672077,"name":"Planadas","country":"CO","coord":{"lon":-75.645058,"lat":3.19698}},{"_id":3669545,"name":"San Jose de Miranda","country":"CO","coord":{"lon":-72.733437,"lat":6.6587}},{"_id":3674678,"name":"Mistrato","country":"CO","coord":{"lon":-75.883217,"lat":5.2973}},{"_id":3673220,"name":"Palmar de Varela","country":"CO","coord":{"lon":-74.754433,"lat":10.74055}},{"_id":3670280,"name":"Sampues","country":"CO","coord":{"lon":-75.381668,"lat":9.18361}},{"_id":3690287,"name":"Aipe","country":"CO","coord":{"lon":-75.236671,"lat":3.22222}},{"_id":3771124,"name":"Crucero de Pescador","country":"CO","coord":{"lon":-76.545799,"lat":2.80591}},{"_id":3671216,"name":"Pureto","country":"CO","coord":{"lon":-76.333328,"lat":5.33333}},{"_id":3684266,"name":"El Dovio","country":"CO","coord":{"lon":-76.236191,"lat":4.5079}},{"_id":3686262,"name":"Cienega","country":"CO","coord":{"lon":-73.295723,"lat":5.40867}},{"_id":3678502,"name":"La Mana","country":"CO","coord":{"lon":-74.01667,"lat":4.88333}},{"_id":3669087,"name":"San Pedro de Uraba","country":"CO","coord":{"lon":-76.376411,"lat":8.27515}},{"_id":3689206,"name":"Barbosa","country":"CO","coord":{"lon":-73.615059,"lat":5.93168}},{"_id":3688266,"name":"Buesaco","country":"CO","coord":{"lon":-77.159821,"lat":1.39017}},{"_id":3688710,"name":"Bocatoma","country":"CO","coord":{"lon":-75.407349,"lat":6.50698}},{"_id":3777286,"name":"Tres Esquinas","country":"CO","coord":{"lon":-73.648888,"lat":5.57194}},{"_id":3681769,"name":"Guachené","country":"CO","coord":{"lon":-76.3927,"lat":3.13333}},{"_id":3686013,"name":"Concordia","country":"CO","coord":{"lon":-75.907059,"lat":6.04639}},{"_id":3669461,"name":"San Juan de Uraba","country":"CO","coord":{"lon":-76.529694,"lat":8.75924}},{"_id":3686227,"name":"Cisneros","country":"CO","coord":{"lon":-75.088608,"lat":6.53833}},{"_id":3689458,"name":"Astrea","country":"CO","coord":{"lon":-73.975906,"lat":9.49828}},{"_id":3673676,"name":"Obando","country":"CO","coord":{"lon":-75.973892,"lat":4.57583}},{"_id":3682313,"name":"Frontino","country":"CO","coord":{"lon":-76.128799,"lat":6.78005}},{"_id":3685540,"name":"Cucunuba","country":"CO","coord":{"lon":-73.766098,"lat":5.24958}},{"_id":3683538,"name":"El Paso","country":"CO","coord":{"lon":-73.747231,"lat":9.66057}},{"_id":8182090,"name":"Ciudad Montes","country":"CO","coord":{"lon":-74.115372,"lat":4.60393}},{"_id":3667082,"name":"Timana","country":"CO","coord":{"lon":-75.931229,"lat":1.97136}},{"_id":3667402,"name":"Tarazá","country":"CO","coord":{"lon":-75.400681,"lat":7.58358}},{"_id":3669859,"name":"San Francisco","country":"CO","coord":{"lon":-73.210602,"lat":5.56453}},{"_id":3673849,"name":"Nilo","country":"CO","coord":{"lon":-74.620827,"lat":4.30604}},{"_id":3670855,"name":"Restrepo","country":"CO","coord":{"lon":-73.561417,"lat":4.25833}},{"_id":3668023,"name":"Simacota","country":"CO","coord":{"lon":-73.336884,"lat":6.4429}},{"_id":3685345,"name":"Curiti","country":"CO","coord":{"lon":-73.068092,"lat":6.60519}},{"_id":3670207,"name":"San Andres de Sotavento","country":"CO","coord":{"lon":-75.508774,"lat":9.14476}},{"_id":3666409,"name":"Uribia","country":"CO","coord":{"lon":-72.266037,"lat":11.7139}},{"_id":3686158,"name":"Cocorna","country":"CO","coord":{"lon":-75.185242,"lat":6.0573}},{"_id":3670242,"name":"San Alberto","country":"CO","coord":{"lon":-73.392197,"lat":7.76107}},{"_id":3686255,"name":"Cimitarra","country":"CO","coord":{"lon":-73.949677,"lat":6.31419}},{"_id":3679716,"name":"Labranzagrande","country":"CO","coord":{"lon":-72.574989,"lat":5.56223}},{"_id":3780602,"name":"Fredonia","country":"CO","coord":{"lon":-75.670563,"lat":5.92583}},{"_id":3690019,"name":"Amaga","country":"CO","coord":{"lon":-75.703148,"lat":6.04001}},{"_id":3685335,"name":"Curumani","country":"CO","coord":{"lon":-73.54274,"lat":9.19992}},{"_id":3687806,"name":"Campoalegre","country":"CO","coord":{"lon":-75.323112,"lat":2.68489}},{"_id":3793791,"name":"Los Lagos","country":"CO","coord":{"lon":-76.157707,"lat":8.26914}},{"_id":3672651,"name":"Paz de Río","country":"CO","coord":{"lon":-72.750504,"lat":5.98452}},{"_id":3675780,"name":"Macaravita","country":"CO","coord":{"lon":-72.592987,"lat":6.50567}},{"_id":3671161,"name":"Quebradanegra","country":"CO","coord":{"lon":-74.479439,"lat":5.11737}},{"_id":3829349,"name":"Puerto Caicedo","country":"CO","coord":{"lon":-76.604393,"lat":0.68362}},{"_id":3671630,"name":"Pueblorrico","country":"CO","coord":{"lon":-75.841011,"lat":5.79176}},{"_id":3665898,"name":"Villavieja","country":"CO","coord":{"lon":-75.218643,"lat":3.22052}},{"_id":3686027,"name":"Concepcion","country":"CO","coord":{"lon":-72.694,"lat":6.7662}},{"_id":3670929,"name":"Recreo","country":"CO","coord":{"lon":-77.533333,"lat":1.4}},{"_id":3685578,"name":"Cuba","country":"CO","coord":{"lon":-74.883331,"lat":10.9}},{"_id":3670350,"name":"Salgar","country":"CO","coord":{"lon":-75.965408,"lat":5.96502}},{"_id":3679778,"name":"Bella Suiza","country":"CO","coord":{"lon":-74.034599,"lat":4.70898}},{"_id":7033249,"name":"Santa Barbara Central","country":"CO","coord":{"lon":-74.039192,"lat":4.7021}},{"_id":3690592,"name":"Abejorral","country":"CO","coord":{"lon":-75.427254,"lat":5.78928}},{"_id":3688499,"name":"Briceno","country":"CO","coord":{"lon":-75.551521,"lat":7.11096}},{"_id":3667649,"name":"Sutatausa","country":"CO","coord":{"lon":-73.852379,"lat":5.24779}},{"_id":3669977,"name":"San Cayetano","country":"CO","coord":{"lon":-72.624298,"lat":7.87707}},{"_id":3689039,"name":"Bayunca","country":"CO","coord":{"lon":-75.397278,"lat":10.53569}},{"_id":3687451,"name":"Caracoli","country":"CO","coord":{"lon":-74.760559,"lat":6.41194}},{"_id":3684945,"name":"El Bagre","country":"CO","coord":{"lon":-74.808578,"lat":7.59272}},{"_id":3665965,"name":"Villa Mejía","country":"CO","coord":{"lon":-74.150261,"lat":4.64967}},{"_id":3675808,"name":"Mabobo","country":"CO","coord":{"lon":-75.170479,"lat":8.43372}},{"_id":3689175,"name":"Barranca","country":"CO","coord":{"lon":-73.699997,"lat":6.03333}},{"_id":3689723,"name":"Aratoca","country":"CO","coord":{"lon":-73.020828,"lat":6.69353}},{"_id":3792383,"name":"Agustin Codazzi","country":"CO","coord":{"lon":-73.236107,"lat":10.03409}},{"_id":3781858,"name":"El Toronjo","country":"CO","coord":{"lon":-73.619019,"lat":4.70131}},{"_id":3793692,"name":"Viva Dios","country":"CO","coord":{"lon":-76.448212,"lat":8.06669}},{"_id":3770718,"name":"Morales","country":"CO","coord":{"lon":-76.617233,"lat":2.75701}},{"_id":3685628,"name":"Cuajadoras","country":"CO","coord":{"lon":-72.716667,"lat":7.73333}},{"_id":3685984,"name":"Consaca","country":"CO","coord":{"lon":-77.469551,"lat":1.21544}},{"_id":3671437,"name":"Puerto Leguizamo","country":"CO","coord":{"lon":-74.781891,"lat":-0.19337}},{"_id":3666314,"name":"Vallecito","country":"CO","coord":{"lon":-75.486969,"lat":6.72594}},{"_id":3736146,"name":"Nochebuena","country":"CO","coord":{"lon":-75.489441,"lat":3.255}},{"_id":3680857,"name":"Hispania","country":"CO","coord":{"lon":-75.907181,"lat":5.79925}},{"_id":3665851,"name":"Viterbo","country":"CO","coord":{"lon":-75.87159,"lat":5.06242}},{"_id":3685814,"name":"Corozalito","country":"CO","coord":{"lon":-75.629189,"lat":9.04634}},{"_id":3681767,"name":"Guacheta","country":"CO","coord":{"lon":-73.686172,"lat":5.38425}},{"_id":3685271,"name":"Dávila","country":"CO","coord":{"lon":-75.949997,"lat":4.45}},{"_id":3669938,"name":"Sandona","country":"CO","coord":{"lon":-77.474091,"lat":1.29151}},{"_id":3682944,"name":"El Tendido","country":"CO","coord":{"lon":-72.988609,"lat":5.73135}},{"_id":3828718,"name":"Yapurquer","country":"CO","coord":{"lon":-77.731049,"lat":0.8482}},{"_id":3731909,"name":"El Naranjito","country":"CO","coord":{"lon":-73.48983,"lat":7.1003}},{"_id":3671604,"name":"Puente Aranda","country":"CO","coord":{"lon":-74.116669,"lat":4.63333}},{"_id":3675987,"name":"Los Palmitos","country":"CO","coord":{"lon":-75.267693,"lat":9.37899}},{"_id":3685418,"name":"Cunday","country":"CO","coord":{"lon":-74.692123,"lat":4.06004}},{"_id":3688072,"name":"Caicedo","country":"CO","coord":{"lon":-75.982552,"lat":6.40511}},{"_id":3685295,"name":"Dabeiba","country":"CO","coord":{"lon":-76.26722,"lat":7.00172}},{"_id":3689239,"name":"Barandillas","country":"CO","coord":{"lon":-73.966667,"lat":5.01667}},{"_id":3670061,"name":"San Antonio de Prado","country":"CO","coord":{"lon":-75.657318,"lat":6.18394}},{"_id":3756455,"name":"Tutehón","country":"CO","coord":{"lon":-72.576576,"lat":11.46745}},{"_id":3680349,"name":"Java","country":"CO","coord":{"lon":-74.433327,"lat":4.51667}},{"_id":3778835,"name":"La Cumbre","country":"CO","coord":{"lon":-76.020828,"lat":3.7225}},{"_id":3673902,"name":"Neira","country":"CO","coord":{"lon":-75.520012,"lat":5.1665}},{"_id":3782071,"name":"Las Tominejas","country":"CO","coord":{"lon":-73.972816,"lat":4.82806}},{"_id":3669557,"name":"San Jose de La Montana","country":"CO","coord":{"lon":-75.683327,"lat":6.85028}},{"_id":3673668,"name":"Ocache","country":"CO","coord":{"lon":-76.486458,"lat":3.70638}},{"_id":3673413,"name":"Pacora","country":"CO","coord":{"lon":-75.459297,"lat":5.52708}},{"_id":3671950,"name":"Polonuevo","country":"CO","coord":{"lon":-74.853439,"lat":10.77697}},{"_id":3828811,"name":"Kilómetro Diez y Ocho","country":"CO","coord":{"lon":-76.62336,"lat":3.5369}},{"_id":3673536,"name":"Orocue","country":"CO","coord":{"lon":-71.335419,"lat":4.79118}},{"_id":3776586,"name":"La Belleza","country":"CO","coord":{"lon":-73.848892,"lat":5.79083}},{"_id":3685432,"name":"Cumbal","country":"CO","coord":{"lon":-77.791451,"lat":0.90875}},{"_id":3681596,"name":"Guamal","country":"CO","coord":{"lon":-74.223839,"lat":9.14334}},{"_id":3668033,"name":"Silos","country":"CO","coord":{"lon":-72.756393,"lat":7.20524}},{"_id":3674130,"name":"Mutata","country":"CO","coord":{"lon":-76.435638,"lat":7.24407}},{"_id":3673268,"name":"Palestina","country":"CO","coord":{"lon":-73.5,"lat":7.4}},{"_id":3688128,"name":"Caceres","country":"CO","coord":{"lon":-75.348419,"lat":7.58078}},{"_id":7527065,"name":"Nancilandia","country":"CO","coord":{"lon":-73.61348,"lat":4.17861}},{"_id":3687355,"name":"Caribe","country":"CO","coord":{"lon":-73.25,"lat":10.43333}},{"_id":3782886,"name":"Campoalegre","country":"CO","coord":{"lon":-76.231499,"lat":4.08538}},{"_id":3756852,"name":"San Carlos","country":"CO","coord":{"lon":-70.747993,"lat":7.07309}},{"_id":7522928,"name":"Villa Maria","country":"CO","coord":{"lon":-76.72039,"lat":8.11523}},{"_id":3684922,"name":"El Banco","country":"CO","coord":{"lon":-71.650002,"lat":5.43333}},{"_id":3685600,"name":"Cuatro Bocas","country":"CO","coord":{"lon":-72.932777,"lat":11.515}},{"_id":7523302,"name":"San Rafael","country":"CO","coord":{"lon":-74.876099,"lat":5.22642}},{"_id":3670205,"name":"Providencia y Santa Catalina, Departamento de Archipiélago de San Andrés","country":"CO","coord":{"lon":-81.75,"lat":12.5}},{"_id":3682788,"name":"El Valle","country":"CO","coord":{"lon":-81.349998,"lat":13.35}},{"_id":3686867,"name":"Chachagui","country":"CO","coord":{"lon":-77.283669,"lat":1.35943}},{"_id":3671916,"name":"Popayan","country":"CO","coord":{"lon":-76.613159,"lat":2.43823}},{"_id":7544046,"name":"Rincón de Contado","country":"CO","coord":{"lon":-76.110847,"lat":1.86076}},{"_id":3736937,"name":"Cuba","country":"CO","coord":{"lon":-75.738892,"lat":4.8025}},{"_id":3683209,"name":"El Rhin","country":"CO","coord":{"lon":-74.718246,"lat":7.0089}},{"_id":3673899,"name":"Neiva","country":"CO","coord":{"lon":-75.281883,"lat":2.9273}},{"_id":3682205,"name":"Gallinazo","country":"CO","coord":{"lon":-75.449997,"lat":5.03333}},{"_id":3666254,"name":"Departamento del Vaupés","country":"CO","coord":{"lon":-70.75,"lat":0.25}},{"_id":3685070,"name":"Durania","country":"CO","coord":{"lon":-70.183327,"lat":1.26667}},{"_id":3783506,"name":"El Central","country":"CO","coord":{"lon":-75.830002,"lat":8.82333}},{"_id":3689002,"name":"Belén","country":"CO","coord":{"lon":-75.599998,"lat":6.21667}},{"_id":3827660,"name":"San Sebastián","country":"CO","coord":{"lon":-69.94944,"lat":-4.18111}},{"_id":3666041,"name":"Vijagual","country":"CO","coord":{"lon":-76.716667,"lat":7.81667}},{"_id":3828656,"name":"Villa Rosa","country":"CO","coord":{"lon":-77.677132,"lat":0.85801}},{"_id":3668564,"name":"Santa Rita","country":"CO","coord":{"lon":-75.148888,"lat":4.41639}},{"_id":3681505,"name":"Guapi","country":"CO","coord":{"lon":-77.885422,"lat":2.57082}},{"_id":3669067,"name":"San Rafael","country":"CO","coord":{"lon":-74.773407,"lat":4.27724}},{"_id":7930017,"name":"Corinto","country":"CO","coord":{"lon":-75.566597,"lat":1.58501}},{"_id":3829940,"name":"Atenas","country":"CO","coord":{"lon":-73.809441,"lat":7.02639}},{"_id":3778842,"name":"La Esmeralda","country":"CO","coord":{"lon":-76.376892,"lat":3.55564}},{"_id":3683115,"name":"El Salado","country":"CO","coord":{"lon":-72.500893,"lat":7.93415}},{"_id":3665626,"name":"Zacarías-Riodagua","country":"CO","coord":{"lon":-77.002769,"lat":3.81584}},{"_id":3689325,"name":"Mutis","country":"CO","coord":{"lon":-77.404388,"lat":6.22622}},{"_id":3679556,"name":"La Ceibita","country":"CO","coord":{"lon":-74.783333,"lat":10.88333}},{"_id":3732203,"name":"Palonegro","country":"CO","coord":{"lon":-73.198639,"lat":7.11989}},{"_id":3732002,"name":"Las Flores","country":"CO","coord":{"lon":-73.980377,"lat":9.04968}},{"_id":3684257,"name":"El Edén","country":"CO","coord":{"lon":-75.76667,"lat":4.46667}},{"_id":3669793,"name":"San Ignacio","country":"CO","coord":{"lon":-75.383331,"lat":5.55}},{"_id":3665566,"name":"Zaragoza","country":"CO","coord":{"lon":-74.869186,"lat":7.48971}},{"_id":3665741,"name":"Yarumal","country":"CO","coord":{"lon":-75.417381,"lat":6.96321}},{"_id":3665934,"name":"Villanueva","country":"CO","coord":{"lon":-72.980003,"lat":10.60528}},{"_id":3665951,"name":"Villanueva","country":"CO","coord":{"lon":-71.966667,"lat":5.28333}},{"_id":3667991,"name":"Since","country":"CO","coord":{"lon":-75.146751,"lat":9.24391}},{"_id":3668132,"name":"Sevilla","country":"CO","coord":{"lon":-75.930847,"lat":4.26425}},{"_id":3668175,"name":"Segovia","country":"CO","coord":{"lon":-74.698898,"lat":7.07993}},{"_id":3668655,"name":"Santa Lucia","country":"CO","coord":{"lon":-74.960167,"lat":10.3242}},{"_id":3669736,"name":"San Jacinto","country":"CO","coord":{"lon":-75.121696,"lat":9.82767}},{"_id":3669997,"name":"San Carlos","country":"CO","coord":{"lon":-75.699471,"lat":8.79577}},{"_id":3669998,"name":"San Carlos","country":"CO","coord":{"lon":-74.773163,"lat":7.79177}},{"_id":3670038,"name":"San Benito Abad","country":"CO","coord":{"lon":-75.027092,"lat":8.92901}},{"_id":3670218,"name":"San Andres","country":"CO","coord":{"lon":-81.700562,"lat":12.58472}},{"_id":3670513,"name":"Sabanagrande","country":"CO","coord":{"lon":-74.76059,"lat":10.79115}},{"_id":3670874,"name":"Repelon","country":"CO","coord":{"lon":-75.129173,"lat":10.49194}},{"_id":3672761,"name":"Patia","country":"CO","coord":{"lon":-77.052727,"lat":2.06895}},{"_id":3674412,"name":"Morales","country":"CO","coord":{"lon":-73.868843,"lat":8.2752}},{"_id":3674453,"name":"Monteria","country":"CO","coord":{"lon":-75.881432,"lat":8.74798}},{"_id":3674463,"name":"Montenegro","country":"CO","coord":{"lon":-75.751106,"lat":4.56639}},{"_id":3674470,"name":"Montelibano","country":"CO","coord":{"lon":-75.422928,"lat":7.98288}},{"_id":3674962,"name":"Medellin","country":"CO","coord":{"lon":-75.563591,"lat":6.25184}},{"_id":3675707,"name":"Madrid","country":"CO","coord":{"lon":-74.264191,"lat":4.73244}},{"_id":3675975,"name":"Los Patios","country":"CO","coord":{"lon":-72.5037,"lat":7.83793}},{"_id":3676604,"name":"Libano","country":"CO","coord":{"lon":-75.062317,"lat":4.9218}},{"_id":3676626,"name":"Lerida","country":"CO","coord":{"lon":-74.909767,"lat":4.86242}},{"_id":3676720,"name":"La Virginia","country":"CO","coord":{"lon":-75.8825,"lat":4.89972}},{"_id":3676928,"name":"La Union","country":"CO","coord":{"lon":-76.10318,"lat":4.53282}},{"_id":3676934,"name":"La Union","country":"CO","coord":{"lon":-77.131523,"lat":1.6045}},{"_id":3678405,"name":"La Mesa","country":"CO","coord":{"lon":-73.916672,"lat":5.26667}},{"_id":3680387,"name":"Jamundi","country":"CO","coord":{"lon":-76.534988,"lat":3.26074}},{"_id":3680840,"name":"Honda","country":"CO","coord":{"lon":-74.73584,"lat":5.20856}},{"_id":3681957,"name":"Granada","country":"CO","coord":{"lon":-73.700562,"lat":3.53861}},{"_id":3682108,"name":"Garzon","country":"CO","coord":{"lon":-75.627769,"lat":2.19593}},{"_id":3682238,"name":"Galapa","country":"CO","coord":{"lon":-74.886002,"lat":10.89686}},{"_id":3682274,"name":"Fusagasuga","country":"CO","coord":{"lon":-74.363777,"lat":4.33646}},{"_id":3682393,"name":"Florida","country":"CO","coord":{"lon":-76.234802,"lat":3.3223}},{"_id":3682426,"name":"Florencia","country":"CO","coord":{"lon":-75.606232,"lat":1.61438}},{"_id":3684452,"name":"El Copey","country":"CO","coord":{"lon":-73.961403,"lat":10.15031}},{"_id":3684579,"name":"El Charco","country":"CO","coord":{"lon":-78.110489,"lat":2.47691}},{"_id":3684615,"name":"El Cerrito","country":"CO","coord":{"lon":-76.313721,"lat":3.68549}},{"_id":3685871,"name":"Corinto","country":"CO","coord":{"lon":-76.259933,"lat":3.17407}},{"_id":3686585,"name":"Chimichagua","country":"CO","coord":{"lon":-73.812279,"lat":9.25778}},{"_id":3687238,"name":"Cartagena","country":"CO","coord":{"lon":-75.514442,"lat":10.39972}},{"_id":3688451,"name":"Buenaventura","country":"CO","coord":{"lon":-77.031158,"lat":3.8801}},{"_id":3689718,"name":"Arauca","country":"CO","coord":{"lon":-70.759079,"lat":7.08471}},{"_id":3689798,"name":"Apartado","country":"CO","coord":{"lon":-76.62587,"lat":7.88299}},{"_id":3689905,"name":"Andalucia","country":"CO","coord":{"lon":-76.166412,"lat":4.17061}},{"_id":3665544,"name":"Zipacon","country":"CO","coord":{"lon":-74.380173,"lat":4.75881}},{"_id":3665616,"name":"Zambrano","country":"CO","coord":{"lon":-74.8153,"lat":9.74724}},{"_id":3665693,"name":"Yolombo","country":"CO","coord":{"lon":-75.011398,"lat":6.59841}},{"_id":3665792,"name":"Yali","country":"CO","coord":{"lon":-74.834297,"lat":6.67456}},{"_id":3665813,"name":"Yacopi","country":"CO","coord":{"lon":-74.338226,"lat":5.45948}},{"_id":3665860,"name":"Vista Hermosa","country":"CO","coord":{"lon":-73.751556,"lat":3.12428}},{"_id":3665910,"name":"Villarrica","country":"CO","coord":{"lon":-74.600357,"lat":3.93502}},{"_id":3665924,"name":"Villapinzon","country":"CO","coord":{"lon":-73.594902,"lat":5.21617}},{"_id":3665935,"name":"Villanueva","country":"CO","coord":{"lon":-75.273064,"lat":10.44361}},{"_id":3665949,"name":"Villanueva","country":"CO","coord":{"lon":-73.174202,"lat":6.67169}},{"_id":3665986,"name":"Villahermosa","country":"CO","coord":{"lon":-75.116074,"lat":5.03067}},{"_id":3666003,"name":"Villa de Leiva","country":"CO","coord":{"lon":-73.566673,"lat":5.645}},{"_id":3666042,"name":"Vigia del Fuerte","country":"CO","coord":{"lon":-76.886276,"lat":6.57891}},{"_id":3666075,"name":"Victoria","country":"CO","coord":{"lon":-74.911011,"lat":5.31648}},{"_id":3666102,"name":"Versalles","country":"CO","coord":{"lon":-76.198143,"lat":4.57544}},{"_id":3666163,"name":"Ventaquemada","country":"CO","coord":{"lon":-73.520752,"lat":5.36753}},{"_id":3666193,"name":"Venecia","country":"CO","coord":{"lon":-75.73806,"lat":5.96278}},{"_id":3666203,"name":"Venecia","country":"CO","coord":{"lon":-74.477463,"lat":4.08808}},{"_id":3666287,"name":"Valparaiso","country":"CO","coord":{"lon":-75.624222,"lat":5.615}},{"_id":3666291,"name":"Valparaiso","country":"CO","coord":{"lon":-75.707047,"lat":1.19512}},{"_id":3666309,"name":"Valle de San Juan","country":"CO","coord":{"lon":-75.117332,"lat":4.19869}},{"_id":3666311,"name":"Valle de San Jose","country":"CO","coord":{"lon":-73.143608,"lat":6.4475}},{"_id":3666326,"name":"Valencia","country":"CO","coord":{"lon":-76.149277,"lat":8.25801}},{"_id":3666333,"name":"Valdivia","country":"CO","coord":{"lon":-75.397781,"lat":7.28889}},{"_id":3666363,"name":"Utica","country":"CO","coord":{"lon":-74.481049,"lat":5.18727}},{"_id":3666370,"name":"Usiacuri","country":"CO","coord":{"lon":-74.98333,"lat":10.75}},{"_id":3666436,"name":"Uramita","country":"CO","coord":{"lon":-76.174171,"lat":6.89944}},{"_id":3666475,"name":"Ungia","country":"CO","coord":{"lon":-77.094528,"lat":8.04335}},{"_id":3666493,"name":"Umbita","country":"CO","coord":{"lon":-73.456947,"lat":5.22041}},{"_id":3666526,"name":"Ubala","country":"CO","coord":{"lon":-72.536942,"lat":4.74778}},{"_id":3666575,"name":"Turbana","country":"CO","coord":{"lon":-75.442223,"lat":10.2717}},{"_id":3666719,"name":"Trinidad","country":"CO","coord":{"lon":-71.631111,"lat":5.43056}},{"_id":3666834,"name":"Totoro","country":"CO","coord":{"lon":-76.401237,"lat":2.51204}},{"_id":3666903,"name":"Topaipi","country":"CO","coord":{"lon":-74.302917,"lat":5.33457}},{"_id":3666905,"name":"Topaga","country":"CO","coord":{"lon":-72.825829,"lat":5.75979}},{"_id":3666936,"name":"Toluviejo","country":"CO","coord":{"lon":-75.438637,"lat":9.45082}},{"_id":3666959,"name":"Toledo","country":"CO","coord":{"lon":-72.482948,"lat":7.30984}},{"_id":3667007,"name":"Toca","country":"CO","coord":{"lon":-73.183983,"lat":5.56392}},{"_id":3667023,"name":"Titiribi","country":"CO","coord":{"lon":-75.793701,"lat":6.06276}},{"_id":3667044,"name":"Tipacoque","country":"CO","coord":{"lon":-72.691841,"lat":6.42031}},{"_id":3667070,"name":"Timbiqui","country":"CO","coord":{"lon":-77.665359,"lat":2.7717}},{"_id":3667211,"name":"Tibasosa","country":"CO","coord":{"lon":-73.0,"lat":5.75}},{"_id":3667218,"name":"Tibana","country":"CO","coord":{"lon":-73.396553,"lat":5.31728}},{"_id":3667244,"name":"Tesalia","country":"CO","coord":{"lon":-75.72921,"lat":2.48587}},{"_id":3667247,"name":"Teruel","country":"CO","coord":{"lon":-75.567383,"lat":2.74193}},{"_id":3667323,"name":"Tello","country":"CO","coord":{"lon":-75.137779,"lat":3.06694}},{"_id":3667373,"name":"Tasco","country":"CO","coord":{"lon":-72.780006,"lat":5.91044}},{"_id":3667380,"name":"Tarso","country":"CO","coord":{"lon":-75.821922,"lat":5.86467}},{"_id":3667386,"name":"Tarqui","country":"CO","coord":{"lon":-75.824188,"lat":2.11248}},{"_id":3667471,"name":"Taminango","country":"CO","coord":{"lon":-77.286659,"lat":1.57491}},{"_id":3667473,"name":"Tamesis","country":"CO","coord":{"lon":-75.713387,"lat":5.66462}},{"_id":3667516,"name":"Tamara","country":"CO","coord":{"lon":-72.16333,"lat":5.82972}},{"_id":3667528,"name":"Tamalameque","country":"CO","coord":{"lon":-73.812286,"lat":8.85221}},{"_id":3667547,"name":"Talaigua Viejo","country":"CO","coord":{"lon":-74.585442,"lat":9.31206}},{"_id":3667579,"name":"Tado","country":"CO","coord":{"lon":-76.564873,"lat":5.26598}},{"_id":3667660,"name":"Susacon","country":"CO","coord":{"lon":-72.690102,"lat":6.22978}},{"_id":3667731,"name":"Sucre","country":"CO","coord":{"lon":-73.791092,"lat":5.91833}},{"_id":3667732,"name":"Sucre","country":"CO","coord":{"lon":-76.924461,"lat":2.03805}},{"_id":3667772,"name":"Suarez","country":"CO","coord":{"lon":-74.831978,"lat":4.04906}},{"_id":3667773,"name":"Suarez","country":"CO","coord":{"lon":-76.696442,"lat":2.95395}},{"_id":3667780,"name":"Suan","country":"CO","coord":{"lon":-74.880157,"lat":10.33347}},{"_id":3667783,"name":"Suaita","country":"CO","coord":{"lon":-73.440407,"lat":6.1014}},{"_id":3667791,"name":"Sotomayor","country":"CO","coord":{"lon":-77.50444,"lat":1.51469}},{"_id":3667796,"name":"Sotaquira","country":"CO","coord":{"lon":-73.247581,"lat":5.76483}},{"_id":3667834,"name":"Somondoco","country":"CO","coord":{"lon":-73.436111,"lat":4.98778}},{"_id":3667868,"name":"Solano","country":"CO","coord":{"lon":-75.253532,"lat":0.69937}},{"_id":3667880,"name":"Socota","country":"CO","coord":{"lon":-72.635094,"lat":6.04028}},{"_id":3667901,"name":"Soata","country":"CO","coord":{"lon":-72.682831,"lat":6.33369}},{"_id":3667918,"name":"Sitionuevo","country":"CO","coord":{"lon":-74.72049,"lat":10.77737}},{"_id":3668012,"name":"Simiti","country":"CO","coord":{"lon":-73.943604,"lat":7.9579}},{"_id":3668078,"name":"Sibundoy","country":"CO","coord":{"lon":-76.92366,"lat":1.20478}},{"_id":3668096,"name":"Siachoque","country":"CO","coord":{"lon":-73.244362,"lat":5.51238}},{"_id":3668138,"name":"Sesquile","country":"CO","coord":{"lon":-73.800827,"lat":5.0475}},{"_id":3668228,"name":"Sasaima","country":"CO","coord":{"lon":-74.43512,"lat":4.96611}},{"_id":3668268,"name":"Sapuyes","country":"CO","coord":{"lon":-77.620941,"lat":1.03728}},{"_id":3668286,"name":"San Zenon","country":"CO","coord":{"lon":-74.500366,"lat":9.24217}},{"_id":3668302,"name":"San Vicente","country":"CO","coord":{"lon":-75.336113,"lat":6.23278}},{"_id":3668324,"name":"Santuario","country":"CO","coord":{"lon":-75.963409,"lat":5.07237}},{"_id":3668373,"name":"Santo Domingo","country":"CO","coord":{"lon":-75.164719,"lat":6.47222}},{"_id":3668396,"name":"Santiago","country":"CO","coord":{"lon":-72.716202,"lat":7.86432}},{"_id":3668400,"name":"Santiago","country":"CO","coord":{"lon":-77.004501,"lat":1.14844}},{"_id":3668434,"name":"Santa Sofia","country":"CO","coord":{"lon":-73.604042,"lat":5.70908}},{"_id":3668447,"name":"Santa Rosa de Viterbo","country":"CO","coord":{"lon":-72.98217,"lat":5.87401}},{"_id":3668472,"name":"Santa Rosa","country":"CO","coord":{"lon":-75.36972,"lat":10.44472}},{"_id":3668594,"name":"Santana","country":"CO","coord":{"lon":-73.481117,"lat":6.0575}},{"_id":3668631,"name":"Santa Maria","country":"CO","coord":{"lon":-73.262337,"lat":4.86048}},{"_id":3668635,"name":"Santa Maria","country":"CO","coord":{"lon":-75.650002,"lat":2.95}},{"_id":3668895,"name":"Santa Barbara","country":"CO","coord":{"lon":-75.567062,"lat":5.87458}},{"_id":3668937,"name":"Santa Ana","country":"CO","coord":{"lon":-74.568481,"lat":9.32125}},{"_id":3669011,"name":"San Roque","country":"CO","coord":{"lon":-75.0196,"lat":6.48511}},{"_id":3669056,"name":"San Rafael","country":"CO","coord":{"lon":-75.025887,"lat":6.29436}},{"_id":3669128,"name":"San Pedro","country":"CO","coord":{"lon":-75.064758,"lat":9.3956}},{"_id":3669138,"name":"San Pedro","country":"CO","coord":{"lon":-75.556557,"lat":6.46221}},{"_id":3669156,"name":"San Pedro","country":"CO","coord":{"lon":-76.227798,"lat":3.99456}},{"_id":3669188,"name":"San Pablo","country":"CO","coord":{"lon":-75.267754,"lat":10.05154}},{"_id":3669214,"name":"San Pablo","country":"CO","coord":{"lon":-77.013893,"lat":1.6725}},{"_id":3669293,"name":"San Miguel","country":"CO","coord":{"lon":-76.91124,"lat":0.34314}},{"_id":3669310,"name":"San Mateo","country":"CO","coord":{"lon":-72.555634,"lat":6.40111}},{"_id":3669358,"name":"San Luis de Cubarral","country":"CO","coord":{"lon":-73.84063,"lat":3.79352}},{"_id":3669399,"name":"San Luis","country":"CO","coord":{"lon":-75.094994,"lat":4.13258}},{"_id":3669440,"name":"San Lorenzo","country":"CO","coord":{"lon":-77.218979,"lat":1.50628}},{"_id":3669480,"name":"San Juan de Betulia","country":"CO","coord":{"lon":-75.241028,"lat":9.27345}},{"_id":3669482,"name":"San Juan de Arama","country":"CO","coord":{"lon":-73.889442,"lat":3.34639}},{"_id":3669623,"name":"San Jose","country":"CO","coord":{"lon":-75.78833,"lat":5.08583}},{"_id":3669654,"name":"San Jose","country":"CO","coord":{"lon":-78.24482,"lat":1.69659}},{"_id":3669857,"name":"San Francisco","country":"CO","coord":{"lon":-75.98333,"lat":6.11667}},{"_id":3669860,"name":"San Francisco","country":"CO","coord":{"lon":-74.290062,"lat":4.97372}},{"_id":3669881,"name":"San Francisco","country":"CO","coord":{"lon":-76.878502,"lat":1.17867}},{"_id":3669895,"name":"San Fernando","country":"CO","coord":{"lon":-74.53389,"lat":9.27972}},{"_id":3669929,"name":"San Estanislao","country":"CO","coord":{"lon":-75.151108,"lat":10.39833}},{"_id":3669947,"name":"San Diego","country":"CO","coord":{"lon":-73.180038,"lat":10.33427}},{"_id":3669956,"name":"San Cristobal","country":"CO","coord":{"lon":-75.25248,"lat":9.87809}},{"_id":3669987,"name":"San Carlos de Guaroa","country":"CO","coord":{"lon":-73.243439,"lat":3.71161}},{"_id":3670000,"name":"San Carlos","country":"CO","coord":{"lon":-74.993149,"lat":6.18789}},{"_id":3670011,"name":"San Calixto","country":"CO","coord":{"lon":-73.207367,"lat":8.4021}},{"_id":3670018,"name":"San Bernardo del Viento","country":"CO","coord":{"lon":-75.952438,"lat":9.3533}},{"_id":3670034,"name":"San Bernardo","country":"CO","coord":{"lon":-77.030907,"lat":1.52119}},{"_id":3670107,"name":"San Antonio","country":"CO","coord":{"lon":-74.693459,"lat":9.93303}},{"_id":3670162,"name":"San Antonio","country":"CO","coord":{"lon":-75.48008,"lat":3.91423}},{"_id":3670224,"name":"San Andres","country":"CO","coord":{"lon":-72.849289,"lat":6.81148}},{"_id":3670260,"name":"San Agustin","country":"CO","coord":{"lon":-76.275574,"lat":1.87863}},{"_id":3670293,"name":"Samaniego","country":"CO","coord":{"lon":-77.595703,"lat":1.3385}},{"_id":3670368,"name":"Salamina","country":"CO","coord":{"lon":-74.794632000000007,"lat":10.49027}},{"_id":3670383,"name":"Saladoblanco","country":"CO","coord":{"lon":-76.04335,"lat":1.99244}},{"_id":3670431,"name":"Sachica","country":"CO","coord":{"lon":-73.54184,"lat":5.58453}},{"_id":3670447,"name":"Saboya","country":"CO","coord":{"lon":-73.769318,"lat":5.69636}},{"_id":3670506,"name":"Sabanalarga","country":"CO","coord":{"lon":-75.817108,"lat":6.84893}},{"_id":3670520,"name":"Sabana de Torres","country":"CO","coord":{"lon":-73.495743,"lat":7.3915}},{"_id":3670595,"name":"Rosas","country":"CO","coord":{"lon":-76.739861,"lat":2.26093}},{"_id":3670700,"name":"Risaralda","country":"CO","coord":{"lon":-75.765953,"lat":5.16647}},{"_id":3670709,"name":"Rio Viejo","country":"CO","coord":{"lon":-73.839012,"lat":8.5874}},{"_id":3670718,"name":"Riosucio","country":"CO","coord":{"lon":-77.116699,"lat":7.44027}},{"_id":3670754,"name":"Riofrio","country":"CO","coord":{"lon":-76.288521,"lat":4.1571}},{"_id":3670756,"name":"Rio de Oro","country":"CO","coord":{"lon":-73.38485,"lat":8.2919}},{"_id":3670812,"name":"Ricaurte","country":"CO","coord":{"lon":-74.764687,"lat":4.28075}},{"_id":3670816,"name":"Ricaurte","country":"CO","coord":{"lon":-77.937202,"lat":1.1727}},{"_id":3670884,"name":"Remolino","country":"CO","coord":{"lon":-74.716019,"lat":10.70198}},{"_id":3670910,"name":"Regidor","country":"CO","coord":{"lon":-73.82151,"lat":8.66565}},{"_id":3671018,"name":"Ragonvalia","country":"CO","coord":{"lon":-72.475739,"lat":7.57749}},{"_id":3671308,"name":"Puerto Triunfo","country":"CO","coord":{"lon":-74.640289,"lat":5.87262}},{"_id":3671337,"name":"Puerto Rondon","country":"CO","coord":{"lon":-71.099998,"lat":6.28048}},{"_id":3671346,"name":"Puerto Rico","country":"CO","coord":{"lon":-73.208328,"lat":2.93833}},{"_id":3671348,"name":"Puerto Rico","country":"CO","coord":{"lon":-75.144997,"lat":1.91417}},{"_id":3671371,"name":"Puerto Parra","country":"CO","coord":{"lon":-74.057343,"lat":6.65149}},{"_id":3671387,"name":"Puerto Narino","country":"CO","coord":{"lon":-70.383057,"lat":-3.77028}},{"_id":3671424,"name":"Puerto Lleras","country":"CO","coord":{"lon":-73.404404,"lat":3.02225}},{"_id":3671470,"name":"Puerto Escondido","country":"CO","coord":{"lon":-76.26413,"lat":9.0181}},{"_id":3671576,"name":"Puerres","country":"CO","coord":{"lon":-77.266609,"lat":1.19374}},{"_id":3671591,"name":"Puente Nacional","country":"CO","coord":{"lon":-73.678101,"lat":5.8774}},{"_id":3671615,"name":"Puebloviejo","country":"CO","coord":{"lon":-74.284378,"lat":10.99376}},{"_id":3671633,"name":"Pueblo Rico","country":"CO","coord":{"lon":-76.036392,"lat":5.23833}},{"_id":3671655,"name":"Pueblo Nuevo","country":"CO","coord":{"lon":-74.958153,"lat":8.2411}},{"_id":3671714,"name":"Providencia","country":"CO","coord":{"lon":-77.463997,"lat":1.56976}},{"_id":3671765,"name":"Prado","country":"CO","coord":{"lon":-74.929321,"lat":3.75024}},{"_id":3671848,"name":"Potosi","country":"CO","coord":{"lon":-77.572159,"lat":0.80739}},{"_id":3671901,"name":"Pore","country":"CO","coord":{"lon":-71.99472,"lat":5.72722}},{"_id":3671936,"name":"Ponedera","country":"CO","coord":{"lon":-74.750259,"lat":10.64104}},{"_id":3671961,"name":"Policarpa","country":"CO","coord":{"lon":-77.46199,"lat":1.63231}},{"_id":3672086,"name":"Pizarro","country":"CO","coord":{"lon":-77.365982,"lat":4.95334}},{"_id":3672087,"name":"Francisco Pizarro","country":"CO","coord":{"lon":-78.721672,"lat":2.10194}},{"_id":3672197,"name":"Pinillos","country":"CO","coord":{"lon":-74.467712,"lat":8.91925}},{"_id":3672249,"name":"Pijino","country":"CO","coord":{"lon":-74.453018,"lat":9.32908}},{"_id":3672290,"name":"Piedras","country":"CO","coord":{"lon":-74.881752,"lat":4.53833}},{"_id":3672295,"name":"Piedrancha","country":"CO","coord":{"lon":-77.8489,"lat":1.1374}},{"_id":3672327,"name":"Pie de Pato","country":"CO","coord":{"lon":-76.974487,"lat":5.51604}},{"_id":3672512,"name":"Peque","country":"CO","coord":{"lon":-75.909264,"lat":7.02122}},{"_id":3672521,"name":"Pensilvania","country":"CO","coord":{"lon":-75.161217,"lat":5.38346}},{"_id":3672599,"name":"Pelaya","country":"CO","coord":{"lon":-73.66452,"lat":8.68819}},{"_id":3672633,"name":"Pedraza","country":"CO","coord":{"lon":-74.915039,"lat":10.18739}},{"_id":3672665,"name":"Payan","country":"CO","coord":{"lon":-78.205002,"lat":1.935}},{"_id":3672698,"name":"Pauna","country":"CO","coord":{"lon":-73.982498,"lat":5.65861}},{"_id":3672997,"name":"Pandi","country":"CO","coord":{"lon":-74.487503,"lat":4.19111}},{"_id":3673126,"name":"Palocabildo","country":"CO","coord":{"lon":-75.017319,"lat":5.11705}},{"_id":3673269,"name":"Palestina","country":"CO","coord":{"lon":-75.622421,"lat":5.0194}},{"_id":3673275,"name":"Palestina","country":"CO","coord":{"lon":-76.134033,"lat":1.72362}},{"_id":3673286,"name":"Palermo","country":"CO","coord":{"lon":-75.4375,"lat":2.89167}},{"_id":3673368,"name":"Paispamba","country":"CO","coord":{"lon":-76.610863,"lat":2.25462}},{"_id":3673379,"name":"Pailitas","country":"CO","coord":{"lon":-73.625481,"lat":8.95652}},{"_id":3673397,"name":"Paez","country":"CO","coord":{"lon":-73.051224,"lat":5.10112}},{"_id":3673455,"name":"Ovejas","country":"CO","coord":{"lon":-75.223824,"lat":9.53248}},{"_id":3673475,"name":"Otanche","country":"CO","coord":{"lon":-74.182487,"lat":5.65672}},{"_id":3673482,"name":"Ospina","country":"CO","coord":{"lon":-77.565536,"lat":1.0595}},{"_id":3673578,"name":"Oporapa","country":"CO","coord":{"lon":-75.976753,"lat":2.05015}},{"_id":3673590,"name":"Onzaga","country":"CO","coord":{"lon":-72.817261,"lat":6.34434}},{"_id":3673609,"name":"Olaya Herrera","country":"CO","coord":{"lon":-77.496651,"lat":1.25609}},{"_id":3673690,"name":"Nuqui","country":"CO","coord":{"lon":-77.270828,"lat":5.7125}},{"_id":3673695,"name":"Nunchia","country":"CO","coord":{"lon":-72.198608,"lat":5.64056}},{"_id":3673756,"name":"Nueva Granada","country":"CO","coord":{"lon":-74.393044,"lat":9.80168}},{"_id":3673783,"name":"Novita","country":"CO","coord":{"lon":-76.605263,"lat":4.95511}},{"_id":3673811,"name":"Norcasia","country":"CO","coord":{"lon":-74.885208,"lat":5.57782}},{"_id":3673974,"name":"Necocli","country":"CO","coord":{"lon":-76.785973,"lat":8.42342}},{"_id":3673976,"name":"Nechi","country":"CO","coord":{"lon":-74.775726,"lat":8.09419}},{"_id":3674012,"name":"Nataga","country":"CO","coord":{"lon":-75.808517,"lat":2.54359}},{"_id":3674027,"name":"Narino","country":"CO","coord":{"lon":-75.176559,"lat":5.60893}},{"_id":3674029,"name":"Narino","country":"CO","coord":{"lon":-74.827309,"lat":4.39781}},{"_id":3674031,"name":"Narino","country":"CO","coord":{"lon":-77.360497,"lat":1.29546}},{"_id":3674121,"name":"Muzo","country":"CO","coord":{"lon":-74.10778,"lat":5.53528}},{"_id":3674161,"name":"Murindo","country":"CO","coord":{"lon":-76.754387,"lat":6.98481}},{"_id":3674272,"name":"Mountain","country":"CO","coord":{"lon":-81.366669,"lat":13.36667}},{"_id":3674293,"name":"Mosquera","country":"CO","coord":{"lon":-78.451103,"lat":2.50861}},{"_id":3674337,"name":"Morroa","country":"CO","coord":{"lon":-75.30542,"lat":9.33348}},{"_id":3674393,"name":"Morelia","country":"CO","coord":{"lon":-75.725807,"lat":1.48747}},{"_id":3674499,"name":"Montecristo","country":"CO","coord":{"lon":-74.473297,"lat":8.2971}},{"_id":3674519,"name":"Montebello","country":"CO","coord":{"lon":-75.527496,"lat":5.94806}},{"_id":3674569,"name":"Monitos","country":"CO","coord":{"lon":-76.050003,"lat":8.25}},{"_id":3674576,"name":"Mongui","country":"CO","coord":{"lon":-72.849083,"lat":5.72151}},{"_id":3674580,"name":"Mongua","country":"CO","coord":{"lon":-72.803391,"lat":5.75084}},{"_id":3674618,"name":"Molagavita","country":"CO","coord":{"lon":-72.808746,"lat":6.67315}},{"_id":3674640,"name":"Mogotes","country":"CO","coord":{"lon":-72.970459,"lat":6.47559}},{"_id":3674676,"name":"Mitu","country":"CO","coord":{"lon":-70.173332,"lat":1.19833}},{"_id":3674735,"name":"Miraflores","country":"CO","coord":{"lon":-73.145042,"lat":5.19608}},{"_id":3674784,"name":"Milan","country":"CO","coord":{"lon":-75.511673,"lat":1.29205}},{"_id":3674851,"name":"Mercaderes","country":"CO","coord":{"lon":-77.165962,"lat":1.80094}},{"_id":3675191,"name":"Marulanda","country":"CO","coord":{"lon":-75.260162,"lat":5.28393}},{"_id":3675212,"name":"Marsella","country":"CO","coord":{"lon":-75.737778,"lat":4.93722}},{"_id":3675255,"name":"Maripi","country":"CO","coord":{"lon":-74.008614,"lat":5.55194}},{"_id":3675305,"name":"Margarita","country":"CO","coord":{"lon":-74.266182,"lat":9.15596}},{"_id":3675504,"name":"Manaure","country":"CO","coord":{"lon":-72.444473,"lat":11.77505}},{"_id":3675512,"name":"Manati","country":"CO","coord":{"lon":-74.958687,"lat":10.44589}},{"_id":3675668,"name":"Mahates","country":"CO","coord":{"lon":-75.18985,"lat":10.23293}},{"_id":3675757,"name":"Macheta","country":"CO","coord":{"lon":-73.607613,"lat":5.08154}},{"_id":3675768,"name":"Maceo","country":"CO","coord":{"lon":-74.787422,"lat":6.55196}},{"_id":3675857,"name":"Lourdes","country":"CO","coord":{"lon":-72.832527,"lat":7.94411}},{"_id":3676205,"name":"Los Cordobas","country":"CO","coord":{"lon":-76.354553,"lat":8.89403}},{"_id":3676417,"name":"Lopez","country":"CO","coord":{"lon":-76.800003,"lat":2.43333}},{"_id":3676477,"name":"Lloro","country":"CO","coord":{"lon":-76.549454,"lat":5.49605}},{"_id":3676540,"name":"Linares","country":"CO","coord":{"lon":-77.527252,"lat":1.35783}},{"_id":3676591,"name":"Liborina","country":"CO","coord":{"lon":-75.81218,"lat":6.6779}},{"_id":3676644,"name":"Lenguazaque","country":"CO","coord":{"lon":-73.711517,"lat":5.30711}},{"_id":3676661,"name":"Leiva","country":"CO","coord":{"lon":-77.302528,"lat":1.93389}},{"_id":3676791,"name":"La Victoria","country":"CO","coord":{"lon":-76.037376,"lat":4.52271}},{"_id":3676864,"name":"La Vega","country":"CO","coord":{"lon":-74.33979,"lat":4.99779}},{"_id":3676868,"name":"La Vega","country":"CO","coord":{"lon":-76.780281,"lat":2.00628}},{"_id":3676884,"name":"La Uvita","country":"CO","coord":{"lon":-72.560318,"lat":6.31684}},{"_id":3676912,"name":"La Union","country":"CO","coord":{"lon":-75.280563,"lat":8.86056}},{"_id":3676923,"name":"La Union","country":"CO","coord":{"lon":-75.361954,"lat":5.97431}},{"_id":3677457,"name":"La Sierra","country":"CO","coord":{"lon":-76.76265,"lat":2.17835}},{"_id":3678000,"name":"La Primavera","country":"CO","coord":{"lon":-70.409172,"lat":5.49056}},{"_id":3678083,"name":"La Playa","country":"CO","coord":{"lon":-73.241386,"lat":8.21639}},{"_id":3678167,"name":"La Pena","country":"CO","coord":{"lon":-74.393677,"lat":5.19847}},{"_id":3678186,"name":"La Paz","country":"CO","coord":{"lon":-73.173317,"lat":10.38439}},{"_id":3678190,"name":"La Paz","country":"CO","coord":{"lon":-73.589478,"lat":6.17848}},{"_id":3678363,"name":"La Montanita","country":"CO","coord":{"lon":-75.439796,"lat":1.4766}},{"_id":3678415,"name":"La Merced","country":"CO","coord":{"lon":-75.88472,"lat":5.40194}},{"_id":3678575,"name":"La Llanada","country":"CO","coord":{"lon":-77.583473,"lat":1.48997}},{"_id":3678907,"name":"La Gloria","country":"CO","coord":{"lon":-73.80265,"lat":8.61868}},{"_id":3679007,"name":"La Florida","country":"CO","coord":{"lon":-77.406143,"lat":1.29851}},{"_id":3679130,"name":"La Esperanza","country":"CO","coord":{"lon":-72.463989,"lat":8.21043}},{"_id":3679379,"name":"La Cruz","country":"CO","coord":{"lon":-76.969009,"lat":1.60301}},{"_id":3679542,"name":"La Celia","country":"CO","coord":{"lon":-76.01667,"lat":5.04333}},{"_id":3679622,"name":"La Capilla","country":"CO","coord":{"lon":-73.475273,"lat":5.70493}},{"_id":3679660,"name":"La Calera","country":"CO","coord":{"lon":-73.969261,"lat":4.72069}},{"_id":3679776,"name":"La Belleza","country":"CO","coord":{"lon":-73.96167,"lat":5.86371}},{"_id":3679780,"name":"Labateca","country":"CO","coord":{"lon":-72.494431,"lat":7.29847}},{"_id":3680090,"name":"Jurado","country":"CO","coord":{"lon":-77.76413,"lat":7.10534}},{"_id":3680113,"name":"Junin","country":"CO","coord":{"lon":-73.66011,"lat":4.79027}},{"_id":3680335,"name":"Jenesano","country":"CO","coord":{"lon":-73.36364,"lat":5.38541}},{"_id":3680366,"name":"Jardin","country":"CO","coord":{"lon":-75.819763,"lat":5.59902}},{"_id":3680393,"name":"Jambalo","country":"CO","coord":{"lon":-76.322578,"lat":2.79225}},{"_id":3680491,"name":"Iscuande","country":"CO","coord":{"lon":-77.979362,"lat":2.45007}},{"_id":3680531,"name":"Iquira","country":"CO","coord":{"lon":-75.634567,"lat":2.64867}},{"_id":3680601,"name":"Imues","country":"CO","coord":{"lon":-77.500443,"lat":1.06072}},{"_id":3680616,"name":"Iles","country":"CO","coord":{"lon":-77.527412,"lat":0.97491}},{"_id":3680854,"name":"Hobo","country":"CO","coord":{"lon":-75.449997,"lat":2.58333}},{"_id":3680880,"name":"Herveo","country":"CO","coord":{"lon":-75.166672,"lat":5.08333}},{"_id":3680886,"name":"Herran","country":"CO","coord":{"lon":-72.483322,"lat":7.50611}},{"_id":3680902,"name":"Heliconia","country":"CO","coord":{"lon":-75.733673,"lat":6.20689}},{"_id":3681008,"name":"Municipio Hato Corozal","country":"CO","coord":{"lon":-71.763718,"lat":6.15676}},{"_id":3681029,"name":"Hatillo de Loba","country":"CO","coord":{"lon":-74.078201,"lat":8.95635}},{"_id":3681168,"name":"Hacari","country":"CO","coord":{"lon":-73.148888,"lat":8.32333}},{"_id":3681222,"name":"Guican","country":"CO","coord":{"lon":-72.411293,"lat":6.46184}},{"_id":3681234,"name":"Guepsa","country":"CO","coord":{"lon":-73.573128,"lat":6.02505}},{"_id":3681255,"name":"Guayata","country":"CO","coord":{"lon":-73.487503,"lat":4.96417}},{"_id":3681306,"name":"Guayabal de Siquima","country":"CO","coord":{"lon":-74.467438,"lat":4.87739}},{"_id":3681353,"name":"Guatica","country":"CO","coord":{"lon":-75.798264,"lat":5.31569}},{"_id":3681356,"name":"Guateque","country":"CO","coord":{"lon":-73.47274,"lat":5.00619}},{"_id":3681364,"name":"Guataqui","country":"CO","coord":{"lon":-74.789352,"lat":4.51573}},{"_id":3681644,"name":"Guaitarilla","country":"CO","coord":{"lon":-77.553009,"lat":1.13855}},{"_id":3681731,"name":"Guadalupe","country":"CO","coord":{"lon":-75.240631,"lat":6.81449}},{"_id":3681732,"name":"Guadalupe","country":"CO","coord":{"lon":-73.418327,"lat":6.2464}},{"_id":3681832,"name":"Guaca","country":"CO","coord":{"lon":-72.855942,"lat":6.87621}},{"_id":3681952,"name":"Granada","country":"CO","coord":{"lon":-75.185318,"lat":6.14353}},{"_id":3681953,"name":"Granada","country":"CO","coord":{"lon":-74.566673,"lat":5.06667}},{"_id":3681990,"name":"Gonzalez","country":"CO","coord":{"lon":-73.37989,"lat":8.38944}},{"_id":3682030,"name":"Giraldo","country":"CO","coord":{"lon":-75.989166,"lat":6.68306}},{"_id":3682039,"name":"Ginebra","country":"CO","coord":{"lon":-76.266747,"lat":3.72461}},{"_id":3682068,"name":"Genova","country":"CO","coord":{"lon":-75.76667,"lat":4.31667}},{"_id":3682070,"name":"Genova","country":"CO","coord":{"lon":-77.02433,"lat":1.64322}},{"_id":3682172,"name":"Gameza","country":"CO","coord":{"lon":-72.805862,"lat":5.80263}},{"_id":3682182,"name":"Gamarra","country":"CO","coord":{"lon":-73.742683,"lat":8.32279}},{"_id":3682232,"name":"Galeras","country":"CO","coord":{"lon":-75.048111,"lat":9.16095}},{"_id":3682243,"name":"Galan","country":"CO","coord":{"lon":-73.28878,"lat":6.63781}},{"_id":3682262,"name":"Gachancipa","country":"CO","coord":{"lon":-73.871536,"lat":4.99111}},{"_id":3682283,"name":"Funes","country":"CO","coord":{"lon":-77.450668,"lat":1.00266}},{"_id":3682299,"name":"Fuente de Oro","country":"CO","coord":{"lon":-73.612778,"lat":3.45944}},{"_id":3682361,"name":"Municipio de Fortul","country":"CO","coord":{"lon":-71.771698,"lat":6.79277}},{"_id":3682400,"name":"Floresta","country":"CO","coord":{"lon":-72.918823,"lat":5.85903}},{"_id":3682425,"name":"Florencia","country":"CO","coord":{"lon":-77.073303,"lat":1.68318}},{"_id":3682473,"name":"Filandia","country":"CO","coord":{"lon":-75.658333,"lat":4.67472}},{"_id":3682481,"name":"Filadelfia","country":"CO","coord":{"lon":-75.561203,"lat":5.29606}},{"_id":3682682,"name":"El Zulia","country":"CO","coord":{"lon":-72.60125,"lat":7.93248}},{"_id":3682963,"name":"El Tambo","country":"CO","coord":{"lon":-76.810287,"lat":2.45199}},{"_id":3682965,"name":"El Tambo","country":"CO","coord":{"lon":-77.396782,"lat":1.41814}},{"_id":3682981,"name":"El Tablon","country":"CO","coord":{"lon":-77.096642,"lat":1.43188}},{"_id":3683149,"name":"El Rosario","country":"CO","coord":{"lon":-77.335197,"lat":1.74173}},{"_id":3683180,"name":"El Roble","country":"CO","coord":{"lon":-75.195084,"lat":9.10194}},{"_id":3683497,"name":"El Penon","country":"CO","coord":{"lon":-73.94857,"lat":8.98916}},{"_id":3683508,"name":"El Penol","country":"CO","coord":{"lon":-77.445442,"lat":1.45987}},{"_id":3683778,"name":"El Molino","country":"CO","coord":{"lon":-72.924049,"lat":10.65225}},{"_id":3684029,"name":"Elias","country":"CO","coord":{"lon":-75.939682,"lat":2.0117}},{"_id":3684115,"name":"El Guamo","country":"CO","coord":{"lon":-74.97612,"lat":10.03155}},{"_id":3684189,"name":"El Espino","country":"CO","coord":{"lon":-72.497177,"lat":6.48277}},{"_id":3684510,"name":"El Cocuy","country":"CO","coord":{"lon":-72.444641,"lat":6.40784}},{"_id":3684662,"name":"El Castillo","country":"CO","coord":{"lon":-73.794884,"lat":3.56363}},{"_id":3684683,"name":"El Carmen","country":"CO","coord":{"lon":-73.447762,"lat":8.51064}},{"_id":3684689,"name":"El Carmen","country":"CO","coord":{"lon":-73.511162,"lat":6.69736}},{"_id":3684692,"name":"El Carmen","country":"CO","coord":{"lon":-75.164169,"lat":5.88778}},{"_id":3684785,"name":"El Cairo","country":"CO","coord":{"lon":-76.22226,"lat":4.75909}},{"_id":3684860,"name":"El Bordo","country":"CO","coord":{"lon":-76.98214,"lat":2.11696}},{"_id":3685126,"name":"Don Matias","country":"CO","coord":{"lon":-75.394958,"lat":6.48568}},{"_id":3685223,"name":"Dibulla","country":"CO","coord":{"lon":-73.309113,"lat":11.27251}},{"_id":3685428,"name":"Cumbitara","country":"CO","coord":{"lon":-77.582253,"lat":1.65174}},{"_id":3685571,"name":"Cubara","country":"CO","coord":{"lon":-72.108521,"lat":7.00078}},{"_id":3685649,"name":"Cruces de Anori","country":"CO","coord":{"lon":-75.066673,"lat":7.18333}},{"_id":3685724,"name":"Cotorra","country":"CO","coord":{"lon":-75.789688,"lat":9.03886}},{"_id":3685733,"name":"Cota","country":"CO","coord":{"lon":-74.098,"lat":4.80938}},{"_id":3685794,"name":"Corrales","country":"CO","coord":{"lon":-72.843323,"lat":5.82968}},{"_id":3685840,"name":"Coromoro","country":"CO","coord":{"lon":-73.040222,"lat":6.29461}},{"_id":3685900,"name":"Cordoba","country":"CO","coord":{"lon":-75.689346,"lat":4.39318}},{"_id":3685903,"name":"Cordoba","country":"CO","coord":{"lon":-77.519501,"lat":0.85905}},{"_id":3685961,"name":"Contratacion","country":"CO","coord":{"lon":-73.473541,"lat":6.29005}},{"_id":3685974,"name":"Contadero","country":"CO","coord":{"lon":-77.547287,"lat":0.907}},{"_id":3686002,"name":"Condoto","country":"CO","coord":{"lon":-76.649727,"lat":5.09351}},{"_id":3686011,"name":"Concordia","country":"CO","coord":{"lon":-74.455482,"lat":9.83545}},{"_id":3686028,"name":"Concepcion","country":"CO","coord":{"lon":-75.258301,"lat":6.39408}},{"_id":3686065,"name":"Coloso","country":"CO","coord":{"lon":-75.36145,"lat":9.4915}},{"_id":3686120,"name":"Colombia","country":"CO","coord":{"lon":-74.801498,"lat":3.37606}},{"_id":3686196,"name":"Clemencia","country":"CO","coord":{"lon":-75.324989,"lat":10.56646}},{"_id":3686288,"name":"Cicuco","country":"CO","coord":{"lon":-74.656937,"lat":9.26306}},{"_id":3686460,"name":"Chitaga","country":"CO","coord":{"lon":-72.664558,"lat":7.13781}},{"_id":3686471,"name":"Chiscas","country":"CO","coord":{"lon":-72.499763,"lat":6.55236}},{"_id":3686605,"name":"Chima","country":"CO","coord":{"lon":-75.62841,"lat":9.14893}},{"_id":3686835,"name":"Chalan","country":"CO","coord":{"lon":-75.311279,"lat":9.54765}},{"_id":3686883,"name":"Certegui","country":"CO","coord":{"lon":-76.604401,"lat":5.37073}},{"_id":3686894,"name":"Cerro de San Antonio","country":"CO","coord":{"lon":-74.869331,"lat":10.32585}},{"_id":3686907,"name":"Cerrito","country":"CO","coord":{"lon":-72.694038,"lat":6.84315}},{"_id":3686918,"name":"Cerinza","country":"CO","coord":{"lon":-72.94783,"lat":5.95568}},{"_id":3687213,"name":"Casabianca","country":"CO","coord":{"lon":-75.12059,"lat":5.07959}},{"_id":3687231,"name":"Cartago","country":"CO","coord":{"lon":-77.117599,"lat":1.56305}},{"_id":3687310,"name":"Carolina","country":"CO","coord":{"lon":-75.281677,"lat":6.72439}},{"_id":3687335,"name":"Carlosama","country":"CO","coord":{"lon":-77.727341,"lat":0.86292}},{"_id":3687476,"name":"Caqueza","country":"CO","coord":{"lon":-73.946831,"lat":4.40569}},{"_id":3687490,"name":"Capitanejo","country":"CO","coord":{"lon":-72.695953,"lat":6.52881}},{"_id":3687505,"name":"Caparrapi","country":"CO","coord":{"lon":-74.49147,"lat":5.34644}},{"_id":3687541,"name":"Cantagallo","country":"CO","coord":{"lon":-73.919632000000007,"lat":7.37599}},{"_id":3687634,"name":"Candelaria","country":"CO","coord":{"lon":-74.8797,"lat":10.45912}},{"_id":3687677,"name":"Canasgordas","country":"CO","coord":{"lon":-76.025391,"lat":6.74989}},{"_id":3687933,"name":"Caldono","country":"CO","coord":{"lon":-76.483162,"lat":2.7974}},{"_id":3687972,"name":"Calamar","country":"CO","coord":{"lon":-74.914619,"lat":10.2511}},{"_id":3687975,"name":"Calamar","country":"CO","coord":{"lon":-72.653893,"lat":1.95972}},{"_id":3688009,"name":"Cajibio","country":"CO","coord":{"lon":-76.570389,"lat":2.62271}},{"_id":3688021,"name":"Cajamarca","country":"CO","coord":{"lon":-75.426781,"lat":4.44172}},{"_id":3688030,"name":"Caimito","country":"CO","coord":{"lon":-75.41066,"lat":8.81229}},{"_id":3688087,"name":"Cacota","country":"CO","coord":{"lon":-72.641968,"lat":7.26787}},{"_id":3688151,"name":"Cabuyaro","country":"CO","coord":{"lon":-72.793991,"lat":4.2817}},{"_id":3688170,"name":"Cabrera","country":"CO","coord":{"lon":-74.482826,"lat":3.98598}},{"_id":3688357,"name":"Buenos Aires","country":"CO","coord":{"lon":-76.642754,"lat":3.01503}},{"_id":3688396,"name":"Buenavista","country":"CO","coord":{"lon":-74.313629,"lat":9.21433}},{"_id":3688397,"name":"Buenavista","country":"CO","coord":{"lon":-76.0028,"lat":9.04963}},{"_id":3688433,"name":"Buenavista","country":"CO","coord":{"lon":-75.717819,"lat":4.3539}},{"_id":3688656,"name":"Bolivar","country":"CO","coord":{"lon":-73.77021,"lat":5.98943}},{"_id":3688659,"name":"Bolivar","country":"CO","coord":{"lon":-76.183418,"lat":4.3387}},{"_id":3688775,"name":"Boavita","country":"CO","coord":{"lon":-72.585052,"lat":6.33031}},{"_id":3688839,"name":"Betulia","country":"CO","coord":{"lon":-73.28347,"lat":6.90069}},{"_id":3688840,"name":"Betulia","country":"CO","coord":{"lon":-75.98378,"lat":6.11284}},{"_id":3688855,"name":"Betania","country":"CO","coord":{"lon":-75.977654,"lat":5.746}},{"_id":3688875,"name":"Arboleda","country":"CO","coord":{"lon":-77.135872,"lat":1.49766}},{"_id":3688923,"name":"Belmira","country":"CO","coord":{"lon":-75.666191,"lat":6.60508}},{"_id":3688991,"name":"Belen de los Andaquies","country":"CO","coord":{"lon":-75.877541,"lat":1.41828}},{"_id":3689003,"name":"Belen","country":"CO","coord":{"lon":-72.912537,"lat":5.98892}},{"_id":3689006,"name":"Belen","country":"CO","coord":{"lon":-77.013992,"lat":1.59787}},{"_id":3689026,"name":"Becerril","country":"CO","coord":{"lon":-73.279297,"lat":9.70413}},{"_id":3689157,"name":"Barranco de Loba","country":"CO","coord":{"lon":-74.106468,"lat":8.94597}},{"_id":3689167,"name":"Barranca de Upia","country":"CO","coord":{"lon":-72.966759,"lat":4.56963}},{"_id":3689228,"name":"Barbacoas","country":"CO","coord":{"lon":-78.139778,"lat":1.67154}},{"_id":3689232,"name":"Baraya","country":"CO","coord":{"lon":-75.053062,"lat":3.15333}},{"_id":3689291,"name":"Balboa","country":"CO","coord":{"lon":-75.957222,"lat":4.95167}},{"_id":3689292,"name":"Balboa","country":"CO","coord":{"lon":-77.216843,"lat":2.03956}},{"_id":3689336,"name":"Bagado","country":"CO","coord":{"lon":-76.415199,"lat":5.41164}},{"_id":3689507,"name":"Arroyohondo","country":"CO","coord":{"lon":-75.019798,"lat":10.2522}},{"_id":3689551,"name":"Guayabal","country":"CO","coord":{"lon":-74.886818,"lat":5.03103}},{"_id":3689559,"name":"Armenia","country":"CO","coord":{"lon":-75.787216,"lat":6.15639}},{"_id":3689611,"name":"Argelia","country":"CO","coord":{"lon":-75.14257,"lat":5.73127}},{"_id":3689613,"name":"Argelia","country":"CO","coord":{"lon":-76.119087,"lat":4.72342}},{"_id":3689615,"name":"Argelia","country":"CO","coord":{"lon":-77.248756,"lat":2.25563}},{"_id":3689653,"name":"Arenal","country":"CO","coord":{"lon":-73.943314,"lat":8.45928}},{"_id":3689689,"name":"Arcabuco","country":"CO","coord":{"lon":-73.436691,"lat":5.75463}},{"_id":3689693,"name":"Arboletes","country":"CO","coord":{"lon":-76.426941,"lat":8.85051}},{"_id":3689740,"name":"Aranzazu","country":"CO","coord":{"lon":-75.49044,"lat":5.27123}},{"_id":3689771,"name":"Aquitania","country":"CO","coord":{"lon":-72.887497,"lat":5.51972}},{"_id":3689793,"name":"Apia","country":"CO","coord":{"lon":-75.943176,"lat":5.10645}},{"_id":3689802,"name":"Anzoategui","country":"CO","coord":{"lon":-75.09539,"lat":4.62996}},{"_id":3689816,"name":"Antioquia","country":"CO","coord":{"lon":-75.828056,"lat":6.55687}},{"_id":3689841,"name":"Anolaima","country":"CO","coord":{"lon":-74.499496,"lat":4.83362}},{"_id":3689877,"name":"Angelopolis","country":"CO","coord":{"lon":-75.709229,"lat":6.11072}},{"_id":3689915,"name":"Ancuya","country":"CO","coord":{"lon":-77.515747,"lat":1.2703}},{"_id":3689979,"name":"Ambalema","country":"CO","coord":{"lon":-74.76268,"lat":4.78405}},{"_id":3690010,"name":"Amalfi","country":"CO","coord":{"lon":-75.077637,"lat":6.91016}},{"_id":3690030,"name":"Alvarado","country":"CO","coord":{"lon":-74.962288,"lat":4.56612}},{"_id":3690102,"name":"Altamira","country":"CO","coord":{"lon":-75.787216,"lat":2.06278}},{"_id":3690136,"name":"Almaguer","country":"CO","coord":{"lon":-76.852333,"lat":1.917}},{"_id":3690160,"name":"Algeciras","country":"CO","coord":{"lon":-75.314919,"lat":2.52295}},{"_id":3690172,"name":"Algarrobo","country":"CO","coord":{"lon":-74.575279,"lat":10.18694}},{"_id":3690226,"name":"Aldana","country":"CO","coord":{"lon":-77.701027,"lat":0.88283}},{"_id":3690237,"name":"Alcala","country":"CO","coord":{"lon":-75.782501,"lat":4.67472}},{"_id":3690250,"name":"Albania","country":"CO","coord":{"lon":-72.592377,"lat":11.16099}},{"_id":3690262,"name":"Albania","country":"CO","coord":{"lon":-75.878242,"lat":1.32866}},{"_id":3690264,"name":"Alban","country":"CO","coord":{"lon":-74.437683,"lat":4.87661}},{"_id":3690549,"name":"Achi","country":"CO","coord":{"lon":-74.554047,"lat":8.56818}},{"_id":3690552,"name":"Acevedo","country":"CO","coord":{"lon":-75.85498,"lat":1.83606}},{"_id":3690572,"name":"Acandi","country":"CO","coord":{"lon":-77.27784,"lat":8.50633}},{"_id":3690582,"name":"Abriaqui","country":"CO","coord":{"lon":-76.064438,"lat":6.63148}},{"_id":3690584,"name":"Abrego","country":"CO","coord":{"lon":-73.220543,"lat":8.08065}},{"_id":3732273,"name":"Los Santos","country":"CO","coord":{"lon":-73.093063,"lat":7.17}},{"_id":3732964,"name":"Lejanias","country":"CO","coord":{"lon":-74.021561,"lat":3.5251}},{"_id":3733434,"name":"El Dorado","country":"CO","coord":{"lon":-72.86834,"lat":2.77411}},{"_id":3733861,"name":"Curillo","country":"CO","coord":{"lon":-75.91906,"lat":1.03327}},{"_id":3735680,"name":"Santacruz","country":"CO","coord":{"lon":-77.262062,"lat":1.5209}},{"_id":3738301,"name":"El Tarra","country":"CO","coord":{"lon":-73.094887,"lat":8.57562}},{"_id":3763578,"name":"Mesetas","country":"CO","coord":{"lon":-74.044243,"lat":3.38464}},