{"countryCode":"CU","countryName":"Cuba","countryFilePath":"CU.json","countryCityList":[{"_id":3746183,"name":"Centro Habana","country":"CU","coord":{"lon":-82.364166,"lat":23.13833}},{"_id":3566062,"name":"Provincia de Camagüey","country":"CU","coord":{"lon":-77.849998,"lat":21.35}},{"_id":3566067,"name":"Camaguey","country":"CU","coord":{"lon":-77.916939,"lat":21.380831}},{"_id":3564175,"name":"Provincia de Ciego de Ávila","country":"CU","coord":{"lon":-78.599998,"lat":21.9}},{"_id":3564178,"name":"Ciego de Avila","country":"CU","coord":{"lon":-78.76194,"lat":21.84}},{"_id":3550595,"name":"Las Tunas","country":"CU","coord":{"lon":-76.900002,"lat":21.1}},{"_id":3550598,"name":"Las Tunas","country":"CU","coord":{"lon":-76.951111,"lat":20.96167}},{"_id":3556965,"name":"Provincia de Holguín","country":"CU","coord":{"lon":-75.75,"lat":20.799999}},{"_id":3556969,"name":"Holguin","country":"CU","coord":{"lon":-76.263062,"lat":20.88722}},{"_id":3558052,"name":"Provincia Granma","country":"CU","coord":{"lon":-77.0,"lat":20.25}},{"_id":3567597,"name":"Bayamo","country":"CU","coord":{"lon":-76.643333,"lat":20.379169}},{"_id":3536725,"name":"Provincia de Santiago de Cuba","country":"CU","coord":{"lon":-76.0,"lat":20.25}},{"_id":3536729,"name":"Santiago de Cuba","country":"CU","coord":{"lon":-75.821938,"lat":20.024719}},{"_id":3534168,"name":"Provincia de Villa Clara","country":"CU","coord":{"lon":-80.0,"lat":22.5}},{"_id":3537900,"name":"Santa Clara","country":"CU","coord":{"lon":-79.76667,"lat":22.16667}},{"_id":3558744,"name":"Fomento","country":"CU","coord":{"lon":-79.721672,"lat":22.103889}},{"_id":7668824,"name":"Provincia Artemisa","country":"CU","coord":{"lon":-82.756058,"lat":22.813999}},{"_id":3541999,"name":"Rodas","country":"CU","coord":{"lon":-80.55722,"lat":22.34083}},{"_id":3556077,"name":"Jobabo","country":"CU","coord":{"lon":-76.299438,"lat":20.96917}},{"_id":3557801,"name":"Guanajay","country":"CU","coord":{"lon":-82.6875,"lat":22.92639}},{"_id":3558315,"name":"Gibara","country":"CU","coord":{"lon":-76.131668,"lat":21.10972}},{"_id":3746938,"name":"Baguanos","country":"CU","coord":{"lon":-76.026939,"lat":20.751671}},{"_id":3564073,"name":"Provincia de La Habana","country":"CU","coord":{"lon":-82.300003,"lat":23.08333}},{"_id":3553478,"name":"Havana","country":"CU","coord":{"lon":-82.383041,"lat":23.13302}},{"_id":3547394,"name":"Provincia de Matanzas","country":"CU","coord":{"lon":-81.166672,"lat":22.66667}},{"_id":3547398,"name":"Matanzas","country":"CU","coord":{"lon":-81.577499,"lat":23.041109}},{"_id":3544091,"name":"Pinar del Rio","country":"CU","coord":{"lon":-83.698059,"lat":22.4175}},{"_id":3540665,"name":"Provincia de Sancti Spíritus","country":"CU","coord":{"lon":-79.25,"lat":22.0}},{"_id":3540667,"name":"Sancti Spiritus","country":"CU","coord":{"lon":-79.442497,"lat":21.92972}},{"_id":3564124,"name":"Cienfuegos","country":"CU","coord":{"lon":-80.435562,"lat":22.146111}},{"_id":3533826,"name":"Yaguajay","country":"CU","coord":{"lon":-79.237778,"lat":22.327221}},{"_id":3539093,"name":"San Luis","country":"CU","coord":{"lon":-75.85083,"lat":20.1875}},{"_id":3557758,"name":"Guane","country":"CU","coord":{"lon":-84.087502,"lat":22.202499}},{"_id":3566356,"name":"Caibarien","country":"CU","coord":{"lon":-79.466942,"lat":22.520559}},{"_id":3542759,"name":"Rancho Pekita","country":"CU","coord":{"lon":-82.26667,"lat":23.15}},{"_id":3562981,"name":"Republic of Cuba","country":"CU","coord":{"lon":-79.5,"lat":22.0}},{"_id":3544088,"name":"Provincia de Pinar del Río","country":"CU","coord":{"lon":-83.833328,"lat":22.41667}},{"_id":3547258,"name":"Media Luna","country":"CU","coord":{"lon":-83.383331,"lat":22.26667}},{"_id":3564120,"name":"Provincia de Cienfuegos","country":"CU","coord":{"lon":-80.5,"lat":22.299999}},{"_id":3539201,"name":"San Lino","country":"CU","coord":{"lon":-80.550003,"lat":22.4}},{"_id":3537511,"name":"Santa Juana","country":"CU","coord":{"lon":-83.583328,"lat":22.4}},{"_id":3542351,"name":"Residencial Porta","country":"CU","coord":{"lon":-82.349998,"lat":23.01667}},{"_id":3566714,"name":"Buenavista","country":"CU","coord":{"lon":-82.400002,"lat":22.98333}},{"_id":3569185,"name":"Almanza","country":"CU","coord":{"lon":-81.416672,"lat":23.066669}},{"_id":3534452,"name":"Venegas","country":"CU","coord":{"lon":-79.98333,"lat":21.783331}},{"_id":3539232,"name":"San Julián","country":"CU","coord":{"lon":-84.150002,"lat":22.1}},{"_id":3550852,"name":"Las Minas","country":"CU","coord":{"lon":-79.925003,"lat":22.47917}},{"_id":3556608,"name":"Municipio Especial Isla de la Juventud","country":"CU","coord":{"lon":-82.481941,"lat":21.83333}},{"_id":3534002,"name":"Vista del Río","country":"CU","coord":{"lon":-82.816673,"lat":21.85}},{"_id":3562914,"name":"Cuentas Claras","country":"CU","coord":{"lon":-77.083328,"lat":20.299999}},{"_id":3746599,"name":"Rolo Monterrey","country":"CU","coord":{"lon":-74.921669,"lat":20.647779}},{"_id":3549480,"name":"Los Ángeles","country":"CU","coord":{"lon":-76.340828,"lat":20.78694}},{"_id":3552838,"name":"La Luisa","country":"CU","coord":{"lon":-82.416672,"lat":22.98333}},{"_id":3557685,"name":"Provincia de Guantánamo","country":"CU","coord":{"lon":-74.75,"lat":20.25}},{"_id":3543939,"name":"Platanal","country":"CU","coord":{"lon":-75.147499,"lat":20.084999}},{"_id":3766955,"name":"Playa de Aguadores","country":"CU","coord":{"lon":-75.832222,"lat":19.96806}},{"_id":3754913,"name":"El Próximo","country":"CU","coord":{"lon":-77.854721,"lat":21.42333}},{"_id":3535431,"name":"Tejar la Palma","country":"CU","coord":{"lon":-80.416672,"lat":22.133329}},{"_id":3539662,"name":"San José","country":"CU","coord":{"lon":-78.800003,"lat":22.01667}},{"_id":3545365,"name":"Padrón","country":"CU","coord":{"lon":-76.599998,"lat":20.4}},{"_id":3552028,"name":"La Playa","country":"CU","coord":{"lon":-74.504723,"lat":20.346939}},{"_id":3536192,"name":"Siguanea","country":"CU","coord":{"lon":-82.959717,"lat":21.63139}},{"_id":3533753,"name":"Yara","country":"CU","coord":{"lon":-76.953331,"lat":20.27528}},{"_id":3534094,"name":"Vinales","country":"CU","coord":{"lon":-83.707779,"lat":22.61639}},{"_id":3534363,"name":"Vertientes","country":"CU","coord":{"lon":-78.146393,"lat":21.259439}},{"_id":3534432,"name":"Venezuela","country":"CU","coord":{"lon":-78.796387,"lat":21.735279}},{"_id":3534632,"name":"Varadero","country":"CU","coord":{"lon":-81.251389,"lat":23.15361}},{"_id":3534761,"name":"Union de Reyes","country":"CU","coord":{"lon":-81.537498,"lat":22.79528}},{"_id":3534915,"name":"Trinidad","country":"CU","coord":{"lon":-79.984169,"lat":21.801941}},{"_id":3536259,"name":"Sibanicu","country":"CU","coord":{"lon":-77.52639,"lat":21.235001}},{"_id":3536640,"name":"Santo Domingo","country":"CU","coord":{"lon":-80.243607,"lat":22.58667}},{"_id":3536724,"name":"Santiago de las Vegas","country":"CU","coord":{"lon":-82.38694,"lat":22.969999}},{"_id":3537840,"name":"Santa Cruz del Sur","country":"CU","coord":{"lon":-77.99556,"lat":20.71472}},{"_id":7668827,"name":"Provincia Mayabeque","country":"CU","coord":{"lon":-82.147179,"lat":22.96155}},{"_id":3537845,"name":"Santa Cruz del Norte","country":"CU","coord":{"lon":-81.923607,"lat":23.153891}},{"_id":3537906,"name":"Santa Clara","country":"CU","coord":{"lon":-79.966667,"lat":22.4}},{"_id":3539560,"name":"San Jose de las Lajas","country":"CU","coord":{"lon":-82.151108,"lat":22.96139}},{"_id":3540680,"name":"San Cristobal","country":"CU","coord":{"lon":-83.048058,"lat":22.71417}},{"_id":3540885,"name":"San Antonio de los Banos","country":"CU","coord":{"lon":-82.499168,"lat":22.891109}},{"_id":3541440,"name":"Sagua la Grande","country":"CU","coord":{"lon":-80.075562,"lat":22.806669}},{"_id":3541446,"name":"Sagua de Tanamo","country":"CU","coord":{"lon":-75.241386,"lat":20.58194}},{"_id":3542137,"name":"Rio Guayabal de Yateras","country":"CU","coord":{"lon":-75.01667,"lat":20.366671}},{"_id":3542167,"name":"Rio Cauto","country":"CU","coord":{"lon":-76.916107,"lat":20.56028}},{"_id":3542455,"name":"Remedios","country":"CU","coord":{"lon":-79.54583,"lat":22.49472}},{"_id":3542744,"name":"Ranchuelo","country":"CU","coord":{"lon":-80.148888,"lat":22.37722}},{"_id":3543299,"name":"Puerto Padre","country":"CU","coord":{"lon":-76.602783,"lat":21.195}},{"_id":3543498,"name":"Primero de Enero","country":"CU","coord":{"lon":-78.428329,"lat":21.946939}},{"_id":3543961,"name":"Placetas","country":"CU","coord":{"lon":-79.653328,"lat":22.311939}},{"_id":3544393,"name":"Perico","country":"CU","coord":{"lon":-81.01889,"lat":22.769171}},{"_id":3544607,"name":"Pedro Betancourt","country":"CU","coord":{"lon":-81.290001,"lat":22.727221}},{"_id":3545040,"name":"Palmira","country":"CU","coord":{"lon":-80.390282,"lat":22.241671}},{"_id":3545064,"name":"Palma Soriano","country":"CU","coord":{"lon":-75.998894,"lat":20.21722}},{"_id":3545841,"name":"Nuevitas","country":"CU","coord":{"lon":-77.264442,"lat":21.54528}},{"_id":3545867,"name":"Nueva Gerona","country":"CU","coord":{"lon":-82.800003,"lat":21.883329}},{"_id":3545981,"name":"Niquero","country":"CU","coord":{"lon":-77.582779,"lat":20.04306}},{"_id":3546434,"name":"Moron","country":"CU","coord":{"lon":-78.627502,"lat":22.10944}},{"_id":3546791,"name":"Moa","country":"CU","coord":{"lon":-74.940277,"lat":20.65694}},{"_id":3546894,"name":"Minas","country":"CU","coord":{"lon":-77.616669,"lat":21.48333}},{"_id":3547260,"name":"Media Luna","country":"CU","coord":{"lon":-77.434998,"lat":20.141939}},{"_id":3547600,"name":"Mariel","country":"CU","coord":{"lon":-82.753609,"lat":22.987499}},{"_id":3547867,"name":"Manzanillo","country":"CU","coord":{"lon":-77.116669,"lat":20.34333}},{"_id":3547976,"name":"Manicaragua","country":"CU","coord":{"lon":-79.97361,"lat":22.149441}},{"_id":3548529,"name":"Madruga","country":"CU","coord":{"lon":-81.85611,"lat":22.91139}},{"_id":3548993,"name":"Los Palacios","country":"CU","coord":{"lon":-83.248611,"lat":22.587219}},{"_id":3551608,"name":"La Salud","country":"CU","coord":{"lon":-82.423889,"lat":22.871389}},{"_id":3555907,"name":"Jovellanos","country":"CU","coord":{"lon":-81.194443,"lat":22.80444}},{"_id":3556168,"name":"Jiguani","country":"CU","coord":{"lon":-76.427223,"lat":20.366671}},{"_id":3556334,"name":"Jatibonico","country":"CU","coord":{"lon":-79.169998,"lat":21.94194}},{"_id":3556351,"name":"Jaruco","country":"CU","coord":{"lon":-82.010834,"lat":23.04306}},{"_id":3556437,"name":"Jaguey Grande","country":"CU","coord":{"lon":-81.128609,"lat":22.526939}},{"_id":3557332,"name":"Guisa","country":"CU","coord":{"lon":-76.538612,"lat":20.254999}},{"_id":3557347,"name":"Guira de Melena","country":"CU","coord":{"lon":-82.50528,"lat":22.79056}},{"_id":3557378,"name":"Gueines","country":"CU","coord":{"lon":-82.028061,"lat":22.836109}},{"_id":3557689,"name":"Guantanamo","country":"CU","coord":{"lon":-75.209167,"lat":20.14444}},{"_id":3557923,"name":"Guaimaro","country":"CU","coord":{"lon":-77.349998,"lat":21.049999}},{"_id":3558771,"name":"Florida","country":"CU","coord":{"lon":-78.22583,"lat":21.524719}},{"_id":3559318,"name":"Esmeralda","country":"CU","coord":{"lon":-78.116943,"lat":21.852501}},{"_id":3559416,"name":"Encrucijada","country":"CU","coord":{"lon":-79.871109,"lat":22.61694}},{"_id":3562827,"name":"Cumanayagua","country":"CU","coord":{"lon":-80.202217,"lat":22.149441}},{"_id":3562895,"name":"Cueto","country":"CU","coord":{"lon":-75.935562,"lat":20.64389}},{"_id":3563145,"name":"Cruces","country":"CU","coord":{"lon":-80.26667,"lat":22.34111}},{"_id":3563317,"name":"Corralillo","country":"CU","coord":{"lon":-80.585564,"lat":22.981939}},{"_id":3563504,"name":"Contramaestre","country":"CU","coord":{"lon":-76.241386,"lat":20.297779}},{"_id":3563559,"name":"Consolacion del Sur","country":"CU","coord":{"lon":-83.513611,"lat":22.504721}},{"_id":3563609,"name":"Condado","country":"CU","coord":{"lon":-79.840279,"lat":21.876671}},{"_id":3563843,"name":"Colon","country":"CU","coord":{"lon":-80.90583,"lat":22.71917}},{"_id":3563856,"name":"Colombia","country":"CU","coord":{"lon":-77.429718,"lat":20.98806}},{"_id":3564114,"name":"Cifuentes","country":"CU","coord":{"lon":-80.046112,"lat":22.645}},{"_id":3564394,"name":"Chambas","country":"CU","coord":{"lon":-78.913612,"lat":22.19278}},{"_id":3565432,"name":"Cardenas","country":"CU","coord":{"lon":-81.20472,"lat":23.0375}},{"_id":3565951,"name":"Campechuela","country":"CU","coord":{"lon":-77.278893,"lat":20.234171}},{"_id":3566054,"name":"Camajuani","country":"CU","coord":{"lon":-79.75,"lat":22.48333}},{"_id":3566134,"name":"Calimete","country":"CU","coord":{"lon":-80.906113,"lat":22.533331}},{"_id":3566603,"name":"Cabaiguan","country":"CU","coord":{"lon":-79.499168,"lat":22.07889}},{"_id":3567546,"name":"Bejucal","country":"CU","coord":{"lon":-82.388611,"lat":22.92861}},{"_id":3567612,"name":"Bauta","country":"CU","coord":{"lon":-82.546387,"lat":22.98278}},{"_id":3567823,"name":"Baragua","country":"CU","coord":{"lon":-78.632782,"lat":21.696671}},{"_id":3567834,"name":"Baracoa","country":"CU","coord":{"lon":-74.495827,"lat":20.34667}},{"_id":3567869,"name":"Banes","country":"CU","coord":{"lon":-75.718613,"lat":20.9625}},{"_id":3567995,"name":"Bahia Honda","country":"CU","coord":{"lon":-83.159172,"lat":22.90361}},{"_id":3568312,"name":"Artemisa","country":"CU","coord":{"lon":-82.76194,"lat":22.813061}},{"_id":3569136,"name":"Alquizar","country":"CU","coord":{"lon":-82.584167,"lat":22.80583}},{"_id":3569370,"name":"Alamar","country":"CU","coord":{"lon":-82.276939,"lat":23.158331}},{"_id":3569546,"name":"Aguada de Pasajeros","country":"CU","coord":{"lon":-80.85083,"lat":22.385}},{"_id":3569741,"name":"Abreus","country":"CU","coord":{"lon":-80.567497,"lat":22.2775}},{"_id":3533556,"name":"Zaza del Medio","country":"CU","coord":{"lon":-79.366943,"lat":21.996111}},{"_id":3538758,"name":"San Nicolas","country":"CU","coord":{"lon":-81.91333,"lat":22.784439}},{"_id":3539092,"name":"San Luis","country":"CU","coord":{"lon":-83.761108,"lat":22.27861}},{"_id":3540618,"name":"San Diego de los Banos","country":"CU","coord":{"lon":-83.36972,"lat":22.646669}},{"_id":3542753,"name":"Rancho Veloz","country":"CU","coord":{"lon":-80.39167,"lat":22.88056}},{"_id":3542965,"name":"Quivican","country":"CU","coord":{"lon":-82.355003,"lat":22.823059}},{"_id":3543077,"name":"Quemado de Guines","country":"CU","coord":{"lon":-80.253609,"lat":22.78528}},{"_id":3547181,"name":"Melena del Sur","country":"CU","coord":{"lon":-82.151382,"lat":22.78813}},{"_id":3547519,"name":"Marti","country":"CU","coord":{"lon":-80.92028,"lat":22.9475}},{"_id":3547930,"name":"Mantua","country":"CU","coord":{"lon":-84.284439,"lat":22.288891}},{"_id":3548000,"name":"Manguito","country":"CU","coord":{"lon":-80.914436,"lat":22.58806}},{"_id":3548099,"name":"Manati","country":"CU","coord":{"lon":-76.937782,"lat":21.3125}},{"_id":3549463,"name":"Los Arabos","country":"CU","coord":{"lon":-80.72139,"lat":22.72806}},{"_id":3556406,"name":"Jamaica","country":"CU","coord":{"lon":-82.17028,"lat":22.97917}},{"_id":3547180,"name":"Municipio de Melena del Sur","country":"CU","coord":{"lon":-82.151131,"lat":22.78821}},{"_id":3557678,"name":"Guara","country":"CU","coord":{"lon":-82.203056,"lat":22.809999}},{"_id":3558032,"name":"Manalich","country":"CU","coord":{"lon":-82.147476,"lat":22.811119}},{"_id":3559235,"name":"Esperanza","country":"CU","coord":{"lon":-80.099998,"lat":22.450001}},{"_id":3561408,"name":"El Cobre","country":"CU","coord":{"lon":-75.946938,"lat":20.048889}},{"_id":3561667,"name":"El Caney","country":"CU","coord":{"lon":-78.48333,"lat":21.299999}},{"_id":3565768,"name":"Candelaria","country":"CU","coord":{"lon":-82.961113,"lat":22.740561}},{"_id":3566235,"name":"Calabazar de Sagua","country":"CU","coord":{"lon":-79.896111,"lat":22.64472}},{"_id":3566573,"name":"Cabanas","country":"CU","coord":{"lon":-82.921944,"lat":22.97583}},{"_id":3567082,"name":"Bolondron","country":"CU","coord":{"lon":-81.446938,"lat":22.76333}},{"_id":3567655,"name":"Batabano","country":"CU","coord":{"lon":-82.288063,"lat":22.716391}},{"_id":3569379,"name":"Alacranes","country":"CU","coord":{"lon":-81.567497,"lat":22.7675}}]}
