{"countryCode":"FI","countryName":"Finland","countryFilePath":"FI.json","countryCityList":[{"_id":658226,"name":"Helsinki","country":"FI","coord":{"lon":24.93417,"lat":60.17556}},{"_id":6691859,"name":"Teekkarikylae","country":"FI","coord":{"lon":24.83502,"lat":60.18959}},{"_id":650861,"name":"Kouvola","country":"FI","coord":{"lon":26.700001,"lat":60.866669}},{"_id":830699,"name":"Etelä-Karjala","country":"FI","coord":{"lon":28.0,"lat":60.833328}},{"_id":6692025,"name":"Halssilanrinne","country":"FI","coord":{"lon":25.80611,"lat":62.245831}},{"_id":654121,"name":"Karhunkylä","country":"FI","coord":{"lon":24.200001,"lat":62.299999}},{"_id":631566,"name":"Viitasaari","country":"FI","coord":{"lon":25.83333,"lat":63.083328}},{"_id":657093,"name":"Huopanankoski","country":"FI","coord":{"lon":25.533331,"lat":63.066669}},{"_id":634964,"name":"Tampere","country":"FI","coord":{"lon":23.75,"lat":61.5}},{"_id":847515,"name":"Kurkimäki","country":"FI","coord":{"lon":25.06745,"lat":60.23325}},{"_id":648901,"name":"Lappeenranta","country":"FI","coord":{"lon":28.16667,"lat":61.049999}},{"_id":631273,"name":"Voistia","country":"FI","coord":{"lon":25.33333,"lat":60.950001}},{"_id":830705,"name":"Tavastland","country":"FI","coord":{"lon":24.25,"lat":60.833328}},{"_id":630737,"name":"Ypäjä","country":"FI","coord":{"lon":23.25,"lat":60.833328}},{"_id":646756,"name":"Manninen","country":"FI","coord":{"lon":23.216669,"lat":60.799999}},{"_id":830686,"name":"Norra Karelen","country":"FI","coord":{"lon":30.0,"lat":63.0}},{"_id":639200,"name":"Ristisaari","country":"FI","coord":{"lon":29.816669,"lat":62.683331}},{"_id":637220,"name":"Seinäjoki","country":"FI","coord":{"lon":22.816669,"lat":62.783329}},{"_id":644790,"name":"Niemistö","country":"FI","coord":{"lon":22.799999,"lat":62.799999}},{"_id":634829,"name":"Tattula","country":"FI","coord":{"lon":23.25,"lat":60.466671}},{"_id":650167,"name":"Kuortane","country":"FI","coord":{"lon":23.58333,"lat":62.75}},{"_id":645444,"name":"Mustola","country":"FI","coord":{"lon":28.31743,"lat":61.06551}},{"_id":661226,"name":"Amuri","country":"FI","coord":{"lon":23.74317,"lat":61.500179}},{"_id":653281,"name":"Kemi","country":"FI","coord":{"lon":24.563709,"lat":65.736412}},{"_id":630821,"name":"Yli-Raumo","country":"FI","coord":{"lon":24.216669,"lat":65.849998}},{"_id":660562,"name":"Porvoo","country":"FI","coord":{"lon":25.66667,"lat":60.400002}},{"_id":633739,"name":"Tuorila","country":"FI","coord":{"lon":25.58333,"lat":60.450001}},{"_id":633592,"name":"Tuusula","country":"FI","coord":{"lon":25.0,"lat":60.416672}},{"_id":645161,"name":"Nahkela","country":"FI","coord":{"lon":24.950001,"lat":60.400002}},{"_id":660951,"name":"Asikkala","country":"FI","coord":{"lon":25.58333,"lat":61.25}},{"_id":660949,"name":"Asikkala","country":"FI","coord":{"lon":25.5,"lat":61.216671}},{"_id":630752,"name":"Ylojarvi","country":"FI","coord":{"lon":23.59606,"lat":61.55632}},{"_id":631708,"name":"Vihti","country":"FI","coord":{"lon":24.33333,"lat":60.416672}},{"_id":648056,"name":"Lieto","country":"FI","coord":{"lon":22.46176,"lat":60.510319}},{"_id":649919,"name":"Kuusankoski","country":"FI","coord":{"lon":26.633329,"lat":60.900002}},{"_id":651299,"name":"Korsholm","country":"FI","coord":{"lon":21.682159,"lat":63.114182}},{"_id":656073,"name":"Janakkala","country":"FI","coord":{"lon":24.6,"lat":60.900002}},{"_id":658629,"name":"Haukipudas","country":"FI","coord":{"lon":25.352329,"lat":65.176537}},{"_id":660129,"name":"Espoo","country":"FI","coord":{"lon":24.66667,"lat":60.25}},{"_id":634000,"name":"Järvenperä","country":"FI","coord":{"lon":24.71357,"lat":60.241692}},{"_id":631282,"name":"Voikka","country":"FI","coord":{"lon":26.616671,"lat":60.933331}},{"_id":646212,"name":"Meltola","country":"FI","coord":{"lon":28.757311,"lat":61.155602}},{"_id":659233,"name":"Halssila","country":"FI","coord":{"lon":25.792471,"lat":62.243271}},{"_id":632056,"name":"Vehmainen","country":"FI","coord":{"lon":23.91827,"lat":61.476742}},{"_id":646235,"name":"Melkkola","country":"FI","coord":{"lon":28.133329,"lat":60.933331}},{"_id":641128,"name":"Pojanluoma","country":"FI","coord":{"lon":22.73333,"lat":62.683331}},{"_id":655131,"name":"Kaarina","country":"FI","coord":{"lon":22.41667,"lat":60.416672}},{"_id":841978,"name":"Moskalanmäki","country":"FI","coord":{"lon":22.49361,"lat":60.43528}},{"_id":847436,"name":"Pihlajisto","country":"FI","coord":{"lon":24.9925,"lat":60.237499}},{"_id":640758,"name":"Pukinmäki","country":"FI","coord":{"lon":24.989,"lat":60.244801}},{"_id":450000,"name":"Piimäperä","country":"FI","coord":{"lon":25.4,"lat":65.099998}},{"_id":660083,"name":"Etu-Töölö","country":"FI","coord":{"lon":24.92515,"lat":60.172981}},{"_id":653282,"name":"Kemi","country":"FI","coord":{"lon":24.58333,"lat":65.75}},{"_id":632674,"name":"Valkeakoski","country":"FI","coord":{"lon":24.033331,"lat":61.26667}},{"_id":653708,"name":"Katajanokka","country":"FI","coord":{"lon":24.96917,"lat":60.166389}},{"_id":847519,"name":"Jakomäki","country":"FI","coord":{"lon":25.078011,"lat":60.259399}},{"_id":647662,"name":"Loppi","country":"FI","coord":{"lon":24.41667,"lat":60.666672}},{"_id":637946,"name":"Salo","country":"FI","coord":{"lon":24.183331,"lat":60.73333}},{"_id":632371,"name":"Varkaus","country":"FI","coord":{"lon":27.866671,"lat":62.333328}},{"_id":830153,"name":"Vantaa","country":"FI","coord":{"lon":25.16667,"lat":60.299999}},{"_id":633222,"name":"Uusikaupunki","country":"FI","coord":{"lon":21.41667,"lat":60.783329}},{"_id":636947,"name":"Siilinjarvi","country":"FI","coord":{"lon":27.66667,"lat":63.083328}},{"_id":637068,"name":"Sipoo","country":"FI","coord":{"lon":25.25,"lat":60.333328}},{"_id":640125,"name":"Raisio","country":"FI","coord":{"lon":22.16667,"lat":60.5}},{"_id":641491,"name":"Pirkkala","country":"FI","coord":{"lon":23.616671,"lat":61.450001}},{"_id":641489,"name":"Pirkkala","country":"FI","coord":{"lon":23.63228,"lat":61.46125}},{"_id":644175,"name":"Nurmijärvi","country":"FI","coord":{"lon":24.75,"lat":60.416672}},{"_id":646709,"name":"Mäntsälä","country":"FI","coord":{"lon":25.25,"lat":60.666672}},{"_id":647752,"name":"Lojo","country":"FI","coord":{"lon":24.066669,"lat":60.25}},{"_id":648057,"name":"Lieto","country":"FI","coord":{"lon":22.5,"lat":60.549999}},{"_id":648369,"name":"Lempäälä","country":"FI","coord":{"lon":23.75,"lat":61.333328}},{"_id":648739,"name":"Laukaa","country":"FI","coord":{"lon":26.0,"lat":62.416672}},{"_id":648738,"name":"Laukaa","country":"FI","coord":{"lon":25.951941,"lat":62.41407}},{"_id":650950,"name":"Kotka","country":"FI","coord":{"lon":26.91667,"lat":60.466671}},{"_id":651301,"name":"Mustasaari","country":"FI","coord":{"lon":21.66667,"lat":63.166672}},{"_id":654137,"name":"Karhula","country":"FI","coord":{"lon":26.950001,"lat":60.51667}},{"_id":654441,"name":"Kangasala","country":"FI","coord":{"lon":24.08333,"lat":61.5}},{"_id":654440,"name":"Kangasala","country":"FI","coord":{"lon":24.076019,"lat":61.463829}},{"_id":656074,"name":"Janakkala","country":"FI","coord":{"lon":24.66667,"lat":60.833328}},{"_id":656821,"name":"Iisalmi","country":"FI","coord":{"lon":27.200001,"lat":63.549999}},{"_id":657530,"name":"Hollola","country":"FI","coord":{"lon":25.433331,"lat":61.049999}},{"_id":659181,"name":"Hämeenlinna","country":"FI","coord":{"lon":24.450001,"lat":61.0}},{"_id":659936,"name":"Forssa","country":"FI","coord":{"lon":23.6,"lat":60.783329}},{"_id":661164,"name":"Anjala","country":"FI","coord":{"lon":26.83333,"lat":60.683331}},{"_id":7911309,"name":"Laensi-Turunmaa","country":"FI","coord":{"lon":22.3004,"lat":60.299721}},{"_id":630805,"name":"Ylistaro","country":"FI","coord":{"lon":22.51667,"lat":62.950001}},{"_id":630956,"name":"Yliharma","country":"FI","coord":{"lon":22.783331,"lat":63.150002}},{"_id":633297,"name":"Utajärvi","country":"FI","coord":{"lon":26.66667,"lat":64.75}},{"_id":635337,"name":"Sysmä","country":"FI","coord":{"lon":25.75,"lat":61.5}},{"_id":635698,"name":"Suomusjarvi","country":"FI","coord":{"lon":23.65,"lat":60.349998}},{"_id":636609,"name":"Siuntio","country":"FI","coord":{"lon":24.16667,"lat":60.166672}},{"_id":636804,"name":"Simo","country":"FI","coord":{"lon":25.25,"lat":65.75}},{"_id":637036,"name":"Sievi","country":"FI","coord":{"lon":24.66667,"lat":63.833328}},{"_id":637314,"name":"Savitaipale","country":"FI","coord":{"lon":27.58333,"lat":61.166672}},{"_id":638670,"name":"Rusko","country":"FI","coord":{"lon":22.216669,"lat":60.533329}},{"_id":639249,"name":"Ristiina","country":"FI","coord":{"lon":27.33333,"lat":61.5}},{"_id":640505,"name":"Puumala","country":"FI","coord":{"lon":28.25,"lat":61.583328}},{"_id":640895,"name":"Posio","country":"FI","coord":{"lon":28.0,"lat":66.166672}},{"_id":641863,"name":"Pielavesi","country":"FI","coord":{"lon":26.75,"lat":63.25}},{"_id":642140,"name":"Perho","country":"FI","coord":{"lon":24.5,"lat":63.25}},{"_id":642139,"name":"Perho","country":"FI","coord":{"lon":24.41667,"lat":63.216671}},{"_id":642368,"name":"Pello","country":"FI","coord":{"lon":24.41667,"lat":66.75}},{"_id":642658,"name":"Parkano","country":"FI","coord":{"lon":23.0,"lat":62.083328}},{"_id":644159,"name":"Nurmo","country":"FI","coord":{"lon":22.9,"lat":62.833328}},{"_id":644509,"name":"Nivala","country":"FI","coord":{"lon":25.0,"lat":63.916672}},{"_id":645386,"name":"Muurame","country":"FI","coord":{"lon":25.66667,"lat":62.133331}},{"_id":646179,"name":"Merimasku","country":"FI","coord":{"lon":21.866671,"lat":60.48333}},{"_id":646487,"name":"Masku","country":"FI","coord":{"lon":22.08333,"lat":60.533329}},{"_id":647261,"name":"Luvia","country":"FI","coord":{"lon":21.66667,"lat":61.383331}},{"_id":648388,"name":"Lemi","country":"FI","coord":{"lon":27.83333,"lat":61.083328}},{"_id":650806,"name":"Köyliö","country":"FI","coord":{"lon":22.4,"lat":61.166672}},{"_id":660080,"name":"Eura","country":"FI","coord":{"lon":22.08333,"lat":61.133331}},{"_id":652616,"name":"Kitee","country":"FI","coord":{"lon":30.08333,"lat":62.083328}},{"_id":652629,"name":"Kisko","country":"FI","coord":{"lon":23.48333,"lat":60.23333}},{"_id":653387,"name":"Keitele","country":"FI","coord":{"lon":26.366671,"lat":63.183331}},{"_id":653627,"name":"Kauhajoki","country":"FI","coord":{"lon":22.183331,"lat":62.433331}},{"_id":654838,"name":"Kalajoki","country":"FI","coord":{"lon":24.0,"lat":64.25}},{"_id":655581,"name":"Joutsa","country":"FI","coord":{"lon":26.116671,"lat":61.73333}},{"_id":656653,"name":"Ingå","country":"FI","coord":{"lon":24.0,"lat":60.083328}},{"_id":656808,"name":"Iitti","country":"FI","coord":{"lon":26.41667,"lat":60.916672}},{"_id":658582,"name":"Hausjärvi","country":"FI","coord":{"lon":25.0,"lat":60.75}},{"_id":658759,"name":"Hartola","country":"FI","coord":{"lon":26.08333,"lat":61.583328}},{"_id":659232,"name":"Halsua","country":"FI","coord":{"lon":24.25,"lat":63.416672}},{"_id":659701,"name":"Haapajärvi","country":"FI","coord":{"lon":25.33333,"lat":63.75}},{"_id":660874,"name":"Aura","country":"FI","coord":{"lon":22.58333,"lat":60.616669}},{"_id":660932,"name":"Askola","country":"FI","coord":{"lon":25.66667,"lat":60.533329}},{"_id":661897,"name":"Ähtäri","country":"FI","coord":{"lon":24.25,"lat":62.583328}},{"_id":846663,"name":"Loimaan Kunta","country":"FI","coord":{"lon":22.985121,"lat":60.872829}},{"_id":630953,"name":"Yli-Ii","country":"FI","coord":{"lon":25.91667,"lat":65.416672}},{"_id":633413,"name":"Ullava","country":"FI","coord":{"lon":24.08333,"lat":63.599998}},{"_id":635848,"name":"Sulkava","country":"FI","coord":{"lon":28.5,"lat":61.75}},{"_id":636803,"name":"Simo","country":"FI","coord":{"lon":24.066669,"lat":65.666672}},{"_id":637462,"name":"Saukkola","country":"FI","coord":{"lon":23.98333,"lat":60.383331}},{"_id":640828,"name":"Poytya","country":"FI","coord":{"lon":22.66667,"lat":60.76667}},{"_id":642078,"name":"Pertunmaa","country":"FI","coord":{"lon":26.5,"lat":61.5}},{"_id":644188,"name":"Nurmes","country":"FI","coord":{"lon":29.116671,"lat":63.549999}},{"_id":649121,"name":"Langelmaki","country":"FI","coord":{"lon":22.1,"lat":61.650002}},{"_id":650706,"name":"Kuhmo","country":"FI","coord":{"lon":29.75,"lat":64.25}},{"_id":650705,"name":"Kuhmo","country":"FI","coord":{"lon":29.51667,"lat":64.133331}},{"_id":651077,"name":"Koski","country":"FI","coord":{"lon":23.15,"lat":60.650002}},{"_id":652561,"name":"Kiuruvesi","country":"FI","coord":{"lon":26.58333,"lat":63.75}},{"_id":652559,"name":"Kiuruvesi","country":"FI","coord":{"lon":26.616671,"lat":63.650002}},{"_id":653389,"name":"Keitele","country":"FI","coord":{"lon":26.33333,"lat":63.166672}},{"_id":653812,"name":"Karvia","country":"FI","coord":{"lon":22.65,"lat":62.200001}},{"_id":653952,"name":"Karkola","country":"FI","coord":{"lon":23.950001,"lat":60.616669}},{"_id":655627,"name":"Joroinen","country":"FI","coord":{"lon":27.83333,"lat":62.166672}},{"_id":656220,"name":"Ivalo","country":"FI","coord":{"lon":27.53891,"lat":68.659859}},{"_id":659185,"name":"Hämeenkyrö","country":"FI","coord":{"lon":23.25,"lat":61.583328}},{"_id":660229,"name":"Enontekioe","country":"FI","coord":{"lon":23.632151,"lat":68.385727}},{"_id":660873,"name":"Aura","country":"FI","coord":{"lon":22.566669,"lat":60.599998}},{"_id":661411,"name":"Alastaro","country":"FI","coord":{"lon":22.91667,"lat":60.933331}},{"_id":846664,"name":"Aetsa","country":"FI","coord":{"lon":22.683331,"lat":61.283329}},{"_id":6295613,"name":"Kilo","country":"FI","coord":{"lon":24.781509,"lat":60.217461}},{"_id":7647230,"name":"Koukkuniemi","country":"FI","coord":{"lon":24.764469,"lat":60.153851}},{"_id":7779093,"name":"Ristinummi","country":"FI","coord":{"lon":21.722969,"lat":63.091919}},{"_id":7779094,"name":"Teeriniemi","country":"FI","coord":{"lon":21.685471,"lat":63.096432}},{"_id":7910855,"name":"Toijala","country":"FI","coord":{"lon":23.86565,"lat":61.169109}},{"_id":660013,"name":"Republic of Finland","country":"FI","coord":{"lon":26.0,"lat":64.0}},{"_id":828987,"name":"Province of Southern Finland","country":"FI","coord":{"lon":26.0,"lat":60.833328}},{"_id":830709,"name":"Nyland","country":"FI","coord":{"lon":24.5,"lat":60.25}},{"_id":644290,"name":"Nummi-Pusula","country":"FI","coord":{"lon":23.91667,"lat":60.416672}},{"_id":645878,"name":"Mommola","country":"FI","coord":{"lon":23.883329,"lat":60.400002}},{"_id":640553,"name":"Pusula","country":"FI","coord":{"lon":23.98333,"lat":60.466671}},{"_id":7646423,"name":"Matku","country":"FI","coord":{"lon":24.736151,"lat":60.5238}},{"_id":830703,"name":"Kymenlaakso","country":"FI","coord":{"lon":27.0,"lat":60.5}},{"_id":831040,"name":"Päijät-Häme","country":"FI","coord":{"lon":25.83333,"lat":61.25}},{"_id":649374,"name":"Lahti","country":"FI","coord":{"lon":25.65411,"lat":60.982769}},{"_id":661242,"name":"Ämmälä","country":"FI","coord":{"lon":25.700001,"lat":60.933331}},{"_id":644671,"name":"Nikkilä","country":"FI","coord":{"lon":25.683331,"lat":60.950001}},{"_id":656689,"name":"Imatra","country":"FI","coord":{"lon":28.83333,"lat":61.166672}},{"_id":6940573,"name":"Pohjois-Hervanta","country":"FI","coord":{"lon":23.847111,"lat":61.457722}},{"_id":828989,"name":"Province of Western Finland","country":"FI","coord":{"lon":24.0,"lat":62.0}},{"_id":830685,"name":"Mellersta Finland","country":"FI","coord":{"lon":25.5,"lat":62.5}},{"_id":655195,"name":"Jyväskylä","country":"FI","coord":{"lon":25.75,"lat":62.25}},{"_id":653356,"name":"Keljonkangas","country":"FI","coord":{"lon":25.714701,"lat":62.192581}},{"_id":652978,"name":"Keuruu","country":"FI","coord":{"lon":24.75,"lat":62.25}},{"_id":830682,"name":"Södra Österbotten","country":"FI","coord":{"lon":23.25,"lat":62.5}},{"_id":653628,"name":"Kauhajoki","country":"FI","coord":{"lon":22.25,"lat":62.333328}},{"_id":656781,"name":"Ikkeläjärvi","country":"FI","coord":{"lon":22.549999,"lat":62.400002}},{"_id":830676,"name":"Österbotten","country":"FI","coord":{"lon":22.0,"lat":63.0}},{"_id":642456,"name":"Pedersöre","country":"FI","coord":{"lon":22.75,"lat":63.583328}},{"_id":660735,"name":"Bennäs","country":"FI","coord":{"lon":22.799999,"lat":63.599998}},{"_id":656131,"name":"Jakobstad","country":"FI","coord":{"lon":22.700001,"lat":63.666672}},{"_id":638989,"name":"Rosenlund","country":"FI","coord":{"lon":22.716669,"lat":63.666672}},{"_id":830675,"name":"Mellersta Österbotten","country":"FI","coord":{"lon":24.0,"lat":63.5}},{"_id":651951,"name":"Karleby","country":"FI","coord":{"lon":23.08333,"lat":63.833328}},{"_id":796234,"name":"Kyrkbacken","country":"FI","coord":{"lon":23.133329,"lat":63.816669}},{"_id":648849,"name":"Larsmo","country":"FI","coord":{"lon":22.75,"lat":63.75}},{"_id":660630,"name":"Björnvik","country":"FI","coord":{"lon":22.799999,"lat":63.816669}},{"_id":643991,"name":"Öja","country":"FI","coord":{"lon":22.91667,"lat":63.833328}},{"_id":647741,"name":"Lohtaja","country":"FI","coord":{"lon":23.50482,"lat":64.024719}},{"_id":643485,"name":"Oulun Lääni","country":"FI","coord":{"lon":27.0,"lat":65.0}},{"_id":830664,"name":"Kainuu","country":"FI","coord":{"lon":28.0,"lat":64.5}},{"_id":656951,"name":"Hyrynsalmi","country":"FI","coord":{"lon":28.75,"lat":64.666672}},{"_id":656696,"name":"Ilvesjärvi","country":"FI","coord":{"lon":28.966669,"lat":64.550003}},{"_id":830667,"name":"Norra Österbotten","country":"FI","coord":{"lon":26.0,"lat":65.0}},{"_id":645767,"name":"Muhos","country":"FI","coord":{"lon":26.16667,"lat":64.75}},{"_id":7645664,"name":"Päivärinne","country":"FI","coord":{"lon":25.869881,"lat":64.884949}},{"_id":640808,"name":"Pudasjärvi","country":"FI","coord":{"lon":27.0,"lat":65.333328}},{"_id":641506,"name":"Piri","country":"FI","coord":{"lon":27.08333,"lat":65.333328}},{"_id":648958,"name":"Lapin Lääni","country":"FI","coord":{"lon":27.0,"lat":68.0}},{"_id":830603,"name":"Lappland","country":"FI","coord":{"lon":27.0,"lat":68.0}},{"_id":630780,"name":"Ylitornio","country":"FI","coord":{"lon":24.5,"lat":66.5}},{"_id":654253,"name":"Kantomaanpää","country":"FI","coord":{"lon":24.066669,"lat":66.416672}},{"_id":652594,"name":"Kittilä","country":"FI","coord":{"lon":25.0,"lat":67.75}},{"_id":661520,"name":"Alakylä","country":"FI","coord":{"lon":24.883329,"lat":67.349998}},{"_id":840810,"name":"Lommila","country":"FI","coord":{"lon":24.65959,"lat":60.21891}},{"_id":650859,"name":"Kouvola","country":"FI","coord":{"lon":26.700001,"lat":60.866669}},{"_id":830147,"name":"Hollola","country":"FI","coord":{"lon":25.383329,"lat":61.033329}},{"_id":656685,"name":"Imatrankoski","country":"FI","coord":{"lon":28.76787,"lat":61.169651}},{"_id":655194,"name":"Jyvaeskylae","country":"FI","coord":{"lon":25.73333,"lat":62.23333}},{"_id":656740,"name":"Ilmajoki","country":"FI","coord":{"lon":22.58333,"lat":62.75}},{"_id":632220,"name":"Bonäs","country":"FI","coord":{"lon":22.683331,"lat":63.666672}},{"_id":653939,"name":"Kaarlela","country":"FI","coord":{"lon":23.133329,"lat":63.833328}},{"_id":654901,"name":"Kajaani","country":"FI","coord":{"lon":27.66667,"lat":64.166672}},{"_id":661364,"name":"Alavieska","country":"FI","coord":{"lon":24.33333,"lat":64.166672}},{"_id":652590,"name":"Kittila","country":"FI","coord":{"lon":24.9,"lat":67.666672}},{"_id":649631,"name":"Kirkkonummi","country":"FI","coord":{"lon":24.41667,"lat":60.166672}},{"_id":840758,"name":"Österby","country":"FI","coord":{"lon":24.43528,"lat":60.177219}},{"_id":830704,"name":"Birkaland","country":"FI","coord":{"lon":23.716669,"lat":61.700001}},{"_id":652298,"name":"Klemetti","country":"FI","coord":{"lon":24.35,"lat":64.23333}},{"_id":658630,"name":"Haukipudas","country":"FI","coord":{"lon":25.5,"lat":65.166672}},{"_id":632084,"name":"Vehkaperä","country":"FI","coord":{"lon":25.283331,"lat":65.133331}},{"_id":830708,"name":"Varsinais-Suomi","country":"FI","coord":{"lon":22.25,"lat":60.5}},{"_id":8128758,"name":"Kimitoön","country":"FI","coord":{"lon":22.72711,"lat":60.16711}},{"_id":642466,"name":"Påvalsby","country":"FI","coord":{"lon":22.683331,"lat":60.133331}},{"_id":643493,"name":"Oulu","country":"FI","coord":{"lon":25.5,"lat":65.0}},{"_id":7645643,"name":"Jylkynkangas","country":"FI","coord":{"lon":25.524929,"lat":65.078033}},{"_id":646218,"name":"Mellunkylä","country":"FI","coord":{"lon":25.09947,"lat":60.233551}},{"_id":662096,"name":"Äänekoski","country":"FI","coord":{"lon":25.716669,"lat":62.583328}},{"_id":657396,"name":"Honkola","country":"FI","coord":{"lon":25.633329,"lat":62.566669}},{"_id":828988,"name":"Itä-Suomen Lääni","country":"FI","coord":{"lon":28.0,"lat":62.5}},{"_id":830695,"name":"Etelä-Savo","country":"FI","coord":{"lon":27.83333,"lat":61.75}},{"_id":655257,"name":"Juva","country":"FI","coord":{"lon":27.83333,"lat":61.916672}},{"_id":652996,"name":"Kettula","country":"FI","coord":{"lon":27.883329,"lat":61.866669}},{"_id":644451,"name":"Nokia","country":"FI","coord":{"lon":23.5,"lat":61.466671}},{"_id":650491,"name":"Kulju","country":"FI","coord":{"lon":23.33333,"lat":61.48333}},{"_id":7838775,"name":"Hieta","country":"FI","coord":{"lon":24.35557,"lat":61.644779}},{"_id":651660,"name":"Kontiolahti","country":"FI","coord":{"lon":29.91667,"lat":62.75}},{"_id":643154,"name":"Paimio","country":"FI","coord":{"lon":22.75,"lat":60.5}},{"_id":643153,"name":"Paimio","country":"FI","coord":{"lon":22.686939,"lat":60.456711}},{"_id":659684,"name":"Haapajärvi","country":"FI","coord":{"lon":24.450001,"lat":60.26667}},{"_id":646495,"name":"Masala","country":"FI","coord":{"lon":24.52895,"lat":60.15757}},{"_id":656914,"name":"Hyvinkää","country":"FI","coord":{"lon":24.83333,"lat":60.633331}},{"_id":662036,"name":"Ahdenkallio","country":"FI","coord":{"lon":24.88652,"lat":60.63995}},{"_id":638075,"name":"Salla","country":"FI","coord":{"lon":28.5,"lat":67.0}},{"_id":637683,"name":"Särkelä","country":"FI","coord":{"lon":28.966669,"lat":67.033333}},{"_id":637959,"name":"Salo","country":"FI","coord":{"lon":23.133329,"lat":60.383331}},{"_id":647931,"name":"Liminka","country":"FI","coord":{"lon":25.41667,"lat":64.75}},{"_id":843891,"name":"Haaransilta","country":"FI","coord":{"lon":25.48333,"lat":64.816673}},{"_id":843889,"name":"Jutkokylä","country":"FI","coord":{"lon":25.435579,"lat":64.804688}},{"_id":7645541,"name":"Sunila","country":"FI","coord":{"lon":25.552999,"lat":64.958076}},{"_id":650166,"name":"Kuortane","country":"FI","coord":{"lon":23.5,"lat":62.799999}},{"_id":653883,"name":"Kärsämäki","country":"FI","coord":{"lon":25.83333,"lat":64.0}},{"_id":653880,"name":"Karsamaki","country":"FI","coord":{"lon":25.76667,"lat":63.966671}},{"_id":659557,"name":"Haapavesi","country":"FI","coord":{"lon":25.41667,"lat":64.166672}},{"_id":648205,"name":"Leppioja","country":"FI","coord":{"lon":25.533331,"lat":64.166672}},{"_id":6931109,"name":"Tasanne","country":"FI","coord":{"lon":23.93037,"lat":61.51754}},{"_id":6930918,"name":"Atala","country":"FI","coord":{"lon":23.913031,"lat":61.501652}},{"_id":642675,"name":"Pargas","country":"FI","coord":{"lon":22.299999,"lat":60.299999}},{"_id":645165,"name":"Nagu","country":"FI","coord":{"lon":21.909719,"lat":60.193748}},{"_id":631760,"name":"Vihanti","country":"FI","coord":{"lon":25.08333,"lat":64.416672}},{"_id":631758,"name":"Vihanti","country":"FI","coord":{"lon":25.0,"lat":64.48333}},{"_id":658225,"name":"Helsinki","country":"FI","coord":{"lon":24.93545,"lat":60.169521}},{"_id":7647247,"name":"Vartiovuori","country":"FI","coord":{"lon":22.277611,"lat":60.446678}},{"_id":658292,"name":"Heinola","country":"FI","coord":{"lon":26.033331,"lat":61.200001}},{"_id":658288,"name":"Heinola","country":"FI","coord":{"lon":26.033331,"lat":61.216671}},{"_id":7732087,"name":"Kirjala","country":"FI","coord":{"lon":27.24704,"lat":61.682018}},{"_id":7645232,"name":"Kauriala","country":"FI","coord":{"lon":24.44179,"lat":60.996342}},{"_id":637293,"name":"Savonlinna","country":"FI","coord":{"lon":28.91667,"lat":61.866669}},{"_id":637292,"name":"Savonlinna","country":"FI","coord":{"lon":28.87999,"lat":61.8699}},{"_id":653186,"name":"Kerava","country":"FI","coord":{"lon":25.116671,"lat":60.383331}},{"_id":653185,"name":"Kerava","country":"FI","coord":{"lon":25.105,"lat":60.403381}},{"_id":831041,"name":"Satakunta","country":"FI","coord":{"lon":22.0,"lat":61.333328}},{"_id":641000,"name":"Pori","country":"FI","coord":{"lon":21.783331,"lat":61.48333}},{"_id":640999,"name":"Pori","country":"FI","coord":{"lon":21.783331,"lat":61.48333}},{"_id":639411,"name":"Riihimäki","country":"FI","coord":{"lon":24.76667,"lat":60.75}},{"_id":635779,"name":"Suojala","country":"FI","coord":{"lon":24.75,"lat":60.75}},{"_id":639840,"name":"Rasi","country":"FI","coord":{"lon":27.67864,"lat":64.230743}},{"_id":655823,"name":"Joensuu","country":"FI","coord":{"lon":29.75,"lat":62.583328}},{"_id":655808,"name":"Joensuu","country":"FI","coord":{"lon":29.763161,"lat":62.601181}},{"_id":656084,"name":"Jämsä","country":"FI","coord":{"lon":25.25,"lat":61.833328}},{"_id":656083,"name":"Jamsa","country":"FI","coord":{"lon":25.19002,"lat":61.864201}},{"_id":637219,"name":"Seinaejoki","country":"FI","coord":{"lon":22.83333,"lat":62.799999}},{"_id":830690,"name":"Savo","country":"FI","coord":{"lon":27.5,"lat":63.0}},{"_id":650225,"name":"Kuopio","country":"FI","coord":{"lon":27.66667,"lat":62.883331}},{"_id":7645026,"name":"Linnanpelto","country":"FI","coord":{"lon":27.69095,"lat":62.900539}},{"_id":645212,"name":"Naantali","country":"FI","coord":{"lon":22.033331,"lat":60.450001}},{"_id":650544,"name":"Kukkola","country":"FI","coord":{"lon":22.033331,"lat":60.450001}},{"_id":640277,"name":"Raahe","country":"FI","coord":{"lon":24.5,"lat":64.699997}},{"_id":640276,"name":"Raahe","country":"FI","coord":{"lon":24.48333,"lat":64.683327}},{"_id":648703,"name":"Laune","country":"FI","coord":{"lon":25.66667,"lat":60.966671}},{"_id":638937,"name":"Rovaniemi","country":"FI","coord":{"lon":25.700001,"lat":66.5}},{"_id":638936,"name":"Rovaniemi","country":"FI","coord":{"lon":25.716669,"lat":66.5}},{"_id":7644951,"name":"Kommila","country":"FI","coord":{"lon":27.90012,"lat":62.323151}},{"_id":655977,"name":"Järvenpää","country":"FI","coord":{"lon":25.08333,"lat":60.466671}},{"_id":847544,"name":"Kinnari","country":"FI","coord":{"lon":25.106159,"lat":60.46957}},{"_id":639735,"name":"Rauma","country":"FI","coord":{"lon":21.5,"lat":61.133331}},{"_id":639734,"name":"Rauma","country":"FI","coord":{"lon":21.511271,"lat":61.127239}},{"_id":637948,"name":"Salo","country":"FI","coord":{"lon":23.133329,"lat":60.383331}},{"_id":632672,"name":"Valkeakoski","country":"FI","coord":{"lon":24.031219,"lat":61.26421}},{"_id":634096,"name":"Tornio","country":"FI","coord":{"lon":24.133329,"lat":65.849998}},{"_id":635745,"name":"Suolahti","country":"FI","coord":{"lon":25.866671,"lat":62.566669}},{"_id":7733308,"name":"Korkeavaha","country":"FI","coord":{"lon":23.63537,"lat":60.821072}},{"_id":841906,"name":"Voivala","country":"FI","coord":{"lon":22.424999,"lat":60.41}},{"_id":659171,"name":"Hamina","country":"FI","coord":{"lon":27.16667,"lat":60.549999}},{"_id":659169,"name":"Hamina","country":"FI","coord":{"lon":27.197941,"lat":60.56974}},{"_id":630753,"name":"Ylöjärvi","country":"FI","coord":{"lon":23.58333,"lat":61.583328}},{"_id":636270,"name":"Soppeenmäki","country":"FI","coord":{"lon":23.59314,"lat":61.548061}},{"_id":642667,"name":"Parikkala","country":"FI","coord":{"lon":29.5,"lat":61.583328}},{"_id":642666,"name":"Parikkala","country":"FI","coord":{"lon":29.5,"lat":61.549999}},{"_id":830268,"name":"Pieksämäki","country":"FI","coord":{"lon":27.133329,"lat":62.26667}},{"_id":641869,"name":"Pieksamaki","country":"FI","coord":{"lon":27.133329,"lat":62.299999}},{"_id":649925,"name":"Kuusamo","country":"FI","coord":{"lon":29.25,"lat":66.0}},{"_id":649924,"name":"Kuusamo","country":"FI","coord":{"lon":29.183331,"lat":65.966667}},{"_id":645322,"name":"Myllykoski","country":"FI","coord":{"lon":26.799999,"lat":60.783329}},{"_id":648091,"name":"Lieksa","country":"FI","coord":{"lon":30.033331,"lat":63.316669}},{"_id":648090,"name":"Lieksa","country":"FI","coord":{"lon":30.01667,"lat":63.316669}},{"_id":650744,"name":"Kruununhaka","country":"FI","coord":{"lon":24.9566,"lat":60.171741}},{"_id":8128761,"name":"Mänttä-Vilppula","country":"FI","coord":{"lon":24.60268,"lat":62.029659}},{"_id":646705,"name":"Maenttae","country":"FI","coord":{"lon":24.627911,"lat":62.03014}},{"_id":654706,"name":"Kallio","country":"FI","coord":{"lon":24.95034,"lat":60.184269}},{"_id":7871104,"name":"Sorkkala","country":"FI","coord":{"lon":23.632111,"lat":61.427971}},{"_id":633680,"name":"Åbo","country":"FI","coord":{"lon":22.283331,"lat":60.433331}},{"_id":854890,"name":"Suitturi","country":"FI","coord":{"lon":22.23361,"lat":60.517502}},{"_id":7647293,"name":"Tiilimäki","country":"FI","coord":{"lon":21.778851,"lat":61.47543}},{"_id":630769,"name":"Ylivieska","country":"FI","coord":{"lon":24.66667,"lat":64.083328}},{"_id":640369,"name":"Pylväsjoki","country":"FI","coord":{"lon":24.716669,"lat":64.033333}},{"_id":7644992,"name":"Kanava","country":"FI","coord":{"lon":27.865879,"lat":62.184689}},{"_id":632979,"name":"Vasa","country":"FI","coord":{"lon":21.66667,"lat":63.083328}},{"_id":842846,"name":"Bockholmsbacken","country":"FI","coord":{"lon":21.75,"lat":63.049999}},{"_id":633259,"name":"Utti","country":"FI","coord":{"lon":26.924061,"lat":60.882191}},{"_id":7871102,"name":"Varuskunta","country":"FI","coord":{"lon":23.623779,"lat":61.406952}},{"_id":636465,"name":"Sodankylä","country":"FI","coord":{"lon":27.0,"lat":67.75}},{"_id":652665,"name":"Kirkonkylä","country":"FI","coord":{"lon":26.65,"lat":67.400002}},{"_id":639533,"name":"Renko","country":"FI","coord":{"lon":22.83333,"lat":62.700001}},{"_id":646900,"name":"Makkola","country":"FI","coord":{"lon":28.91667,"lat":61.966671}},{"_id":645296,"name":"Myllykylä","country":"FI","coord":{"lon":25.83333,"lat":66.533333}},{"_id":7647281,"name":"Uusi Koivisto","country":"FI","coord":{"lon":21.81344,"lat":61.472111}},{"_id":643483,"name":"Oulunsalo","country":"FI","coord":{"lon":25.33333,"lat":65.0}},{"_id":654107,"name":"Karhuoja","country":"FI","coord":{"lon":25.38563,"lat":64.955833}},{"_id":843920,"name":"Pellonpää","country":"FI","coord":{"lon":25.39327,"lat":64.938309}},{"_id":646006,"name":"Mikkeli","country":"FI","coord":{"lon":27.25,"lat":61.666672}},{"_id":639960,"name":"Rantakylä","country":"FI","coord":{"lon":27.20322,"lat":61.677212}},{"_id":7732294,"name":"Kourula","country":"FI","coord":{"lon":28.134359,"lat":61.04744}},{"_id":636948,"name":"Siilinjärvi","country":"FI","coord":{"lon":27.66667,"lat":63.083328}},{"_id":639258,"name":"Rissala","country":"FI","coord":{"lon":27.799999,"lat":63.0}},{"_id":638480,"name":"Saapunki","country":"FI","coord":{"lon":29.283331,"lat":66.0}},{"_id":650755,"name":"Kronoby","country":"FI","coord":{"lon":23.16667,"lat":63.666672}},{"_id":660437,"name":"Byskatan","country":"FI","coord":{"lon":23.116671,"lat":63.716671}},{"_id":635575,"name":"Sutelanperä","country":"FI","coord":{"lon":27.683331,"lat":64.300003}},{"_id":653257,"name":"Keminmaa","country":"FI","coord":{"lon":24.75,"lat":65.833328}},{"_id":631747,"name":"Viheriälä","country":"FI","coord":{"lon":24.6,"lat":65.800003}},{"_id":653617,"name":"Kauhava","country":"FI","coord":{"lon":23.16667,"lat":63.133331}},{"_id":653616,"name":"Kauhava","country":"FI","coord":{"lon":23.08333,"lat":63.099998}},{"_id":7646561,"name":"Nyppösenmutka","country":"FI","coord":{"lon":25.67127,"lat":62.411362}},{"_id":647852,"name":"Liperi","country":"FI","coord":{"lon":29.33333,"lat":62.583328}},{"_id":658828,"name":"Härkinvaara","country":"FI","coord":{"lon":29.566669,"lat":62.683331}},{"_id":656659,"name":"Inari","country":"FI","coord":{"lon":27.0,"lat":69.0}},{"_id":634116,"name":"Törmänen","country":"FI","coord":{"lon":27.48333,"lat":68.599998}},{"_id":7521690,"name":"Veromies","country":"FI","coord":{"lon":24.96343,"lat":60.29842}},{"_id":847510,"name":"Ylä-Malmi","country":"FI","coord":{"lon":25.00972,"lat":60.25806}},{"_id":634928,"name":"Tapanila","country":"FI","coord":{"lon":25.02611,"lat":60.260281}},{"_id":650182,"name":"Kuorevesi","country":"FI","coord":{"lon":24.783331,"lat":61.849998}},{"_id":660230,"name":"Enontekiö","country":"FI","coord":{"lon":23.0,"lat":68.5}},{"_id":645663,"name":"Muotkajärvi","country":"FI","coord":{"lon":23.366671,"lat":68.316673}},{"_id":631707,"name":"Vihti","country":"FI","coord":{"lon":24.319651,"lat":60.416988}},{"_id":632370,"name":"Varkaus","country":"FI","coord":{"lon":27.872999,"lat":62.315331}},{"_id":632453,"name":"Vantaa","country":"FI","coord":{"lon":25.040991000000002,"lat":60.29414}},{"_id":632978,"name":"Vaasa","country":"FI","coord":{"lon":21.61577,"lat":63.096001}},{"_id":633221,"name":"Uusikaupunki","country":"FI","coord":{"lon":21.408409,"lat":60.80043}},{"_id":633591,"name":"Tuusula","country":"FI","coord":{"lon":25.026381,"lat":60.403679}},{"_id":633679,"name":"Turku","country":"FI","coord":{"lon":22.26869,"lat":60.451481}},{"_id":634093,"name":"Tornio","country":"FI","coord":{"lon":24.14662,"lat":65.848106}},{"_id":634963,"name":"Tampere","country":"FI","coord":{"lon":23.787121,"lat":61.499111}},{"_id":637067,"name":"Sibbo","country":"FI","coord":{"lon":25.26906,"lat":60.377522}},{"_id":639406,"name":"Riihimaki","country":"FI","coord":{"lon":24.77726,"lat":60.73769}},{"_id":640124,"name":"Raisio","country":"FI","coord":{"lon":22.168949,"lat":60.48592}},{"_id":643492,"name":"Oulu","country":"FI","coord":{"lon":25.468161,"lat":65.01236}},{"_id":644171,"name":"Nurmijarvi","country":"FI","coord":{"lon":24.807301,"lat":60.464069}},{"_id":644450,"name":"Nokia","country":"FI","coord":{"lon":23.5,"lat":61.466671}},{"_id":646005,"name":"Mikkeli","country":"FI","coord":{"lon":27.27227,"lat":61.688568}},{"_id":646723,"name":"Mantsala","country":"FI","coord":{"lon":25.316669,"lat":60.633331}},{"_id":647751,"name":"Lohja","country":"FI","coord":{"lon":24.06534,"lat":60.248589}},{"_id":648366,"name":"Lempaala","country":"FI","coord":{"lon":23.75,"lat":61.316669}},{"_id":648900,"name":"Lappeenranta","country":"FI","coord":{"lon":28.188709,"lat":61.058708}},{"_id":649360,"name":"Lahti","country":"FI","coord":{"lon":25.66151,"lat":60.98267}},{"_id":649630,"name":"Kirkkonummi","country":"FI","coord":{"lon":24.43853,"lat":60.12381}},{"_id":650224,"name":"Kuopio","country":"FI","coord":{"lon":27.677031,"lat":62.89238}},{"_id":650946,"name":"Kotka","country":"FI","coord":{"lon":26.91667,"lat":60.466671}},{"_id":651943,"name":"Karleby","country":"FI","coord":{"lon":23.130659,"lat":63.83847}},{"_id":654899,"name":"Kajaani","country":"FI","coord":{"lon":27.72846,"lat":64.22728}},{"_id":655130,"name":"Kaarina","country":"FI","coord":{"lon":22.36904,"lat":60.407242}},{"_id":655958,"name":"Jarvenpaa","country":"FI","coord":{"lon":25.08992,"lat":60.47369}},{"_id":656130,"name":"Jakobstad","country":"FI","coord":{"lon":22.70256,"lat":63.674858}},{"_id":656688,"name":"Imatra","country":"FI","coord":{"lon":28.75242,"lat":61.171848}},{"_id":656820,"name":"Iisalmi","country":"FI","coord":{"lon":27.19067,"lat":63.559151}},{"_id":656913,"name":"Hyvinkaa","country":"FI","coord":{"lon":24.866671,"lat":60.633331}},{"_id":659180,"name":"Hameenlinna","country":"FI","coord":{"lon":24.46434,"lat":60.99596}},{"_id":659935,"name":"Forssa","country":"FI","coord":{"lon":23.62146,"lat":60.814621}},{"_id":660158,"name":"Espoo","country":"FI","coord":{"lon":24.652201,"lat":60.2052}},{"_id":660561,"name":"Porvoo","country":"FI","coord":{"lon":25.66507,"lat":60.39233}},{"_id":630736,"name":"Ypaejae","country":"FI","coord":{"lon":23.283331,"lat":60.799999}},{"_id":630768,"name":"Ylivieska","country":"FI","coord":{"lon":24.549999,"lat":64.083328}},{"_id":630779,"name":"Ylitornio","country":"FI","coord":{"lon":23.67734,"lat":66.308929}},{"_id":630918,"name":"Ylikiiminki","country":"FI","coord":{"lon":26.25,"lat":65.083328}},{"_id":630952,"name":"Yli-Ii","country":"FI","coord":{"lon":25.83333,"lat":65.366669}},{"_id":640829,"name":"Pöytyä","country":"FI","coord":{"lon":22.66667,"lat":60.75}},{"_id":630998,"name":"Ylane","country":"FI","coord":{"lon":22.41667,"lat":60.883331}},{"_id":631003,"name":"Ylamaa","country":"FI","coord":{"lon":28.0,"lat":60.799999}},{"_id":631191,"name":"Vuolijoki","country":"FI","coord":{"lon":27.01667,"lat":64.183327}},{"_id":8128759,"name":"Vöyri","country":"FI","coord":{"lon":22.249371,"lat":63.13047}},{"_id":631254,"name":"Voera","country":"FI","coord":{"lon":22.25223,"lat":63.13607}},{"_id":631358,"name":"Virtasalmi","country":"FI","coord":{"lon":27.466669,"lat":62.150002}},{"_id":631377,"name":"Virrat","country":"FI","coord":{"lon":23.66667,"lat":62.25}},{"_id":631376,"name":"Virrat","country":"FI","coord":{"lon":23.780041,"lat":62.247589}},{"_id":631449,"name":"Vimpeli","country":"FI","coord":{"lon":23.91667,"lat":63.166672}},{"_id":631448,"name":"Vimpeli","country":"FI","coord":{"lon":23.799999,"lat":63.150002}},{"_id":631459,"name":"Vilppula","country":"FI","coord":{"lon":24.504829,"lat":62.02121}},{"_id":631511,"name":"Viljakkala","country":"FI","coord":{"lon":23.26667,"lat":61.700001}},{"_id":631560,"name":"Viitasaari","country":"FI","coord":{"lon":25.866671,"lat":63.066669}},{"_id":8128757,"name":"Akaa","country":"FI","coord":{"lon":23.86582,"lat":61.167381}},{"_id":631693,"name":"Viiala","country":"FI","coord":{"lon":23.76738,"lat":61.210232}},{"_id":631780,"name":"Vieremä","country":"FI","coord":{"lon":27.08333,"lat":63.833328}},{"_id":631778,"name":"Vierema","country":"FI","coord":{"lon":27.01667,"lat":63.75}},{"_id":631827,"name":"Veteli","country":"FI","coord":{"lon":23.91667,"lat":63.416672}},{"_id":631825,"name":"Veteli","country":"FI","coord":{"lon":23.78285,"lat":63.47839}},{"_id":631857,"name":"Vesilahti","country":"FI","coord":{"lon":23.5,"lat":61.25}},{"_id":631856,"name":"Vesilahti","country":"FI","coord":{"lon":23.616671,"lat":61.316669}},{"_id":631875,"name":"Vesanto","country":"FI","coord":{"lon":26.5,"lat":62.916672}},{"_id":631873,"name":"Vesanto","country":"FI","coord":{"lon":26.41667,"lat":62.933331}},{"_id":631994,"name":"Velkua","country":"FI","coord":{"lon":21.66667,"lat":60.466671}},{"_id":632041,"name":"Vehmersalmi","country":"FI","coord":{"lon":28.02853,"lat":62.761009}},{"_id":632063,"name":"Vehmaa","country":"FI","coord":{"lon":21.66667,"lat":60.666672}},{"_id":632062,"name":"Vehmaa","country":"FI","coord":{"lon":21.66667,"lat":60.683331}},{"_id":632225,"name":"Vastanfjard","country":"FI","coord":{"lon":22.683331,"lat":60.049999}},{"_id":648957,"name":"Lapinlahti","country":"FI","coord":{"lon":27.41667,"lat":63.333328}},{"_id":632361,"name":"Varpaisjarvi","country":"FI","coord":{"lon":27.75,"lat":63.366669}},{"_id":657181,"name":"Huittinen","country":"FI","coord":{"lon":22.75,"lat":61.166672}},{"_id":632539,"name":"Vampula","country":"FI","coord":{"lon":22.700001,"lat":61.01667}},{"_id":8128755,"name":"Sastamala","country":"FI","coord":{"lon":22.91164,"lat":61.34058}},{"_id":632542,"name":"Vammala","country":"FI","coord":{"lon":22.9,"lat":61.333328}},{"_id":632553,"name":"Valtimo","country":"FI","coord":{"lon":28.83333,"lat":63.75}},{"_id":632552,"name":"Valtimo","country":"FI","coord":{"lon":28.799999,"lat":63.666672}},{"_id":632669,"name":"Valkeala","country":"FI","coord":{"lon":26.799999,"lat":60.950001}},{"_id":638671,"name":"Rusko","country":"FI","coord":{"lon":22.25,"lat":60.549999}},{"_id":632860,"name":"Vahto","country":"FI","coord":{"lon":22.299999,"lat":60.599998}},{"_id":632924,"name":"Vähäkyrö","country":"FI","coord":{"lon":22.08333,"lat":63.083328}},{"_id":632923,"name":"Vahakyro","country":"FI","coord":{"lon":22.105841,"lat":63.056351}},{"_id":633098,"name":"Vaala","country":"FI","coord":{"lon":27.0,"lat":64.5}},{"_id":633096,"name":"Vaala","country":"FI","coord":{"lon":26.83333,"lat":64.566673}},{"_id":633244,"name":"Uurainen","country":"FI","coord":{"lon":25.5,"lat":62.466671}},{"_id":633242,"name":"Uurainen","country":"FI","coord":{"lon":25.450001,"lat":62.5}},{"_id":633269,"name":"Utsjoki","country":"FI","coord":{"lon":27.0,"lat":69.666672}},{"_id":633268,"name":"Utsjoki","country":"FI","coord":{"lon":27.028431,"lat":69.908638}},{"_id":633295,"name":"Utajarvi","country":"FI","coord":{"lon":26.383329,"lat":64.75}},{"_id":633333,"name":"Urjala","country":"FI","coord":{"lon":23.41667,"lat":61.083328}},{"_id":633332,"name":"Urjala","country":"FI","coord":{"lon":23.533331,"lat":61.083328}},{"_id":633396,"name":"Ulvila","country":"FI","coord":{"lon":21.91667,"lat":61.416672}},{"_id":633395,"name":"Ulvila","country":"FI","coord":{"lon":21.871031,"lat":61.42844}},{"_id":633542,"name":"Tyrnävä","country":"FI","coord":{"lon":25.83333,"lat":64.75}},{"_id":633541,"name":"Tyrnava","country":"FI","coord":{"lon":25.6523,"lat":64.764687}},{"_id":633594,"name":"Tuusniemi","country":"FI","coord":{"lon":28.58333,"lat":62.799999}},{"_id":633593,"name":"Tuusniemi","country":"FI","coord":{"lon":28.5,"lat":62.816669}},{"_id":633611,"name":"Tuupovaara","country":"FI","coord":{"lon":30.6,"lat":62.48333}},{"_id":633619,"name":"Tuulos","country":"FI","coord":{"lon":24.799999,"lat":61.150002}},{"_id":634009,"name":"Töysä","country":"FI","coord":{"lon":23.883329,"lat":62.633331}},{"_id":634008,"name":"Toysa","country":"FI","coord":{"lon":23.816669,"lat":62.633331}},{"_id":634298,"name":"Toivakka","country":"FI","coord":{"lon":26.08333,"lat":62.083328}},{"_id":634297,"name":"Toivakka","country":"FI","coord":{"lon":26.08333,"lat":62.099998}},{"_id":634317,"name":"Akaa","country":"FI","coord":{"lon":23.866671,"lat":61.166672}},{"_id":634325,"name":"Toholampi","country":"FI","coord":{"lon":24.25,"lat":63.75}},{"_id":634324,"name":"Toholampi","country":"FI","coord":{"lon":24.25,"lat":63.76667}},{"_id":634333,"name":"Tohmajärvi","country":"FI","coord":{"lon":30.33333,"lat":62.25}},{"_id":634331,"name":"Tohmajarvi","country":"FI","coord":{"lon":30.383329,"lat":62.183331}},{"_id":634562,"name":"Teuva","country":"FI","coord":{"lon":21.83333,"lat":62.5}},{"_id":634561,"name":"Teuva","country":"FI","coord":{"lon":21.74156,"lat":62.481899}},{"_id":634602,"name":"Tervola","country":"FI","coord":{"lon":25.0,"lat":66.166672}},{"_id":634592,"name":"Tervola","country":"FI","coord":{"lon":24.799999,"lat":66.083328}},{"_id":634612,"name":"Tervo","country":"FI","coord":{"lon":26.83333,"lat":63.0}},{"_id":634604,"name":"Tervo","country":"FI","coord":{"lon":26.75,"lat":62.950001}},{"_id":634651,"name":"Tervakoski","country":"FI","coord":{"lon":24.616671,"lat":60.799999}},{"_id":634852,"name":"Tarvasjoki","country":"FI","coord":{"lon":22.75,"lat":60.583328}},{"_id":634851,"name":"Tarvasjoki","country":"FI","coord":{"lon":22.73333,"lat":60.583328}},{"_id":634996,"name":"Tammela","country":"FI","coord":{"lon":23.83333,"lat":60.75}},{"_id":634992,"name":"Tammela","country":"FI","coord":{"lon":23.76823,"lat":60.810349}},{"_id":635133,"name":"Taivassalo","country":"FI","coord":{"lon":21.58333,"lat":60.583328}},{"_id":635130,"name":"Taivassalo","country":"FI","coord":{"lon":21.61639,"lat":60.560848}},{"_id":635142,"name":"Taivalkoski","country":"FI","coord":{"lon":28.25,"lat":65.5}},{"_id":635141,"name":"Taivalkoski","country":"FI","coord":{"lon":28.25,"lat":65.566673}},{"_id":635151,"name":"Taipalsaari","country":"FI","coord":{"lon":28.08333,"lat":61.25}},{"_id":635150,"name":"Taipalsaari","country":"FI","coord":{"lon":28.049999,"lat":61.150002}},{"_id":635336,"name":"Sysma","country":"FI","coord":{"lon":25.683331,"lat":61.5}},{"_id":635693,"name":"Suonenjoki","country":"FI","coord":{"lon":27.16667,"lat":62.583328}},{"_id":635692,"name":"Suonenjoki","country":"FI","coord":{"lon":27.133329,"lat":62.616669}},{"_id":635697,"name":"Suomussalmi","country":"FI","coord":{"lon":29.0,"lat":65.0}},{"_id":635696,"name":"Suomussalmi","country":"FI","coord":{"lon":28.90778,"lat":64.886848}},{"_id":635712,"name":"Suomenniemi","country":"FI","coord":{"lon":27.33333,"lat":61.333328}},{"_id":635710,"name":"Suomenniemi","country":"FI","coord":{"lon":27.450001,"lat":61.316669}},{"_id":635780,"name":"Suodenniemi","country":"FI","coord":{"lon":22.783331,"lat":61.566669}},{"_id":635826,"name":"Sumiainen","country":"FI","coord":{"lon":26.033331,"lat":62.650002}},{"_id":635844,"name":"Sulkava","country":"FI","coord":{"lon":28.37299,"lat":61.786911}},{"_id":636174,"name":"Sotkamo","country":"FI","coord":{"lon":28.5,"lat":64.0}},{"_id":636173,"name":"Sotkamo","country":"FI","coord":{"lon":28.41667,"lat":64.133331}},{"_id":636305,"name":"Sonkajärvi","country":"FI","coord":{"lon":27.75,"lat":63.75}},{"_id":636301,"name":"Sonkajarvi","country":"FI","coord":{"lon":27.51667,"lat":63.666672}},{"_id":636347,"name":"Somero","country":"FI","coord":{"lon":23.41667,"lat":60.583328}},{"_id":636345,"name":"Somero","country":"FI","coord":{"lon":23.533331,"lat":60.616669}},{"_id":636397,"name":"Soini","country":"FI","coord":{"lon":24.25,"lat":62.833328}},{"_id":636393,"name":"Soini","country":"FI","coord":{"lon":24.216669,"lat":62.866669}},{"_id":636464,"name":"Sodankyla","country":"FI","coord":{"lon":26.6,"lat":67.416672}},{"_id":636608,"name":"Siuntio","country":"FI","coord":{"lon":24.22715,"lat":60.138618}},{"_id":636802,"name":"Simo","country":"FI","coord":{"lon":25.049999,"lat":65.666672}},{"_id":637003,"name":"Siikajoki","country":"FI","coord":{"lon":24.75,"lat":64.75}},{"_id":637002,"name":"Siikajoki","country":"FI","coord":{"lon":24.759239,"lat":64.814552}},{"_id":637021,"name":"Siikainen","country":"FI","coord":{"lon":21.91667,"lat":61.883331}},{"_id":637020,"name":"Siikainen","country":"FI","coord":{"lon":21.81945,"lat":61.877029}},{"_id":637035,"name":"Sievi","country":"FI","coord":{"lon":24.5,"lat":63.900002}},{"_id":637247,"name":"Saeynaetsalo","country":"FI","coord":{"lon":25.76667,"lat":62.133331}},{"_id":637285,"name":"Savukoski","country":"FI","coord":{"lon":28.5,"lat":67.666672}},{"_id":637284,"name":"Savukoski","country":"FI","coord":{"lon":28.15806,"lat":67.292503}},{"_id":637288,"name":"Savonranta","country":"FI","coord":{"lon":29.200001,"lat":62.183331}},{"_id":637312,"name":"Savitaipale","country":"FI","coord":{"lon":27.700001,"lat":61.200001}},{"_id":637401,"name":"Sauvo","country":"FI","coord":{"lon":22.75,"lat":60.333328}},{"_id":637400,"name":"Sauvo","country":"FI","coord":{"lon":22.696421,"lat":60.34306}},{"_id":637586,"name":"Sarkisalo","country":"FI","coord":{"lon":22.950001,"lat":60.113892}},{"_id":637835,"name":"Sammatti","country":"FI","coord":{"lon":23.816669,"lat":60.316669}},{"_id":638074,"name":"Salla","country":"FI","coord":{"lon":28.66667,"lat":66.833328}},{"_id":638105,"name":"Säkylä","country":"FI","coord":{"lon":22.41667,"lat":61.0}},{"_id":638104,"name":"Sakyla","country":"FI","coord":{"lon":22.33333,"lat":61.033329}},{"_id":638210,"name":"Sahalahti","country":"FI","coord":{"lon":24.316669,"lat":61.466671}},{"_id":638390,"name":"Saarijärvi","country":"FI","coord":{"lon":25.25,"lat":62.666672}},{"_id":638321,"name":"Saarijarvi","country":"FI","coord":{"lon":25.26667,"lat":62.716671}},{"_id":638398,"name":"Saari","country":"FI","coord":{"lon":29.75,"lat":61.650002}},{"_id":638582,"name":"Rymattyla","country":"FI","coord":{"lon":21.941839,"lat":60.376579}},{"_id":638622,"name":"Ruukki","country":"FI","coord":{"lon":25.1,"lat":64.666672}},{"_id":638693,"name":"Ruovesi","country":"FI","coord":{"lon":24.0,"lat":62.0}},{"_id":638691,"name":"Ruovesi","country":"FI","coord":{"lon":24.05714,"lat":61.985748}},{"_id":647572,"name":"Loviisa","country":"FI","coord":{"lon":26.23333,"lat":60.450001}},{"_id":638711,"name":"Ruotsinpyhtaeae","country":"FI","coord":{"lon":26.46203,"lat":60.526798}},{"_id":638804,"name":"Ruokolahti","country":"FI","coord":{"lon":28.75,"lat":61.333328}},{"_id":638803,"name":"Ruokolahti","country":"FI","coord":{"lon":28.83333,"lat":61.283329}},{"_id":639247,"name":"Ristijärvi","country":"FI","coord":{"lon":28.5,"lat":64.5}},{"_id":639234,"name":"Ristijarvi","country":"FI","coord":{"lon":28.216669,"lat":64.5}},{"_id":639248,"name":"Ristiina","country":"FI","coord":{"lon":27.26667,"lat":61.5}},{"_id":639522,"name":"Replot","country":"FI","coord":{"lon":21.41667,"lat":63.25}},{"_id":639534,"name":"Renko","country":"FI","coord":{"lon":24.287849,"lat":60.89563}},{"_id":639578,"name":"Reisjärvi","country":"FI","coord":{"lon":25.0,"lat":63.583328}},{"_id":639576,"name":"Reisjarvi","country":"FI","coord":{"lon":24.9,"lat":63.616669}},{"_id":639672,"name":"Rautjärvi","country":"FI","coord":{"lon":29.16667,"lat":61.333328}},{"_id":639666,"name":"Rautjarvi","country":"FI","coord":{"lon":29.35,"lat":61.433331}},{"_id":639701,"name":"Rautavaara","country":"FI","coord":{"lon":28.33333,"lat":63.5}},{"_id":639700,"name":"Rautavaara","country":"FI","coord":{"lon":28.299999,"lat":63.48333}},{"_id":639711,"name":"Rautalampi","country":"FI","coord":{"lon":26.75,"lat":62.666672}},{"_id":639709,"name":"Rautalampi","country":"FI","coord":{"lon":26.83333,"lat":62.633331}},{"_id":639890,"name":"Ranua","country":"FI","coord":{"lon":26.5,"lat":66.0}},{"_id":639888,"name":"Ranua","country":"FI","coord":{"lon":26.533331,"lat":65.916672}},{"_id":8128756,"name":"Siikalatva","country":"FI","coord":{"lon":25.85821,"lat":64.267776}},{"_id":639895,"name":"Rantsila","country":"FI","coord":{"lon":25.65,"lat":64.51667}},{"_id":639907,"name":"Rantasalmi","country":"FI","coord":{"lon":28.33333,"lat":62.083328}},{"_id":639906,"name":"Rantasalmi","country":"FI","coord":{"lon":28.299999,"lat":62.066669}},{"_id":640272,"name":"Rääkkylä","country":"FI","coord":{"lon":29.66667,"lat":62.25}},{"_id":640271,"name":"Raakkyla","country":"FI","coord":{"lon":29.616671,"lat":62.316669}},{"_id":640372,"name":"Pylkonmaki","country":"FI","coord":{"lon":24.799999,"lat":62.666672}},{"_id":640385,"name":"Pyttis","country":"FI","coord":{"lon":26.66667,"lat":60.5}},{"_id":640384,"name":"Pyhtaa","country":"FI","coord":{"lon":26.543461,"lat":60.493488}},{"_id":640398,"name":"Pyhaselka","country":"FI","coord":{"lon":29.966669,"lat":62.433331}},{"_id":640406,"name":"Pyhäranta","country":"FI","coord":{"lon":21.41667,"lat":61.0}},{"_id":640405,"name":"Pyharanta","country":"FI","coord":{"lon":21.450001,"lat":60.950001}},{"_id":640410,"name":"Pyhäntä","country":"FI","coord":{"lon":26.5,"lat":64.083328}},{"_id":640409,"name":"Pyhanta","country":"FI","coord":{"lon":26.316669,"lat":64.099998}},{"_id":640439,"name":"Pyhäjoki","country":"FI","coord":{"lon":24.41667,"lat":64.416672}},{"_id":640437,"name":"Pyhajoki","country":"FI","coord":{"lon":24.23333,"lat":64.466667}},{"_id":642378,"name":"Pelkosenniemi","country":"FI","coord":{"lon":27.5,"lat":67.166672}},{"_id":640440,"name":"Pyhajarvi","country":"FI","coord":{"lon":27.215561,"lat":67.071388}},{"_id":640471,"name":"Pyhäjärvi","country":"FI","coord":{"lon":26.0,"lat":63.666672}},{"_id":640441,"name":"Pyhaejaervi","country":"FI","coord":{"lon":25.9,"lat":63.666672}},{"_id":640504,"name":"Puumala","country":"FI","coord":{"lon":28.17495,"lat":61.527279}},{"_id":640660,"name":"Puolanka","country":"FI","coord":{"lon":27.83333,"lat":64.833328}},{"_id":640658,"name":"Puolanka","country":"FI","coord":{"lon":27.66667,"lat":64.866669}},{"_id":640690,"name":"Punkalaidun","country":"FI","coord":{"lon":23.16667,"lat":61.083328}},{"_id":640689,"name":"Punkalaidun","country":"FI","coord":{"lon":23.1,"lat":61.116669}},{"_id":640694,"name":"Punkaharju","country":"FI","coord":{"lon":29.41667,"lat":61.75}},{"_id":640693,"name":"Punkaharju","country":"FI","coord":{"lon":29.38843,"lat":61.758831}},{"_id":640718,"name":"Pulkkila","country":"FI","coord":{"lon":25.866671,"lat":64.26667}},{"_id":640753,"name":"Pukkila","country":"FI","coord":{"lon":25.58333,"lat":60.666672}},{"_id":640749,"name":"Pukkila","country":"FI","coord":{"lon":25.566669,"lat":60.650002}},{"_id":640803,"name":"Pudasjarvi","country":"FI","coord":{"lon":26.91667,"lat":65.383331}},{"_id":640893,"name":"Posio","country":"FI","coord":{"lon":28.17186,"lat":66.108559}},{"_id":640974,"name":"Pornainen","country":"FI","coord":{"lon":25.33333,"lat":60.5}},{"_id":640973,"name":"Pornainen","country":"FI","coord":{"lon":25.374901,"lat":60.475811}},{"_id":641045,"name":"Pomarkku","country":"FI","coord":{"lon":22.0,"lat":61.700001}},{"_id":641044,"name":"Pomarkku","country":"FI","coord":{"lon":22.008619,"lat":61.693481}},{"_id":641061,"name":"Polvijärvi","country":"FI","coord":{"lon":29.33333,"lat":62.916672}},{"_id":641055,"name":"Polvijaervi","country":"FI","coord":{"lon":29.366671,"lat":62.849998}},{"_id":8128754,"name":"Raasepori","country":"FI","coord":{"lon":23.436331,"lat":59.97718}},{"_id":641124,"name":"Pohja","country":"FI","coord":{"lon":23.527571,"lat":60.09626}},{"_id":641612,"name":"Piippola","country":"FI","coord":{"lon":25.966669,"lat":64.166672}},{"_id":641651,"name":"Piikkio","country":"FI","coord":{"lon":22.51601,"lat":60.424809}},{"_id":641661,"name":"Pihtipudas","country":"FI","coord":{"lon":25.66667,"lat":63.416672}},{"_id":641660,"name":"Pihtipudas","country":"FI","coord":{"lon":25.566669,"lat":63.383331}},{"_id":641861,"name":"Pielavesi","country":"FI","coord":{"lon":26.75,"lat":63.23333}},{"_id":641976,"name":"Petäjävesi","country":"FI","coord":{"lon":25.25,"lat":62.25}},{"_id":641974,"name":"Petajavesi","country":"FI","coord":{"lon":25.200001,"lat":62.25}},{"_id":642077,"name":"Pertunmaa","country":"FI","coord":{"lon":26.48333,"lat":61.5}},{"_id":642093,"name":"Pertteli","country":"FI","coord":{"lon":23.26667,"lat":60.433331}},{"_id":642113,"name":"Pernio","country":"FI","coord":{"lon":23.133329,"lat":60.200001}},{"_id":642118,"name":"Perna","country":"FI","coord":{"lon":26.03187,"lat":60.448689}},{"_id":642367,"name":"Pello","country":"FI","coord":{"lon":23.91667,"lat":66.783333}},{"_id":642377,"name":"Pelkosenniemi","country":"FI","coord":{"lon":27.510559,"lat":67.110832}},{"_id":642455,"name":"Pedersoere","country":"FI","coord":{"lon":22.683331,"lat":63.650002}},{"_id":642657,"name":"Parkano","country":"FI","coord":{"lon":23.01667,"lat":62.01667}},{"_id":642673,"name":"Pargas","country":"FI","coord":{"lon":22.30097,"lat":60.306721}},{"_id":642751,"name":"Paltamo","country":"FI","coord":{"lon":27.83333,"lat":64.416672}},{"_id":642750,"name":"Paltamo","country":"FI","coord":{"lon":27.83333,"lat":64.416672}},{"_id":642977,"name":"Pälkäne","country":"FI","coord":{"lon":24.25,"lat":61.333328}},{"_id":642976,"name":"Palkane","country":"FI","coord":{"lon":24.271971,"lat":61.33424}},{"_id":643261,"name":"Padasjoki","country":"FI","coord":{"lon":25.25,"lat":61.333328}},{"_id":643260,"name":"Padasjoki","country":"FI","coord":{"lon":25.283331,"lat":61.349998}},{"_id":830266,"name":"Outokumpu","country":"FI","coord":{"lon":28.950001,"lat":62.700001}},{"_id":643453,"name":"Outokumpu","country":"FI","coord":{"lon":29.015921,"lat":62.726849}},{"_id":643481,"name":"Oulunsalo","country":"FI","coord":{"lon":25.411209,"lat":64.934563}},{"_id":643498,"name":"Oulainen","country":"FI","coord":{"lon":24.91667,"lat":64.25}},{"_id":643497,"name":"Oulainen","country":"FI","coord":{"lon":24.799999,"lat":64.26667}},{"_id":649549,"name":"Laajalahti","country":"FI","coord":{"lon":24.80352,"lat":60.20076}},{"_id":643522,"name":"Otaniemi","country":"FI","coord":{"lon":24.82786,"lat":60.183949}},{"_id":643631,"name":"Orivesi","country":"FI","coord":{"lon":24.358919,"lat":61.679939}},{"_id":643629,"name":"Orivesi","country":"FI","coord":{"lon":24.357201,"lat":61.677662}},{"_id":643641,"name":"Oripää","country":"FI","coord":{"lon":22.700001,"lat":60.866669}},{"_id":643640,"name":"Oripaa","country":"FI","coord":{"lon":22.683331,"lat":60.849998}},{"_id":643645,"name":"Orimattila","country":"FI","coord":{"lon":25.72998,"lat":60.804741}},{"_id":643644,"name":"Orimattila","country":"FI","coord":{"lon":25.729639,"lat":60.804871}},{"_id":643681,"name":"Oravais","country":"FI","coord":{"lon":22.37821,"lat":63.30135}},{"_id":644101,"name":"Nykarleby","country":"FI","coord":{"lon":22.533331,"lat":63.533329}},{"_id":644100,"name":"Nykarleby","country":"FI","coord":{"lon":22.530729,"lat":63.52277}},{"_id":644187,"name":"Nurmes","country":"FI","coord":{"lon":29.13965,"lat":63.542049}},{"_id":644328,"name":"Nousiainen","country":"FI","coord":{"lon":22.16667,"lat":60.666672}},{"_id":644326,"name":"Nousiainen","country":"FI","coord":{"lon":22.07926,"lat":60.60416}},{"_id":644436,"name":"Noormarkku","country":"FI","coord":{"lon":21.86846,"lat":61.592739}},{"_id":644499,"name":"Nivala","country":"FI","coord":{"lon":24.966669,"lat":63.916672}},{"_id":644633,"name":"Nilsiä","country":"FI","coord":{"lon":28.16667,"lat":63.25}},{"_id":644632,"name":"Nilsia","country":"FI","coord":{"lon":28.08333,"lat":63.200001}},{"_id":645036,"name":"Nastola","country":"FI","coord":{"lon":25.91667,"lat":61.0}},{"_id":645035,"name":"Nastola","country":"FI","coord":{"lon":25.933331,"lat":60.950001}},{"_id":645082,"name":"Närpes","country":"FI","coord":{"lon":21.33622,"lat":62.472618}},{"_id":645081,"name":"Naerpes","country":"FI","coord":{"lon":21.33707,"lat":62.472832}},{"_id":645150,"name":"Nakkila","country":"FI","coord":{"lon":21.91667,"lat":61.383331}},{"_id":645148,"name":"Nakkila","country":"FI","coord":{"lon":22.0,"lat":61.366669}},{"_id":645211,"name":"Naantali","country":"FI","coord":{"lon":22.024281,"lat":60.467442}},{"_id":645234,"name":"Mörskom","country":"FI","coord":{"lon":25.83333,"lat":60.666672}},{"_id":645233,"name":"Myrskylae","country":"FI","coord":{"lon":25.8475,"lat":60.669651}},{"_id":645244,"name":"Mynämäki","country":"FI","coord":{"lon":22.0,"lat":60.666672}},{"_id":645243,"name":"Mynamaki","country":"FI","coord":{"lon":21.992741,"lat":60.67915}},{"_id":645370,"name":"Muurla","country":"FI","coord":{"lon":23.283331,"lat":60.349998}},{"_id":645385,"name":"Muurame","country":"FI","coord":{"lon":25.66667,"lat":62.133331}},{"_id":645673,"name":"Muonio","country":"FI","coord":{"lon":23.83333,"lat":67.833328}},{"_id":645672,"name":"Muonio","country":"FI","coord":{"lon":23.700001,"lat":67.949997}},{"_id":645711,"name":"Multia","country":"FI","coord":{"lon":24.83333,"lat":62.5}},{"_id":645710,"name":"Multia","country":"FI","coord":{"lon":24.783331,"lat":62.416672}},{"_id":645765,"name":"Muhos","country":"FI","coord":{"lon":25.993139,"lat":64.807983}},{"_id":645766,"name":"Muhos","country":"FI","coord":{"lon":26.1,"lat":64.76667}},{"_id":645800,"name":"Mouhijarvi","country":"FI","coord":{"lon":23.01667,"lat":61.5}},{"_id":646031,"name":"Mietoinen","country":"FI","coord":{"lon":21.933331,"lat":60.633331}},{"_id":646080,"name":"Miehikkälä","country":"FI","coord":{"lon":27.583059,"lat":60.75}},{"_id":646079,"name":"Miehikkala","country":"FI","coord":{"lon":27.700001,"lat":60.666672}},{"_id":646193,"name":"Merikarvia","country":"FI","coord":{"lon":21.58333,"lat":61.916672}},{"_id":646192,"name":"Merikarvia","country":"FI","coord":{"lon":21.500351,"lat":61.858391}},{"_id":646198,"name":"Merijärvi","country":"FI","coord":{"lon":24.5,"lat":64.300003}},{"_id":646195,"name":"Merijarvi","country":"FI","coord":{"lon":24.450001,"lat":64.300003}},{"_id":647732,"name":"Loimaa","country":"FI","coord":{"lon":23.049999,"lat":60.866669}},{"_id":646220,"name":"Mellila","country":"FI","coord":{"lon":22.950001,"lat":60.76667}},{"_id":646486,"name":"Masku","country":"FI","coord":{"lon":22.098829,"lat":60.57082}},{"_id":646519,"name":"Marttila","country":"FI","coord":{"lon":22.91667,"lat":60.583328}},{"_id":646511,"name":"Marttila","country":"FI","coord":{"lon":22.9,"lat":60.583328}},{"_id":646701,"name":"Mäntyharju","country":"FI","coord":{"lon":26.83333,"lat":61.333328}},{"_id":646699,"name":"Mantyharju","country":"FI","coord":{"lon":26.883329,"lat":61.416672}},{"_id":646876,"name":"Malax","country":"FI","coord":{"lon":21.58333,"lat":62.916672}},{"_id":646875,"name":"Malax","country":"FI","coord":{"lon":21.573111,"lat":62.942249}},{"_id":647195,"name":"Maaninka","country":"FI","coord":{"lon":27.25,"lat":63.166672}},{"_id":647202,"name":"Maaninka","country":"FI","coord":{"lon":27.299999,"lat":63.150002}},{"_id":647260,"name":"Luvia","country":"FI","coord":{"lon":21.625561,"lat":61.36375}},{"_id":647289,"name":"Luumäki","country":"FI","coord":{"lon":27.58333,"lat":60.916672}},{"_id":647288,"name":"Luumaki","country":"FI","coord":{"lon":27.58135,"lat":60.926182}},{"_id":647383,"name":"Luopioinen","country":"FI","coord":{"lon":24.66667,"lat":61.366669}},{"_id":647472,"name":"Lumijoki","country":"FI","coord":{"lon":25.16667,"lat":64.833328}},{"_id":647471,"name":"Lumijoki","country":"FI","coord":{"lon":25.186069,"lat":64.83744}},{"_id":647523,"name":"Luhanka","country":"FI","coord":{"lon":25.75,"lat":61.799999}},{"_id":647522,"name":"Luhanka","country":"FI","coord":{"lon":25.704571,"lat":61.796822}},{"_id":647571,"name":"Lovisa","country":"FI","coord":{"lon":26.22505,"lat":60.456589}},{"_id":647660,"name":"Loppi","country":"FI","coord":{"lon":24.450001,"lat":60.716671}},{"_id":647731,"name":"Loimaa","country":"FI","coord":{"lon":23.056101,"lat":60.84972}},{"_id":647851,"name":"Liperi","country":"FI","coord":{"lon":29.366671,"lat":62.533329}},{"_id":647930,"name":"Liminka","country":"FI","coord":{"lon":25.415449,"lat":64.809853}},{"_id":647978,"name":"Liljendal","country":"FI","coord":{"lon":26.049999,"lat":60.566669}},{"_id":648180,"name":"Lestijärvi","country":"FI","coord":{"lon":24.66667,"lat":63.5}},{"_id":648178,"name":"Lestijarvi","country":"FI","coord":{"lon":24.65,"lat":63.533329}},{"_id":648228,"name":"Leppävirta","country":"FI","coord":{"lon":28.0,"lat":62.5}},{"_id":648227,"name":"Leppavirta","country":"FI","coord":{"lon":27.782619,"lat":62.490089}},{"_id":648350,"name":"Lemu","country":"FI","coord":{"lon":21.966669,"lat":60.566669}},{"_id":648387,"name":"Lemi","country":"FI","coord":{"lon":27.80571,"lat":61.062439}},{"_id":655582,"name":"Joutsa","country":"FI","coord":{"lon":26.25,"lat":61.75}},{"_id":648397,"name":"Leivonmaki","country":"FI","coord":{"lon":26.116671,"lat":61.916672}},{"_id":661594,"name":"Alajärvi","country":"FI","coord":{"lon":24.0,"lat":63.0}},{"_id":648554,"name":"Lehtimaki","country":"FI","coord":{"lon":23.91667,"lat":62.783329}},{"_id":648615,"name":"Lavia","country":"FI","coord":{"lon":22.5,"lat":61.583328}},{"_id":648613,"name":"Lavia","country":"FI","coord":{"lon":22.6,"lat":61.599998}},{"_id":648847,"name":"Larsmo","country":"FI","coord":{"lon":22.74728,"lat":63.75388}},{"_id":648856,"name":"Lapua","country":"FI","coord":{"lon":23.16667,"lat":62.916672}},{"_id":648855,"name":"Lapua","country":"FI","coord":{"lon":23.008801,"lat":62.969269}},{"_id":648886,"name":"Lappi","country":"FI","coord":{"lon":21.83333,"lat":61.099998}},{"_id":648923,"name":"Lappajärvi","country":"FI","coord":{"lon":23.58333,"lat":63.166672}},{"_id":648919,"name":"Lappajarvi","country":"FI","coord":{"lon":23.633329,"lat":63.200001}},{"_id":648953,"name":"Lapinlahti","country":"FI","coord":{"lon":27.4,"lat":63.366669}},{"_id":648976,"name":"Lappträsk","country":"FI","coord":{"lon":26.25,"lat":60.666672}},{"_id":648965,"name":"Lapinjarvi","country":"FI","coord":{"lon":26.197201,"lat":60.624432}},{"_id":649223,"name":"Lammi","country":"FI","coord":{"lon":25.01667,"lat":61.083328}},{"_id":649307,"name":"Laitila","country":"FI","coord":{"lon":21.75,"lat":60.916672}},{"_id":649302,"name":"Laitila","country":"FI","coord":{"lon":21.697651,"lat":60.875751}},{"_id":649351,"name":"Laihia","country":"FI","coord":{"lon":22.0,"lat":62.916672}},{"_id":649348,"name":"Laihia","country":"FI","coord":{"lon":22.011431,"lat":62.976089}},{"_id":649584,"name":"Kyyjärvi","country":"FI","coord":{"lon":24.58333,"lat":63.083328}},{"_id":649582,"name":"Kyyjarvi","country":"FI","coord":{"lon":24.566669,"lat":63.033329}},{"_id":649728,"name":"Kylmakoski","country":"FI","coord":{"lon":23.68858,"lat":61.153999}},{"_id":649825,"name":"Kuusjoki","country":"FI","coord":{"lon":23.200001,"lat":60.51667}},{"_id":650000,"name":"Kustavi","country":"FI","coord":{"lon":21.25,"lat":60.583328}},{"_id":649998,"name":"Kustavi","country":"FI","coord":{"lon":21.358801,"lat":60.545292}},{"_id":650014,"name":"Kuru","country":"FI","coord":{"lon":23.719481,"lat":61.87558}},{"_id":650098,"name":"Kurikka","country":"FI","coord":{"lon":22.41667,"lat":62.583328}},{"_id":650095,"name":"Kurikka","country":"FI","coord":{"lon":22.41667,"lat":62.616669}},{"_id":650469,"name":"Kullaa","country":"FI","coord":{"lon":22.16667,"lat":61.466671}},{"_id":656852,"name":"Ii","country":"FI","coord":{"lon":25.5,"lat":65.416672}},{"_id":650628,"name":"Kuivaniemi","country":"FI","coord":{"lon":25.183331,"lat":65.583328}},{"_id":650704,"name":"Kuhmoinen","country":"FI","coord":{"lon":25.25,"lat":61.666672}},{"_id":650703,"name":"Kuhmoinen","country":"FI","coord":{"lon":25.183331,"lat":61.566669}},{"_id":650707,"name":"Kuhmalahti","country":"FI","coord":{"lon":24.566669,"lat":61.5}},{"_id":650754,"name":"Kronoby","country":"FI","coord":{"lon":23.021009,"lat":63.72456}},{"_id":650770,"name":"Kristinestad","country":"FI","coord":{"lon":21.383329,"lat":62.283329}},{"_id":650769,"name":"Kristinestad","country":"FI","coord":{"lon":21.375959,"lat":62.274288}},{"_id":650805,"name":"Koylio","country":"FI","coord":{"lon":22.309759,"lat":61.119099}},{"_id":651090,"name":"Hämeenkoski","country":"FI","coord":{"lon":25.16667,"lat":61.0}},{"_id":651073,"name":"Haemeenkoski","country":"FI","coord":{"lon":25.154169,"lat":61.022221}},{"_id":651091,"name":"Koski","country":"FI","coord":{"lon":23.08333,"lat":60.666672}},{"_id":651245,"name":"Kortesjarvi","country":"FI","coord":{"lon":23.16667,"lat":63.299999}},{"_id":651297,"name":"Korsnäs","country":"FI","coord":{"lon":21.25,"lat":62.75}},{"_id":651294,"name":"Korsnas","country":"FI","coord":{"lon":21.200001,"lat":62.783329}},{"_id":651350,"name":"Korpilahti","country":"FI","coord":{"lon":25.549999,"lat":62.01667}},{"_id":651659,"name":"Kontiolahti","country":"FI","coord":{"lon":29.847111,"lat":62.760231}},{"_id":651698,"name":"Konnevesi","country":"FI","coord":{"lon":26.33333,"lat":62.666672}},{"_id":651696,"name":"Konnevesi","country":"FI","coord":{"lon":26.316669,"lat":62.616669}},{"_id":651892,"name":"Kolari","country":"FI","coord":{"lon":24.16667,"lat":67.333328}},{"_id":651889,"name":"Kolari","country":"FI","coord":{"lon":23.777849,"lat":67.330467}},{"_id":651981,"name":"Kokemäki","country":"FI","coord":{"lon":22.33333,"lat":61.25}},{"_id":651980,"name":"Kokemaki","country":"FI","coord":{"lon":22.35643,"lat":61.25647}},{"_id":652498,"name":"Kivijärvi","country":"FI","coord":{"lon":25.0,"lat":63.166672}},{"_id":652432,"name":"Kivijaervi","country":"FI","coord":{"lon":25.1,"lat":63.116669}},{"_id":652578,"name":"Kiukainen","country":"FI","coord":{"lon":22.08333,"lat":61.216671}},{"_id":652615,"name":"Kitee","country":"FI","coord":{"lon":30.15,"lat":62.099998}},{"_id":652746,"name":"Kinnula","country":"FI","coord":{"lon":25.0,"lat":63.333328}},{"_id":652736,"name":"Kinnula","country":"FI","coord":{"lon":24.950001,"lat":63.383331}},{"_id":652737,"name":"Kinnula","country":"FI","coord":{"lon":24.966669,"lat":63.366669}},{"_id":652776,"name":"Kimito","country":"FI","coord":{"lon":22.729,"lat":60.160469}},{"_id":652859,"name":"Kiiminki","country":"FI","coord":{"lon":25.83333,"lat":65.166672}},{"_id":652858,"name":"Kiiminki","country":"FI","coord":{"lon":25.79744,"lat":65.131393}},{"_id":652879,"name":"Kiikoinen","country":"FI","coord":{"lon":22.58333,"lat":61.466671}},{"_id":652878,"name":"Kiikoinen","country":"FI","coord":{"lon":22.58333,"lat":61.450001}},{"_id":652888,"name":"Kiikala","country":"FI","coord":{"lon":23.566669,"lat":60.466671}},{"_id":652891,"name":"Kiihtelysvaara","country":"FI","coord":{"lon":30.25,"lat":62.48333}},{"_id":652897,"name":"Kihniö","country":"FI","coord":{"lon":23.16667,"lat":62.25}},{"_id":652896,"name":"Kihnioe","country":"FI","coord":{"lon":23.183331,"lat":62.200001}},{"_id":652977,"name":"Keuruu","country":"FI","coord":{"lon":24.700001,"lat":62.26667}},{"_id":653039,"name":"Kestila","country":"FI","coord":{"lon":26.283331,"lat":64.349998}},{"_id":653130,"name":"Kesälahti","country":"FI","coord":{"lon":29.83333,"lat":61.916672}},{"_id":653129,"name":"Kesalahti","country":"FI","coord":{"lon":29.83333,"lat":61.900002}},{"_id":653181,"name":"Kerimäki","country":"FI","coord":{"lon":29.33333,"lat":62.0}},{"_id":653180,"name":"Kerimaki","country":"FI","coord":{"lon":29.283331,"lat":61.916672}},{"_id":653253,"name":"Kempele","country":"FI","coord":{"lon":25.58333,"lat":64.916672}},{"_id":653252,"name":"Kempele","country":"FI","coord":{"lon":25.503389,"lat":64.913139}},{"_id":653274,"name":"Kemijärvi","country":"FI","coord":{"lon":27.41667,"lat":66.666672}},{"_id":653272,"name":"Kemijaervi","country":"FI","coord":{"lon":27.41667,"lat":66.666672}},{"_id":653280,"name":"Keminmaa","country":"FI","coord":{"lon":24.54483,"lat":65.801582}},{"_id":653484,"name":"Kaustinen","country":"FI","coord":{"lon":23.75,"lat":63.583328}},{"_id":653482,"name":"Kaustinen","country":"FI","coord":{"lon":23.68845,"lat":63.548779}},{"_id":653560,"name":"Kauniainen","country":"FI","coord":{"lon":24.72801,"lat":60.209759}},{"_id":653559,"name":"Kauniainen","country":"FI","coord":{"lon":24.72756,"lat":60.21209}},{"_id":653760,"name":"Kaskinen","country":"FI","coord":{"lon":21.216669,"lat":62.383331}},{"_id":653758,"name":"Kaskinen","country":"FI","coord":{"lon":21.22331,"lat":62.384441}},{"_id":653814,"name":"Karvia","country":"FI","coord":{"lon":22.58333,"lat":62.166672}},{"_id":653813,"name":"Karvia","country":"FI","coord":{"lon":22.566669,"lat":62.133331}},{"_id":653841,"name":"Karttula","country":"FI","coord":{"lon":26.966669,"lat":62.883331}},{"_id":653853,"name":"Karstula","country":"FI","coord":{"lon":24.75,"lat":62.833328}},{"_id":653852,"name":"Karstula","country":"FI","coord":{"lon":24.783331,"lat":62.866669}},{"_id":653953,"name":"Kärkölä","country":"FI","coord":{"lon":25.25,"lat":60.833328}},{"_id":653951,"name":"Karkola","country":"FI","coord":{"lon":25.25,"lat":60.916672}},{"_id":653961,"name":"Karkkila","country":"FI","coord":{"lon":24.183331,"lat":60.533329}},{"_id":653960,"name":"Karkkila","country":"FI","coord":{"lon":24.20977,"lat":60.53418}},{"_id":654013,"name":"Karjalohja","country":"FI","coord":{"lon":23.75,"lat":60.25}},{"_id":654012,"name":"Karjalohja","country":"FI","coord":{"lon":23.71789,"lat":60.24015}},{"_id":654047,"name":"Karis","country":"FI","coord":{"lon":23.661631,"lat":60.071781}},{"_id":654059,"name":"Karinainen","country":"FI","coord":{"lon":22.76667,"lat":60.666672}},{"_id":654076,"name":"Karijoki","country":"FI","coord":{"lon":21.75,"lat":62.333328}},{"_id":654075,"name":"Karijoki","country":"FI","coord":{"lon":21.708561,"lat":62.30851}},{"_id":654315,"name":"Kannus","country":"FI","coord":{"lon":23.91667,"lat":63.916672}},{"_id":654314,"name":"Kannus","country":"FI","coord":{"lon":23.9,"lat":63.900002}},{"_id":654319,"name":"Kannonkoski","country":"FI","coord":{"lon":25.33333,"lat":63.0}},{"_id":654318,"name":"Kannonkoski","country":"FI","coord":{"lon":25.25,"lat":62.966671}},{"_id":654377,"name":"Kankaanpää","country":"FI","coord":{"lon":22.33333,"lat":61.833328}},{"_id":654363,"name":"Kankaanpaa","country":"FI","coord":{"lon":22.41667,"lat":61.799999}},{"_id":654408,"name":"Kangasniemi","country":"FI","coord":{"lon":26.66667,"lat":62.0}},{"_id":654405,"name":"Kangasniemi","country":"FI","coord":{"lon":26.64785,"lat":61.993568}},{"_id":654413,"name":"Kangaslampi","country":"FI","coord":{"lon":28.25289,"lat":62.295631}},{"_id":654521,"name":"Kalvola","country":"FI","coord":{"lon":24.116671,"lat":61.099998}},{"_id":654533,"name":"Kalvia","country":"FI","coord":{"lon":23.45289,"lat":63.860668}},{"_id":654837,"name":"Kalajoki","country":"FI","coord":{"lon":23.950001,"lat":64.25}},{"_id":655070,"name":"Kaavi","country":"FI","coord":{"lon":28.75,"lat":63.0}},{"_id":655069,"name":"Kaavi","country":"FI","coord":{"lon":28.5,"lat":62.98333}},{"_id":655253,"name":"Juva","country":"FI","coord":{"lon":27.85,"lat":61.900002}},{"_id":655308,"name":"Juupajoki","country":"FI","coord":{"lon":24.5,"lat":61.833328}},{"_id":655307,"name":"Juupajoki","country":"FI","coord":{"lon":24.36939,"lat":61.799011}},{"_id":655313,"name":"Juuka","country":"FI","coord":{"lon":29.16667,"lat":63.25}},{"_id":655312,"name":"Juuka","country":"FI","coord":{"lon":29.25,"lat":63.23333}},{"_id":655363,"name":"Jurva","country":"FI","coord":{"lon":21.98333,"lat":62.683331}},{"_id":655534,"name":"Juankoski","country":"FI","coord":{"lon":28.366671,"lat":63.049999}},{"_id":655533,"name":"Juankoski","country":"FI","coord":{"lon":28.35,"lat":63.066669}},{"_id":655563,"name":"Joutseno","country":"FI","coord":{"lon":28.507629,"lat":61.117962}},{"_id":655626,"name":"Joroinen","country":"FI","coord":{"lon":27.83165,"lat":62.17823}},{"_id":655693,"name":"Jokioinen","country":"FI","coord":{"lon":23.5,"lat":60.833328}},{"_id":655692,"name":"Jokioinen","country":"FI","coord":{"lon":23.48004,"lat":60.80162}},{"_id":656015,"name":"Jappila","country":"FI","coord":{"lon":27.43372,"lat":62.37899}},{"_id":656076,"name":"Jamsankoski","country":"FI","coord":{"lon":25.170111,"lat":61.918999}},{"_id":656092,"name":"Jämijärvi","country":"FI","coord":{"lon":22.66667,"lat":61.833328}},{"_id":656090,"name":"Jamijarvi","country":"FI","coord":{"lon":22.700001,"lat":61.816669}},{"_id":656118,"name":"Jalasjärvi","country":"FI","coord":{"lon":22.83333,"lat":62.5}},{"_id":656117,"name":"Jalasjarvi","country":"FI","coord":{"lon":22.75,"lat":62.5}},{"_id":656183,"name":"Jaala","country":"FI","coord":{"lon":26.48333,"lat":61.049999}},{"_id":656457,"name":"Isokyrö","country":"FI","coord":{"lon":22.33333,"lat":63.0}},{"_id":656456,"name":"Isokyro","country":"FI","coord":{"lon":22.333321,"lat":63.011719}},{"_id":656518,"name":"Isojoki","country":"FI","coord":{"lon":21.91667,"lat":62.166672}},{"_id":656517,"name":"Isojoki","country":"FI","coord":{"lon":21.958839,"lat":62.11319}},{"_id":656636,"name":"Inio","country":"FI","coord":{"lon":21.4,"lat":60.400002}},{"_id":656652,"name":"Inga","country":"FI","coord":{"lon":24.004589,"lat":60.045872}},{"_id":656657,"name":"Inari","country":"FI","coord":{"lon":27.028811,"lat":68.90596}},{"_id":656711,"name":"Ilomantsi","country":"FI","coord":{"lon":31.0,"lat":62.833328}},{"_id":656709,"name":"Ilomantsi","country":"FI","coord":{"lon":30.93276,"lat":62.671619}},{"_id":656739,"name":"Ilmajoki","country":"FI","coord":{"lon":22.566669,"lat":62.73333}},{"_id":656790,"name":"Ikaalinen","country":"FI","coord":{"lon":23.066669,"lat":61.76667}},{"_id":656789,"name":"Ikaalinen","country":"FI","coord":{"lon":23.0658,"lat":61.769508}},{"_id":656807,"name":"Iitti","country":"FI","coord":{"lon":26.33869,"lat":60.894878}},{"_id":656851,"name":"Ii","country":"FI","coord":{"lon":25.3731,"lat":65.317352}},{"_id":656949,"name":"Hyrynsalmi","country":"FI","coord":{"lon":28.533331,"lat":64.666672}},{"_id":657113,"name":"Humppila","country":"FI","coord":{"lon":23.33333,"lat":60.916672}},{"_id":657112,"name":"Humppila","country":"FI","coord":{"lon":23.366671,"lat":60.933331}},{"_id":657180,"name":"Huittinen","country":"FI","coord":{"lon":22.700001,"lat":61.183331}},{"_id":657305,"name":"Houtskar","country":"FI","coord":{"lon":21.372181,"lat":60.222839}},{"_id":657480,"name":"Honkajoki","country":"FI","coord":{"lon":22.25,"lat":62.0}},{"_id":657479,"name":"Honkajoki","country":"FI","coord":{"lon":22.26667,"lat":61.98333}},{"_id":657731,"name":"Hirvensalmi","country":"FI","coord":{"lon":26.75,"lat":61.666672}},{"_id":657730,"name":"Hirvensalmi","country":"FI","coord":{"lon":26.799999,"lat":61.633331}},{"_id":657838,"name":"Himanka","country":"FI","coord":{"lon":23.65,"lat":64.066673}},{"_id":658224,"name":"Helsinki","country":"FI","coord":{"lon":21.438101,"lat":60.60778}},{"_id":658319,"name":"Heinävesi","country":"FI","coord":{"lon":28.75,"lat":62.416672}},{"_id":658318,"name":"Heinavesi","country":"FI","coord":{"lon":28.6,"lat":62.433331}},{"_id":658581,"name":"Hausjarvi","country":"FI","coord":{"lon":24.933331,"lat":60.783329}},{"_id":658617,"name":"Haukivuori","country":"FI","coord":{"lon":27.216669,"lat":62.01667}},{"_id":658670,"name":"Hauho","country":"FI","coord":{"lon":24.56303,"lat":61.17255}},{"_id":658757,"name":"Hartola","country":"FI","coord":{"lon":26.01667,"lat":61.583328}},{"_id":658922,"name":"Harjavalta","country":"FI","coord":{"lon":22.16667,"lat":61.333328}},{"_id":658921,"name":"Harjavalta","country":"FI","coord":{"lon":22.133329,"lat":61.316669}},{"_id":659025,"name":"Hankasalmi","country":"FI","coord":{"lon":26.5,"lat":62.416672}},{"_id":659024,"name":"Hankasalmi","country":"FI","coord":{"lon":26.433331,"lat":62.383331}},{"_id":659102,"name":"Hangö","country":"FI","coord":{"lon":22.950001,"lat":59.833328}},{"_id":659101,"name":"Hanko","country":"FI","coord":{"lon":22.950001,"lat":59.833328}},{"_id":659184,"name":"Hameenkyro","country":"FI","coord":{"lon":23.195311,"lat":61.63913}},{"_id":659231,"name":"Halsua","country":"FI","coord":{"lon":24.16667,"lat":63.466671}},{"_id":659350,"name":"Halikko","country":"FI","coord":{"lon":23.08333,"lat":60.400002}},{"_id":659433,"name":"Hailuoto","country":"FI","coord":{"lon":24.75,"lat":65.083328}},{"_id":659431,"name":"Hailuoto","country":"FI","coord":{"lon":24.71385,"lat":65.009003}},{"_id":659554,"name":"Haapavesi","country":"FI","coord":{"lon":25.366671,"lat":64.133331}},{"_id":659681,"name":"Haapajaervi","country":"FI","coord":{"lon":25.33333,"lat":63.75}},{"_id":660067,"name":"Evijärvi","country":"FI","coord":{"lon":23.41667,"lat":63.416672}},{"_id":660065,"name":"Evijarvi","country":"FI","coord":{"lon":23.48333,"lat":63.366669}},{"_id":660074,"name":"Eurajoki","country":"FI","coord":{"lon":21.75,"lat":61.299999}},{"_id":660073,"name":"Eurajoki","country":"FI","coord":{"lon":21.73333,"lat":61.200001}},{"_id":660077,"name":"Eura","country":"FI","coord":{"lon":22.133329,"lat":61.133331}},{"_id":660236,"name":"Enonkoski","country":"FI","coord":{"lon":28.91667,"lat":62.083328}},{"_id":660235,"name":"Enonkoski","country":"FI","coord":{"lon":28.933331,"lat":62.083328}},{"_id":660242,"name":"Eno","country":"FI","coord":{"lon":30.15,"lat":62.799999}},{"_id":660294,"name":"Elimaki","country":"FI","coord":{"lon":26.466669,"lat":60.716671}},{"_id":660325,"name":"Ekenaes","country":"FI","coord":{"lon":23.433889,"lat":59.973591}},{"_id":660374,"name":"Dragsfjard","country":"FI","coord":{"lon":22.48333,"lat":60.066669}},{"_id":660838,"name":"Auttoinen","country":"FI","coord":{"lon":25.08333,"lat":61.299999}},{"_id":660927,"name":"Askola","country":"FI","coord":{"lon":25.6,"lat":60.533329}},{"_id":660940,"name":"Askainen","country":"FI","coord":{"lon":21.866671,"lat":60.566669}},{"_id":660974,"name":"Artjarvi","country":"FI","coord":{"lon":26.070841,"lat":60.745441}},{"_id":661353,"name":"Alavus","country":"FI","coord":{"lon":23.5,"lat":62.583328}},{"_id":661352,"name":"Alavus","country":"FI","coord":{"lon":23.616671,"lat":62.583328}},{"_id":661363,"name":"Alavieska","country":"FI","coord":{"lon":24.299999,"lat":64.166672}},{"_id":661410,"name":"Alastaro","country":"FI","coord":{"lon":22.85,"lat":60.950001}},{"_id":661576,"name":"Alajarvi","country":"FI","coord":{"lon":23.816669,"lat":63.0}},{"_id":661601,"name":"Alaharma","country":"FI","coord":{"lon":22.85,"lat":63.23333}},{"_id":661896,"name":"Ahtari","country":"FI","coord":{"lon":24.061859,"lat":62.554031}},{"_id":662095,"name":"Aanekoski","country":"FI","coord":{"lon":25.73333,"lat":62.599998}},{"_id":846668,"name":"Pieksamaen Maalaiskunta","country":"FI","coord":{"lon":27.066669,"lat":62.283329}},{"_id":7731911,"name":"Hovila","country":"FI","coord":{"lon":29.120159,"lat":63.555431}}]}
