{"countryCode":"IE","countryName":"Ireland","countryFilePath":"IE.json","countryCityList":[{"_id":3294179,"name":"Fort Cross Roads","country":"IE","coord":{"lon":-8.49333,"lat":51.835281}},{"_id":3315176,"name":"Ballycoyle","country":"IE","coord":{"lon":-6.26861,"lat":53.181938}},{"_id":6691053,"name":"Meadow Mount","country":"IE","coord":{"lon":-6.26272,"lat":53.284721}},{"_id":3298509,"name":"Rahtnnane","country":"IE","coord":{"lon":-10.38556,"lat":52.14167}},{"_id":2964468,"name":"Durrow","country":"IE","coord":{"lon":-7.3925,"lat":52.84417}},{"_id":2962864,"name":"Listowel","country":"IE","coord":{"lon":-9.485,"lat":52.446388}},{"_id":2961192,"name":"Tipperary","country":"IE","coord":{"lon":-8.15583,"lat":52.473331}},{"_id":2962252,"name":"New Ross","country":"IE","coord":{"lon":-6.93667,"lat":52.396671}},{"_id":2961636,"name":"Saggart","country":"IE","coord":{"lon":-6.44444,"lat":53.280281}},{"_id":2961123,"name":"Tralee","country":"IE","coord":{"lon":-9.70264,"lat":52.27042}},{"_id":2963517,"name":"Ciarraí","country":"IE","coord":{"lon":-9.75,"lat":52.166672}},{"_id":3297715,"name":"Reenard Cross","country":"IE","coord":{"lon":-10.24111,"lat":51.934719}},{"_id":2964532,"name":"Dundrum","country":"IE","coord":{"lon":-6.25714,"lat":53.290668}},{"_id":2960970,"name":"Westport","country":"IE","coord":{"lon":-9.51667,"lat":53.799999}},{"_id":2963031,"name":"Laois","country":"IE","coord":{"lon":-7.4,"lat":53.0}},{"_id":2961587,"name":"Santry","country":"IE","coord":{"lon":-6.25268,"lat":53.398121}},{"_id":2966022,"name":"Bray","country":"IE","coord":{"lon":-6.09833,"lat":53.202782}},{"_id":2966839,"name":"Athlone","country":"IE","coord":{"lon":-7.95,"lat":53.433331}},{"_id":2963597,"name":"Ireland","country":"IE","coord":{"lon":-8.0,"lat":53.0}},{"_id":7521315,"name":"Munster","country":"IE","coord":{"lon":-8.71667,"lat":52.34333}},{"_id":2965139,"name":"County Cork","country":"IE","coord":{"lon":-8.58333,"lat":51.966671}},{"_id":2966377,"name":"Baltimore","country":"IE","coord":{"lon":-9.36667,"lat":51.48333}},{"_id":3294101,"name":"Ballinluska","country":"IE","coord":{"lon":-8.29417,"lat":51.789719}},{"_id":3300407,"name":"Bloomfield Cross Roads","country":"IE","coord":{"lon":-8.39667,"lat":52.138329}},{"_id":2960991,"name":"Waterford","country":"IE","coord":{"lon":-7.5,"lat":52.25}},{"_id":2961120,"name":"Tra Mhor","country":"IE","coord":{"lon":-7.15244,"lat":52.16235}},{"_id":7521314,"name":"Leinster","country":"IE","coord":{"lon":-7.02121,"lat":53.166672}},{"_id":2960963,"name":"Loch Garman","country":"IE","coord":{"lon":-6.66667,"lat":52.5}},{"_id":3302101,"name":"Ballykilliane","country":"IE","coord":{"lon":-6.48083,"lat":52.288609}},{"_id":2965479,"name":"An Clár","country":"IE","coord":{"lon":-9.0,"lat":52.833328}},{"_id":2961824,"name":"Rineanna","country":"IE","coord":{"lon":-8.95,"lat":52.683331}},{"_id":2965767,"name":"County Carlow","country":"IE","coord":{"lon":-6.83333,"lat":52.666672}},{"_id":2965768,"name":"Carlow","country":"IE","coord":{"lon":-6.92611,"lat":52.840832}},{"_id":2963435,"name":"Kildare","country":"IE","coord":{"lon":-6.75,"lat":53.166672}},{"_id":3314270,"name":"Ballyadam","country":"IE","coord":{"lon":-6.89139,"lat":53.03611}},{"_id":2960935,"name":"Wicklow","country":"IE","coord":{"lon":-6.41667,"lat":53.0}},{"_id":7521313,"name":"Connaught","country":"IE","coord":{"lon":-8.63333,"lat":53.869999}},{"_id":2964179,"name":"County Galway","country":"IE","coord":{"lon":-9.0,"lat":53.333328}},{"_id":3315458,"name":"Dooveher","country":"IE","coord":{"lon":-9.88611,"lat":53.332218}},{"_id":3316325,"name":"Coultry","country":"IE","coord":{"lon":-6.26722,"lat":53.422218}},{"_id":2960972,"name":"An Iarmhí","country":"IE","coord":{"lon":-7.5,"lat":53.5}},{"_id":2962361,"name":"An Muileann gCearr","country":"IE","coord":{"lon":-7.35,"lat":53.533329}},{"_id":2962666,"name":"Maigh Eo","country":"IE","coord":{"lon":-9.25,"lat":53.900002}},{"_id":2965471,"name":"Claremorris","country":"IE","coord":{"lon":-9.0,"lat":53.716671}},{"_id":6325505,"name":"BARNALYRA","country":"IE","coord":{"lon":-8.85326,"lat":53.924961}},{"_id":7521316,"name":"Ulster","country":"IE","coord":{"lon":-7.41667,"lat":54.361111}},{"_id":2965534,"name":"An Cabhán","country":"IE","coord":{"lon":-7.25,"lat":53.916672}},{"_id":2966572,"name":"Ballyhaise","country":"IE","coord":{"lon":-7.31667,"lat":54.049999}},{"_id":2964751,"name":"County Donegal","country":"IE","coord":{"lon":-8.0,"lat":54.916672}},{"_id":2965929,"name":"Bundoran","country":"IE","coord":{"lon":-8.28094,"lat":54.477821}},{"_id":2961028,"name":"Urbalreagh","country":"IE","coord":{"lon":-7.28528,"lat":55.336391}},{"_id":2963397,"name":"Kilkenny","country":"IE","coord":{"lon":-7.25,"lat":52.583328}},{"_id":2960964,"name":"Loch Garman","country":"IE","coord":{"lon":-6.4575,"lat":52.334171}},{"_id":3310247,"name":"Shannon","country":"IE","coord":{"lon":-8.86417,"lat":52.703892}},{"_id":3303113,"name":"Ballytarsha Cross Roads","country":"IE","coord":{"lon":-6.87472,"lat":52.749168}},{"_id":3291024,"name":"Lohercannan","country":"IE","coord":{"lon":-9.73056,"lat":52.26667}},{"_id":2963436,"name":"Kildare","country":"IE","coord":{"lon":-6.91444,"lat":53.156109}},{"_id":2960936,"name":"Wicklow","country":"IE","coord":{"lon":-6.04944,"lat":52.974998}},{"_id":3313943,"name":"Templeoran","country":"IE","coord":{"lon":-7.38333,"lat":53.400829}},{"_id":2965119,"name":"Corraun","country":"IE","coord":{"lon":-8.76667,"lat":53.716671}},{"_id":2962029,"name":"Portarlington","country":"IE","coord":{"lon":-7.19111,"lat":53.16222}},{"_id":2963940,"name":"Gortlee","country":"IE","coord":{"lon":-7.72556,"lat":54.955002}},{"_id":2965750,"name":"Carracastle","country":"IE","coord":{"lon":-8.6925,"lat":53.950279}},{"_id":2963567,"name":"Johnstown","country":"IE","coord":{"lon":-7.55417,"lat":52.749168}},{"_id":7869942,"name":"Clonlara","country":"IE","coord":{"lon":-8.55251,"lat":52.724388}},{"_id":2962661,"name":"An Mhí","country":"IE","coord":{"lon":-6.66667,"lat":53.666672}},{"_id":2964472,"name":"Dunshaughlin","country":"IE","coord":{"lon":-6.54,"lat":53.512501}},{"_id":3315550,"name":"Emlagh","country":"IE","coord":{"lon":-10.13444,"lat":53.554169}},{"_id":2963398,"name":"Kilkenny","country":"IE","coord":{"lon":-7.25222,"lat":52.654171}},{"_id":7838918,"name":"Hillview","country":"IE","coord":{"lon":-7.13154,"lat":52.258202}},{"_id":7778677,"name":"Dublin City","country":"IE","coord":{"lon":-6.24922,"lat":53.355122}},{"_id":2964574,"name":"Dublin","country":"IE","coord":{"lon":-6.26719,"lat":53.34399}},{"_id":7869980,"name":"Gurranebraher","country":"IE","coord":{"lon":-8.48857,"lat":51.903271}},{"_id":2964752,"name":"Donegal","country":"IE","coord":{"lon":-8.11667,"lat":54.650002}},{"_id":2966566,"name":"Ballyhaunis","country":"IE","coord":{"lon":-8.76667,"lat":53.76667}},{"_id":2960992,"name":"Waterford","country":"IE","coord":{"lon":-7.11194,"lat":52.258331}},{"_id":2961297,"name":"Swords","country":"IE","coord":{"lon":-6.21806,"lat":53.459721}},{"_id":2962793,"name":"Lú","country":"IE","coord":{"lon":-6.5,"lat":53.833328}},{"_id":2962794,"name":"Louth","country":"IE","coord":{"lon":-6.54139,"lat":53.948608}},{"_id":2964180,"name":"Gaillimh","country":"IE","coord":{"lon":-9.04889,"lat":53.271938}},{"_id":2962941,"name":"County Limerick","country":"IE","coord":{"lon":-8.75,"lat":52.5}},{"_id":2962943,"name":"Luimneach","country":"IE","coord":{"lon":-8.62306,"lat":52.664719}},{"_id":2963311,"name":"Killorglin","country":"IE","coord":{"lon":-9.78333,"lat":52.099998}},{"_id":2966837,"name":"Athy","country":"IE","coord":{"lon":-6.98028,"lat":52.99139}},{"_id":2962839,"name":"An Longfort","country":"IE","coord":{"lon":-7.75,"lat":53.666672}},{"_id":2962840,"name":"Longford","country":"IE","coord":{"lon":-7.8,"lat":53.73333}},{"_id":3313472,"name":"Athlone","country":"IE","coord":{"lon":-7.93722,"lat":53.422779}},{"_id":2961422,"name":"Sligo","country":"IE","coord":{"lon":-8.66667,"lat":54.25}},{"_id":3311197,"name":"Magheraboy","country":"IE","coord":{"lon":-8.49444,"lat":54.26889}},{"_id":2965381,"name":"Clondalkin","country":"IE","coord":{"lon":-6.39722,"lat":53.32444}},{"_id":2963528,"name":"Kells","country":"IE","coord":{"lon":-6.87917,"lat":53.726391}},{"_id":2962334,"name":"Naas","country":"IE","coord":{"lon":-6.66694,"lat":53.215832}},{"_id":2962187,"name":"Uíbh Fhailí","country":"IE","coord":{"lon":-7.5,"lat":53.25}},{"_id":2961086,"name":"Tullamore","country":"IE","coord":{"lon":-7.48889,"lat":53.273891}},{"_id":3315287,"name":"Rathgar","country":"IE","coord":{"lon":-6.275,"lat":53.314571}},{"_id":2961896,"name":"Rathmines","country":"IE","coord":{"lon":-6.26333,"lat":53.320278}},{"_id":7838913,"name":"Dun Laoghire","country":"IE","coord":{"lon":-6.13604,"lat":53.289742}},{"_id":2965535,"name":"Cavan","country":"IE","coord":{"lon":-7.36056,"lat":53.990829}},{"_id":2962308,"name":"Navan","country":"IE","coord":{"lon":-6.68139,"lat":53.652779}},{"_id":2961731,"name":"Roscommon","country":"IE","coord":{"lon":-8.25,"lat":53.75}},{"_id":2961732,"name":"Roscommon","country":"IE","coord":{"lon":-8.18333,"lat":53.633331}},{"_id":2963848,"name":"Greystones","country":"IE","coord":{"lon":-6.06306,"lat":53.140831}},{"_id":2964661,"name":"Drogheda","country":"IE","coord":{"lon":-6.34778,"lat":53.718891}},{"_id":2965654,"name":"Castlebar","country":"IE","coord":{"lon":-9.3,"lat":53.849998}},{"_id":7288565,"name":"South Dublin","country":"IE","coord":{"lon":-6.37739,"lat":53.28595}},{"_id":3315270,"name":"Ballymount","country":"IE","coord":{"lon":-6.36389,"lat":53.31361}},{"_id":2964540,"name":"Dundalk","country":"IE","coord":{"lon":-6.41667,"lat":54.0}},{"_id":2961284,"name":"Tallaght","country":"IE","coord":{"lon":-6.37344,"lat":53.2859}},{"_id":6697759,"name":"South Dublin","country":"IE","coord":{"lon":-6.34151,"lat":53.29026}},{"_id":3315304,"name":"Artane","country":"IE","coord":{"lon":-6.2138,"lat":53.387119}},{"_id":6691030,"name":"Coolock","country":"IE","coord":{"lon":-6.19998,"lat":53.388699}},{"_id":2961099,"name":"Tuam","country":"IE","coord":{"lon":-8.85,"lat":53.51667}},{"_id":2965260,"name":"Cobh","country":"IE","coord":{"lon":-8.29917,"lat":51.85722}},{"_id":2965230,"name":"Connolly","country":"IE","coord":{"lon":-9.19306,"lat":52.829441}},{"_id":2965573,"name":"Castlepollard","country":"IE","coord":{"lon":-7.3,"lat":53.666672}},{"_id":2962567,"name":"County Monaghan","country":"IE","coord":{"lon":-7.0,"lat":54.25}},{"_id":2962568,"name":"Monaghan","country":"IE","coord":{"lon":-6.96667,"lat":54.25}},{"_id":2964405,"name":"Ennis","country":"IE","coord":{"lon":-8.98639,"lat":52.843609}},{"_id":2963986,"name":"Glynn","country":"IE","coord":{"lon":-6.90417,"lat":52.50333}},{"_id":2961589,"name":"Sandymount","country":"IE","coord":{"lon":-6.21139,"lat":53.334999}},{"_id":2961816,"name":"Ringsend","country":"IE","coord":{"lon":-6.22639,"lat":53.341942}},{"_id":2966360,"name":"Bansha","country":"IE","coord":{"lon":-8.0625,"lat":52.448059}},{"_id":2961388,"name":"Spiddal","country":"IE","coord":{"lon":-9.30278,"lat":53.24667}},{"_id":2962465,"name":"Mountrath","country":"IE","coord":{"lon":-7.47278,"lat":52.99889}},{"_id":2967092,"name":"Abbeyleix","country":"IE","coord":{"lon":-7.3575,"lat":52.89917}},{"_id":2966131,"name":"Blackrock","country":"IE","coord":{"lon":-6.1778,"lat":53.301498}},{"_id":6691046,"name":"Sion Hill","country":"IE","coord":{"lon":-6.18642,"lat":53.303799}},{"_id":2964403,"name":"Enniscorthy","country":"IE","coord":{"lon":-6.55778,"lat":52.500832}},{"_id":3315319,"name":"Cabra","country":"IE","coord":{"lon":-6.29444,"lat":53.36694}},{"_id":3315278,"name":"Sandyford","country":"IE","coord":{"lon":-6.2253,"lat":53.2747}},{"_id":2962961,"name":"Letterkenny","country":"IE","coord":{"lon":-7.73333,"lat":54.950001}},{"_id":2962290,"name":"Droichead Nua","country":"IE","coord":{"lon":-6.79667,"lat":53.181938}},{"_id":2966356,"name":"Bantry","country":"IE","coord":{"lon":-9.45,"lat":51.683331}},{"_id":2965664,"name":"Cashel","country":"IE","coord":{"lon":-7.88556,"lat":52.515831}},{"_id":2964528,"name":"Dungarvan","country":"IE","coord":{"lon":-7.62528,"lat":52.088058}},{"_id":2966154,"name":"Birr","country":"IE","coord":{"lon":-7.91333,"lat":53.091389}},{"_id":2966110,"name":"Blanchardstown","country":"IE","coord":{"lon":-6.37556,"lat":53.388062}},{"_id":3315268,"name":"Belgard","country":"IE","coord":{"lon":-6.39667,"lat":53.303059}},{"_id":2965353,"name":"Cluain Meala","country":"IE","coord":{"lon":-7.70389,"lat":52.355}},{"_id":2966925,"name":"Ardee","country":"IE","coord":{"lon":-6.54056,"lat":53.859718}},{"_id":3311206,"name":"Willsborough","country":"IE","coord":{"lon":-8.44083,"lat":54.29417}},{"_id":3316393,"name":"Smithstown","country":"IE","coord":{"lon":-6.29972,"lat":53.685001}},{"_id":2962974,"name":"Leixlip","country":"IE","coord":{"lon":-6.49556,"lat":53.365829}},{"_id":2963370,"name":"Cill Airne","country":"IE","coord":{"lon":-9.51667,"lat":52.049999}},{"_id":3315315,"name":"Ballymun","country":"IE","coord":{"lon":-6.26693,"lat":53.398071}},{"_id":3310979,"name":"Claddagh","country":"IE","coord":{"lon":-8.90806,"lat":54.022781}},{"_id":2964547,"name":"Dunboyne","country":"IE","coord":{"lon":-6.46667,"lat":53.400002}},{"_id":2965913,"name":"Bunratty","country":"IE","coord":{"lon":-8.81556,"lat":52.696671}},{"_id":3314339,"name":"Ballydavis","country":"IE","coord":{"lon":-7.24556,"lat":53.047218}},{"_id":6691007,"name":"Goatstown","country":"IE","coord":{"lon":-6.23019,"lat":53.29221}},{"_id":2962668,"name":"Maynooth","country":"IE","coord":{"lon":-6.59361,"lat":53.384998}},{"_id":2961872,"name":"Ratoath","country":"IE","coord":{"lon":-6.4625,"lat":53.50806}},{"_id":2964892,"name":"Dalkey","country":"IE","coord":{"lon":-6.10028,"lat":53.278332}},{"_id":2964724,"name":"Doolin","country":"IE","coord":{"lon":-9.39333,"lat":53.022499}},{"_id":2961312,"name":"Summerhill","country":"IE","coord":{"lon":-6.73639,"lat":53.47694}},{"_id":2966044,"name":"Boyle","country":"IE","coord":{"lon":-8.3,"lat":53.966671}},{"_id":2961327,"name":"Strokestown","country":"IE","coord":{"lon":-8.1,"lat":53.783329}},{"_id":3312466,"name":"Woodpark","country":"IE","coord":{"lon":-9.065,"lat":53.375832}},{"_id":2962084,"name":"Pallas","country":"IE","coord":{"lon":-7.7,"lat":53.566669}},{"_id":2963722,"name":"Howth","country":"IE","coord":{"lon":-6.06528,"lat":53.387779}},{"_id":2965536,"name":"Causeway","country":"IE","coord":{"lon":-9.73194,"lat":52.41333}},{"_id":2966778,"name":"Ballina","country":"IE","coord":{"lon":-9.16667,"lat":54.116669}},{"_id":2962725,"name":"Malahide","country":"IE","coord":{"lon":-6.15444,"lat":53.450829}},{"_id":2964745,"name":"Donnybrook","country":"IE","coord":{"lon":-6.22274,"lat":53.313751}},{"_id":3315432,"name":"Fox and Geese","country":"IE","coord":{"lon":-6.35583,"lat":53.323608}},{"_id":2961107,"name":"Trim","country":"IE","coord":{"lon":-6.79167,"lat":53.555}},{"_id":2960926,"name":"Willbrook","country":"IE","coord":{"lon":-6.31194,"lat":53.29361}},{"_id":3315404,"name":"Templeogue","country":"IE","coord":{"lon":-6.30889,"lat":53.29528}},{"_id":2963169,"name":"Kingscourt","country":"IE","coord":{"lon":-6.80556,"lat":53.908058}},{"_id":2964102,"name":"Glasnevin","country":"IE","coord":{"lon":-6.26417,"lat":53.38028}},{"_id":3290679,"name":"Raheen","country":"IE","coord":{"lon":-9.24417,"lat":52.054722}},{"_id":2963522,"name":"Kenmare","country":"IE","coord":{"lon":-9.58333,"lat":51.883331}},{"_id":2964303,"name":"Finglas","country":"IE","coord":{"lon":-6.29694,"lat":53.389172}},{"_id":3315279,"name":"Leopardstown","country":"IE","coord":{"lon":-6.19972,"lat":53.26833}},{"_id":2962217,"name":"Nobber","country":"IE","coord":{"lon":-6.75056,"lat":53.822781}},{"_id":3315295,"name":"Ranelagh","country":"IE","coord":{"lon":-6.25504,"lat":53.32526}},{"_id":2964436,"name":"Edenderry","country":"IE","coord":{"lon":-7.04972,"lat":53.34528}},{"_id":2964963,"name":"Crumlin","country":"IE","coord":{"lon":-6.32861,"lat":53.324169}},{"_id":3313053,"name":"Feebrack","country":"IE","coord":{"lon":-8.335,"lat":53.14806}},{"_id":2966870,"name":"Ashbourne","country":"IE","coord":{"lon":-6.42722,"lat":53.51083}},{"_id":2965372,"name":"Clonee","country":"IE","coord":{"lon":-6.44417,"lat":53.411671}},{"_id":2962785,"name":"Lucan","country":"IE","coord":{"lon":-6.43889,"lat":53.359169}},{"_id":2962997,"name":"Leap","country":"IE","coord":{"lon":-9.13,"lat":51.592499}},{"_id":2965408,"name":"Cloghran","country":"IE","coord":{"lon":-6.22639,"lat":53.433891}},{"_id":2966753,"name":"Ballinasloe","country":"IE","coord":{"lon":-8.21944,"lat":53.327499}},{"_id":2963218,"name":"Kilrush","country":"IE","coord":{"lon":-9.48333,"lat":52.639721}},{"_id":2961911,"name":"Rathfarnham","country":"IE","coord":{"lon":-6.28278,"lat":53.30056}},{"_id":2961730,"name":"Roscrea","country":"IE","coord":{"lon":-7.80167,"lat":52.951111}},{"_id":2965529,"name":"Celbridge","country":"IE","coord":{"lon":-6.54361,"lat":53.338612}},{"_id":2962262,"name":"Newmarket on Fergus","country":"IE","coord":{"lon":-8.89556,"lat":52.759998}},{"_id":3315282,"name":"Sallynoggin","country":"IE","coord":{"lon":-6.14058,"lat":53.279171}},{"_id":2966848,"name":"Athboy","country":"IE","coord":{"lon":-6.92056,"lat":53.61861}},{"_id":2961929,"name":"Rathcoole","country":"IE","coord":{"lon":-6.47278,"lat":53.28278}},{"_id":2961214,"name":"Thurles","country":"IE","coord":{"lon":-7.80222,"lat":52.681938}},{"_id":2965504,"name":"Churchtown","country":"IE","coord":{"lon":-9.68333,"lat":52.066669}},{"_id":2961651,"name":"An Ros","country":"IE","coord":{"lon":-6.09308,"lat":53.522301}},{"_id":2963155,"name":"Kinsale","country":"IE","coord":{"lon":-8.53056,"lat":51.7075}},{"_id":3301879,"name":"Rochestown","country":"IE","coord":{"lon":-6.76444,"lat":52.284168}},{"_id":2963341,"name":"Killeigh","country":"IE","coord":{"lon":-7.44944,"lat":53.213329}},{"_id":2654332,"name":"Buncrana","country":"IE","coord":{"lon":-7.45,"lat":55.133331}},{"_id":2961362,"name":"Stillorgan","country":"IE","coord":{"lon":-6.19487,"lat":53.290489}},{"_id":6691008,"name":"Kilmacud","country":"IE","coord":{"lon":-6.21539,"lat":53.287029}},{"_id":2964782,"name":"Dingle","country":"IE","coord":{"lon":-10.26889,"lat":52.140831}},{"_id":2962580,"name":"Moate","country":"IE","coord":{"lon":-7.71667,"lat":53.549999}},{"_id":3311141,"name":"Derry","country":"IE","coord":{"lon":-8.32583,"lat":54.08778}},{"_id":3312394,"name":"Ballybaan","country":"IE","coord":{"lon":-9.0075,"lat":53.28611}},{"_id":2966370,"name":"Bandon","country":"IE","coord":{"lon":-8.7425,"lat":51.746941}},{"_id":2962476,"name":"Mountmellick","country":"IE","coord":{"lon":-7.32,"lat":53.113609}},{"_id":3315335,"name":"Annfield","country":"IE","coord":{"lon":-6.40556,"lat":53.374439}},{"_id":2961299,"name":"Swinford","country":"IE","coord":{"lon":-8.95,"lat":53.950001}},{"_id":2964817,"name":"Derrybeg","country":"IE","coord":{"lon":-8.28944,"lat":55.083328}},{"_id":2962800,"name":"Loughrea","country":"IE","coord":{"lon":-8.56694,"lat":53.196941}},{"_id":2962304,"name":"Nenagh","country":"IE","coord":{"lon":-8.19667,"lat":52.861938}},{"_id":2965350,"name":"Clonmore","country":"IE","coord":{"lon":-6.56889,"lat":52.824718}},{"_id":2966843,"name":"Athenry","country":"IE","coord":{"lon":-8.74306,"lat":53.296391}},{"_id":2964558,"name":"Duleek","country":"IE","coord":{"lon":-6.41917,"lat":53.65667}},{"_id":2964764,"name":"Donacarney","country":"IE","coord":{"lon":-6.27917,"lat":53.713329}},{"_id":2966940,"name":"Ardagh","country":"IE","coord":{"lon":-6.74306,"lat":53.897781}},{"_id":2965604,"name":"Castleisland","country":"IE","coord":{"lon":-9.46667,"lat":52.23333}},{"_id":2963454,"name":"Kilcorney","country":"IE","coord":{"lon":-8.95,"lat":52.049999}},{"_id":2966715,"name":"Ballinrobe","country":"IE","coord":{"lon":-9.23333,"lat":53.633331}},{"_id":3312222,"name":"Furbogh","country":"IE","coord":{"lon":-9.21495,"lat":53.249401}},{"_id":3315311,"name":"Beaumont","country":"IE","coord":{"lon":-6.24056,"lat":53.391392}},{"_id":2961980,"name":"Quin","country":"IE","coord":{"lon":-8.86694,"lat":52.818611}},{"_id":2964504,"name":"Dunleer","country":"IE","coord":{"lon":-6.39611,"lat":53.834999}},{"_id":2962605,"name":"Milltown","country":"IE","coord":{"lon":-6.91306,"lat":53.981941}},{"_id":2965852,"name":"Cahersiveen","country":"IE","coord":{"lon":-10.22222,"lat":51.948608}},{"_id":2961497,"name":"Shercock","country":"IE","coord":{"lon":-6.9,"lat":54.0}},{"_id":2962026,"name":"Portlaoise","country":"IE","coord":{"lon":-7.29979,"lat":53.034409}},{"_id":2962945,"name":"Leifear","country":"IE","coord":{"lon":-7.48361,"lat":54.83194}},{"_id":2962144,"name":"Oughterard","country":"IE","coord":{"lon":-9.33333,"lat":53.416672}},{"_id":2961046,"name":"Tynagh","country":"IE","coord":{"lon":-8.3725,"lat":53.149441}},{"_id":2965944,"name":"Bruree","country":"IE","coord":{"lon":-8.66417,"lat":52.42194}},{"_id":2961208,"name":"Timahoe","country":"IE","coord":{"lon":-6.83861,"lat":53.334999}},{"_id":2966911,"name":"Ardmore","country":"IE","coord":{"lon":-7.72528,"lat":51.949169}},{"_id":2965340,"name":"Clonsilla","country":"IE","coord":{"lon":-6.41667,"lat":53.383331}},{"_id":3301942,"name":"Harristown","country":"IE","coord":{"lon":-6.64028,"lat":52.352219}},{"_id":2963217,"name":"Kilsaran","country":"IE","coord":{"lon":-6.38889,"lat":53.89056}},{"_id":2961787,"name":"Riverstown","country":"IE","coord":{"lon":-8.39444,"lat":54.131672}},{"_id":2962179,"name":"Oldcastle","country":"IE","coord":{"lon":-7.15861,"lat":53.76833}},{"_id":7838920,"name":"Kilternan","country":"IE","coord":{"lon":-6.19509,"lat":53.230438}},{"_id":3230593,"name":"Aughinish","country":"IE","coord":{"lon":-9.07944,"lat":53.165001}},{"_id":2962153,"name":"Oranmore","country":"IE","coord":{"lon":-8.92,"lat":53.26833}},{"_id":2965474,"name":"Claregalway","country":"IE","coord":{"lon":-8.945,"lat":53.338612}},{"_id":2962353,"name":"Mungret","country":"IE","coord":{"lon":-8.69667,"lat":52.63583}},{"_id":2961470,"name":"Sixmilebridge","country":"IE","coord":{"lon":-8.77417,"lat":52.74139}},{"_id":3301124,"name":"Newtown","country":"IE","coord":{"lon":-7.64333,"lat":52.068329}},{"_id":3315303,"name":"Kilbarrack","country":"IE","coord":{"lon":-6.14583,"lat":53.391392}},{"_id":3312393,"name":"Ballybrit","country":"IE","coord":{"lon":-8.99361,"lat":53.29694}},{"_id":3316260,"name":"Meelick","country":"IE","coord":{"lon":-9.20528,"lat":54.198059}},{"_id":2962345,"name":"Murrisk","country":"IE","coord":{"lon":-9.65,"lat":53.783329}},{"_id":2966396,"name":"Ballyvaghan","country":"IE","coord":{"lon":-9.15028,"lat":53.118061}},{"_id":2965367,"name":"Clones","country":"IE","coord":{"lon":-7.23333,"lat":54.183331}},{"_id":2965402,"name":"Clonakilty","country":"IE","coord":{"lon":-8.87056,"lat":51.623058}},{"_id":2961459,"name":"Skibbereen","country":"IE","coord":{"lon":-9.26667,"lat":51.549999}},{"_id":2963962,"name":"Gorey","country":"IE","coord":{"lon":-6.2925,"lat":52.674721}},{"_id":2960951,"name":"Whitegate","country":"IE","coord":{"lon":-8.37139,"lat":52.949169}},{"_id":2962975,"name":"County Leitrim","country":"IE","coord":{"lon":-8.0,"lat":54.116669}},{"_id":3311596,"name":"Gubacreeny","country":"IE","coord":{"lon":-8.28222,"lat":54.459438}},{"_id":2964846,"name":"Delvin","country":"IE","coord":{"lon":-7.0925,"lat":53.610561}},{"_id":7838916,"name":"Fairview","country":"IE","coord":{"lon":-6.23985,"lat":53.365971}},{"_id":2965715,"name":"Carrigaline","country":"IE","coord":{"lon":-8.39861,"lat":51.811668}},{"_id":2963888,"name":"Grangebellew","country":"IE","coord":{"lon":-6.33472,"lat":53.82056}},{"_id":2962310,"name":"Naul","country":"IE","coord":{"lon":-6.28972,"lat":53.58667}},{"_id":2965733,"name":"Carrickmacross","country":"IE","coord":{"lon":-6.71889,"lat":53.972778}},{"_id":2964743,"name":"Donore","country":"IE","coord":{"lon":-6.41972,"lat":53.693062}},{"_id":2964326,"name":"Fennor","country":"IE","coord":{"lon":-7.22639,"lat":52.157501}},{"_id":3310833,"name":"Greagh","country":"IE","coord":{"lon":-8.09444,"lat":54.089439}},{"_id":2964408,"name":"Emyvale","country":"IE","coord":{"lon":-6.95917,"lat":54.340561}},{"_id":3310670,"name":"Carrickroe","country":"IE","coord":{"lon":-7.02778,"lat":54.356941}},{"_id":2963970,"name":"Golan","country":"IE","coord":{"lon":-7.05,"lat":54.333328}},{"_id":2964103,"name":"Glaslough","country":"IE","coord":{"lon":-6.895,"lat":54.318611}},{"_id":2961303,"name":"Swanlinbar","country":"IE","coord":{"lon":-7.70444,"lat":54.194721}},{"_id":2965773,"name":"Carlanstown","country":"IE","coord":{"lon":-6.83944,"lat":53.757778}},{"_id":2963235,"name":"Kilnaleck","country":"IE","coord":{"lon":-7.31667,"lat":53.866669}},{"_id":2966550,"name":"Ballyjamesduff","country":"IE","coord":{"lon":-7.20278,"lat":53.86528}},{"_id":2965352,"name":"Clonmellon","country":"IE","coord":{"lon":-7.01056,"lat":53.662498}},{"_id":2960874,"name":"Yellow Furze","country":"IE","coord":{"lon":-6.57167,"lat":53.673328}},{"_id":2963885,"name":"Grangegeeth","country":"IE","coord":{"lon":-6.54667,"lat":53.762779}},{"_id":2965420,"name":"Clogherhead","country":"IE","coord":{"lon":-6.2375,"lat":53.79361}},{"_id":2962378,"name":"Mullagh","country":"IE","coord":{"lon":-6.63167,"lat":53.456669}},{"_id":2963557,"name":"Julianstown","country":"IE","coord":{"lon":-6.31917,"lat":53.677219}},{"_id":3316390,"name":"Mosney","country":"IE","coord":{"lon":-6.24083,"lat":53.666389}},{"_id":2961207,"name":"Timoleague","country":"IE","coord":{"lon":-8.77306,"lat":51.64222}},{"_id":2965887,"name":"Butlerstown","country":"IE","coord":{"lon":-8.72694,"lat":51.597221}},{"_id":3316294,"name":"Corballis","country":"IE","coord":{"lon":-6.14306,"lat":53.477501}},{"_id":2963958,"name":"Gort","country":"IE","coord":{"lon":-8.81667,"lat":53.066391}},{"_id":2963151,"name":"Kinvarra","country":"IE","coord":{"lon":-8.93361,"lat":53.139439}},{"_id":2963792,"name":"Headford","country":"IE","coord":{"lon":-9.1,"lat":53.466671}},{"_id":2961994,"name":"Prosperous","country":"IE","coord":{"lon":-6.75389,"lat":53.290279}},{"_id":2963275,"name":"Kilmallock","country":"IE","coord":{"lon":-8.57722,"lat":52.400002}},{"_id":2962587,"name":"Mitchelstown","country":"IE","coord":{"lon":-8.26806,"lat":52.265831}},{"_id":2964320,"name":"Fermoy","country":"IE","coord":{"lon":-8.27583,"lat":52.13583}},{"_id":2962714,"name":"Mallow","country":"IE","coord":{"lon":-8.63333,"lat":52.133331}},{"_id":2966101,"name":"Blessington","country":"IE","coord":{"lon":-6.5325,"lat":53.169998}},{"_id":2965649,"name":"Castleblayney","country":"IE","coord":{"lon":-6.73333,"lat":54.116669}},{"_id":2962630,"name":"Midleton","country":"IE","coord":{"lon":-8.18052,"lat":51.91526}},{"_id":2964114,"name":"Glanmire","country":"IE","coord":{"lon":-8.39972,"lat":51.915829}},{"_id":2961224,"name":"Thomastown","country":"IE","coord":{"lon":-7.13722,"lat":52.526669}},{"_id":2963460,"name":"Kilcoole","country":"IE","coord":{"lon":-6.065,"lat":53.102779}},{"_id":2961938,"name":"Rathangan","country":"IE","coord":{"lon":-6.995,"lat":53.22139}},{"_id":2965945,"name":"Bruff","country":"IE","coord":{"lon":-8.54583,"lat":52.474171}},{"_id":2963902,"name":"Granard","country":"IE","coord":{"lon":-7.5,"lat":53.76667}},{"_id":2961079,"name":"Tullow","country":"IE","coord":{"lon":-6.73694,"lat":52.800282}},{"_id":2964401,"name":"Enniskerry","country":"IE","coord":{"lon":-6.16917,"lat":53.192501}},{"_id":2963444,"name":"Kilcullen","country":"IE","coord":{"lon":-6.74444,"lat":53.13028}},{"_id":2961655,"name":"Royaloak","country":"IE","coord":{"lon":-6.98667,"lat":52.700001}},{"_id":2966784,"name":"Ballaghaderreen","country":"IE","coord":{"lon":-8.58333,"lat":53.900002}},{"_id":3313832,"name":"Kilcormac","country":"IE","coord":{"lon":-7.72556,"lat":53.174171}},{"_id":2967095,"name":"Abbeyfeale","country":"IE","coord":{"lon":-9.3025,"lat":52.38139}},{"_id":2961918,"name":"Rathdrum","country":"IE","coord":{"lon":-6.23556,"lat":52.926392}},{"_id":2965516,"name":"Rath Luirc","country":"IE","coord":{"lon":-8.68333,"lat":52.349998}},{"_id":2961607,"name":"Sallins","country":"IE","coord":{"lon":-6.66611,"lat":53.24889}},{"_id":2966668,"name":"Ballybofey","country":"IE","coord":{"lon":-7.78333,"lat":54.799999}},{"_id":2963555,"name":"Kanturk","country":"IE","coord":{"lon":-8.9,"lat":52.166672}},{"_id":2965726,"name":"Carrick-on-Suir","country":"IE","coord":{"lon":-7.41306,"lat":52.349171}},{"_id":2963472,"name":"Kilcock","country":"IE","coord":{"lon":-6.67083,"lat":53.402222}},{"_id":2966796,"name":"Bailieborough","country":"IE","coord":{"lon":-6.96667,"lat":53.916672}},{"_id":2965484,"name":"Clane","country":"IE","coord":{"lon":-6.68917,"lat":53.291389}},{"_id":2965653,"name":"Castlebellingham","country":"IE","coord":{"lon":-6.39028,"lat":53.900829}},{"_id":2961077,"name":"Tullyallen","country":"IE","coord":{"lon":-6.42278,"lat":53.736111}},{"_id":2965643,"name":"Castlecomer","country":"IE","coord":{"lon":-7.21056,"lat":52.80611}},{"_id":2962769,"name":"Lusk","country":"IE","coord":{"lon":-6.16423,"lat":53.527431}},{"_id":2966201,"name":"Belturbet","country":"IE","coord":{"lon":-7.45,"lat":54.099998}},{"_id":2965158,"name":"Cootehill","country":"IE","coord":{"lon":-7.08194,"lat":54.072498}},{"_id":2965873,"name":"Cahir","country":"IE","coord":{"lon":-7.92167,"lat":52.376942}},{"_id":2962804,"name":"Loughlinstown","country":"IE","coord":{"lon":-6.13306,"lat":53.243889}},{"_id":2964765,"name":"Donabate","country":"IE","coord":{"lon":-6.15194,"lat":53.487221}},{"_id":2962706,"name":"Manorhamilton","country":"IE","coord":{"lon":-8.17611,"lat":54.306389}},{"_id":3308992,"name":"Drumnaha","country":"IE","coord":{"lon":-8.14667,"lat":54.89056}},{"_id":2961905,"name":"Rathkeale","country":"IE","coord":{"lon":-8.93806,"lat":52.524441}},{"_id":2962283,"name":"Newcastle West","country":"IE","coord":{"lon":-9.06111,"lat":52.449169}},{"_id":2965421,"name":"Clogher","country":"IE","coord":{"lon":-9.23333,"lat":53.75}},{"_id":2961237,"name":"Templemore","country":"IE","coord":{"lon":-7.83389,"lat":52.79472}},{"_id":2963376,"name":"Killaloe","country":"IE","coord":{"lon":-8.44361,"lat":52.806671}},{"_id":2965267,"name":"Coachford","country":"IE","coord":{"lon":-8.78333,"lat":51.900002}},{"_id":2963400,"name":"Kilkee","country":"IE","coord":{"lon":-9.64417,"lat":52.679169}},{"_id":3316137,"name":"Glencullin Lower","country":"IE","coord":{"lon":-9.72972,"lat":54.180828}},{"_id":2966107,"name":"Blarney","country":"IE","coord":{"lon":-8.56667,"lat":51.933331}},{"_id":2963277,"name":"Kilmaley","country":"IE","coord":{"lon":-9.11806,"lat":52.827782}},{"_id":2965570,"name":"Castlerea","country":"IE","coord":{"lon":-8.5,"lat":53.76667}},{"_id":2962539,"name":"Moone","country":"IE","coord":{"lon":-6.815,"lat":52.975559}},{"_id":2964995,"name":"Crossabeg","country":"IE","coord":{"lon":-6.49528,"lat":52.384998}},{"_id":2960869,"name":"Youghal","country":"IE","coord":{"lon":-7.85056,"lat":51.950001}},{"_id":2966406,"name":"Ballyshannon","country":"IE","coord":{"lon":-8.18333,"lat":54.5}},{"_id":2964802,"name":"Derrymore","country":"IE","coord":{"lon":-8.57333,"lat":52.909439}},{"_id":2962745,"name":"Macroom","country":"IE","coord":{"lon":-8.95,"lat":51.900002}},{"_id":2966788,"name":"Balla","country":"IE","coord":{"lon":-9.13333,"lat":53.799999}},{"_id":2965073,"name":"Cratloe","country":"IE","coord":{"lon":-8.75972,"lat":52.695}},{"_id":2963389,"name":"Kilkishen","country":"IE","coord":{"lon":-8.74583,"lat":52.806671}},{"_id":2961096,"name":"Tulla","country":"IE","coord":{"lon":-8.76056,"lat":52.864719}},{"_id":6691005,"name":"Belfield","country":"IE","coord":{"lon":-6.22066,"lat":53.31065}},{"_id":2966371,"name":"Banagher","country":"IE","coord":{"lon":-7.98667,"lat":53.18861}},{"_id":2961920,"name":"Rathdowney","country":"IE","coord":{"lon":-7.58028,"lat":52.854721}},{"_id":3311782,"name":"Deerpark","country":"IE","coord":{"lon":-9.12611,"lat":53.000278}},{"_id":2963669,"name":"Innishannon","country":"IE","coord":{"lon":-8.65705,"lat":51.7654}},{"_id":3312236,"name":"Drimmavohaun","country":"IE","coord":{"lon":-9.20583,"lat":53.34444}},{"_id":2961960,"name":"Raheny","country":"IE","coord":{"lon":-6.18067,"lat":53.38681}},{"_id":2961523,"name":"Shankill","country":"IE","coord":{"lon":-6.12444,"lat":53.226109}},{"_id":2962459,"name":"Mountshannon","country":"IE","coord":{"lon":-8.42583,"lat":52.930561}},{"_id":3315323,"name":"Ashtown","country":"IE","coord":{"lon":-6.33056,"lat":53.375278}},{"_id":2965731,"name":"Carrickmines","country":"IE","coord":{"lon":-6.17111,"lat":53.251942}},{"_id":2961171,"name":"Togher","country":"IE","coord":{"lon":-6.30278,"lat":53.842781}},{"_id":2964524,"name":"Dungloe","country":"IE","coord":{"lon":-8.35917,"lat":54.951111}},{"_id":2966916,"name":"Ardgroom","country":"IE","coord":{"lon":-9.89556,"lat":51.740559}},{"_id":2961282,"name":"Tallow","country":"IE","coord":{"lon":-8.00806,"lat":52.092781}},{"_id":3315276,"name":"Firhouse","country":"IE","coord":{"lon":-6.33917,"lat":53.28167}},{"_id":3307633,"name":"Bunnamayne","country":"IE","coord":{"lon":-7.38861,"lat":55.030281}},{"_id":3311631,"name":"Cornagee","country":"IE","coord":{"lon":-7.90278,"lat":54.273609}},{"_id":2963421,"name":"Kilfenora","country":"IE","coord":{"lon":-9.84139,"lat":52.28083}},{"_id":2965207,"name":"Coolcullen","country":"IE","coord":{"lon":-7.12222,"lat":52.756939}},{"_id":3315281,"name":"Ballybrack","country":"IE","coord":{"lon":-6.13526,"lat":53.253868}},{"_id":2963295,"name":"Killybegs","country":"IE","coord":{"lon":-8.45,"lat":54.633331}},{"_id":2964496,"name":"Dunmanway","country":"IE","coord":{"lon":-9.11667,"lat":51.716671}},{"_id":3313946,"name":"Cappanrush","country":"IE","coord":{"lon":-7.41917,"lat":53.353611}},{"_id":3311784,"name":"Caherconnell","country":"IE","coord":{"lon":-9.1475,"lat":53.041111}},{"_id":2963426,"name":"Kildorrery","country":"IE","coord":{"lon":-8.42722,"lat":52.246109}},{"_id":3309287,"name":"Cloon","country":"IE","coord":{"lon":-7.44139,"lat":54.968891}},{"_id":3311217,"name":"Milltown","country":"IE","coord":{"lon":-8.50111,"lat":54.339439}},{"_id":2966082,"name":"Boher","country":"IE","coord":{"lon":-8.46111,"lat":52.619999}},{"_id":2966749,"name":"Ballincollig","country":"IE","coord":{"lon":-8.58333,"lat":51.883331}},{"_id":2961235,"name":"Terenure","country":"IE","coord":{"lon":-6.28528,"lat":53.309719}},{"_id":2965249,"name":"Collon","country":"IE","coord":{"lon":-6.48694,"lat":53.781109}},{"_id":2963487,"name":"Kilbride Cross Roads","country":"IE","coord":{"lon":-6.39639,"lat":53.456108}},{"_id":3315280,"name":"Foxrock","country":"IE","coord":{"lon":-6.17417,"lat":53.26667}},{"_id":3292102,"name":"Glantane","country":"IE","coord":{"lon":-9.06139,"lat":51.999722}},{"_id":2962010,"name":"Portumna","country":"IE","coord":{"lon":-8.21889,"lat":53.089169}},{"_id":2963963,"name":"Goresbridge","country":"IE","coord":{"lon":-6.99472,"lat":52.631111}},{"_id":3290748,"name":"Aghacurreen","country":"IE","coord":{"lon":-9.56528,"lat":52.089722}},{"_id":6691049,"name":"Kilester","country":"IE","coord":{"lon":-6.20573,"lat":53.378311}},{"_id":3292071,"name":"Beenalaght","country":"IE","coord":{"lon":-8.74611,"lat":52.028889}},{"_id":2961364,"name":"Stepaside","country":"IE","coord":{"lon":-6.21361,"lat":53.252499}},{"_id":3315322,"name":"Walkinstown","country":"IE","coord":{"lon":-6.33963,"lat":53.329639}},{"_id":2962851,"name":"Lixnaw","country":"IE","coord":{"lon":-9.61694,"lat":52.40556}},{"_id":2965896,"name":"Burtonport","country":"IE","coord":{"lon":-8.43111,"lat":54.985561}},{"_id":2964352,"name":"Farranfore","country":"IE","coord":{"lon":-9.55,"lat":52.166672}},{"_id":2966842,"name":"Athgarvan","country":"IE","coord":{"lon":-6.805,"lat":53.153889}},{"_id":2964822,"name":"Derrinturn","country":"IE","coord":{"lon":-6.94111,"lat":53.341671}},{"_id":2966529,"name":"Ballylynan","country":"IE","coord":{"lon":-7.04222,"lat":52.943611}},{"_id":2965356,"name":"Clonmany","country":"IE","coord":{"lon":-7.41667,"lat":55.26667}},{"_id":3309350,"name":"Edentober","country":"IE","coord":{"lon":-6.3475,"lat":54.10833}},{"_id":2966689,"name":"Ballon","country":"IE","coord":{"lon":-6.76778,"lat":52.740559}},{"_id":2961910,"name":"Rathfeigh","country":"IE","coord":{"lon":-6.48611,"lat":53.593609}},{"_id":3230815,"name":"Curragh","country":"IE","coord":{"lon":-7.7175,"lat":51.962219}},{"_id":2964409,"name":"Emo","country":"IE","coord":{"lon":-7.21,"lat":53.096111}},{"_id":2964529,"name":"Dunganstown","country":"IE","coord":{"lon":-6.97444,"lat":52.342781}},{"_id":3302279,"name":"The Rower","country":"IE","coord":{"lon":-6.95694,"lat":52.455559}},{"_id":2966608,"name":"Ballyduff","country":"IE","coord":{"lon":-8.05361,"lat":52.146671}},{"_id":2961409,"name":"Sneem","country":"IE","coord":{"lon":-9.9,"lat":51.833328}},{"_id":2963301,"name":"Killucan","country":"IE","coord":{"lon":-7.1425,"lat":53.51194}},{"_id":2962019,"name":"Portmarnock","country":"IE","coord":{"lon":-6.1375,"lat":53.423061}},{"_id":2965467,"name":"Clarina","country":"IE","coord":{"lon":-8.72889,"lat":52.632221}},{"_id":2966981,"name":"Annaghdown","country":"IE","coord":{"lon":-9.06639,"lat":53.392502}},{"_id":2965727,"name":"Carrick-on-Shannon","country":"IE","coord":{"lon":-8.09,"lat":53.946941}},{"_id":2965932,"name":"Bunclody","country":"IE","coord":{"lon":-6.65611,"lat":52.655281}},{"_id":2965388,"name":"Clonbur","country":"IE","coord":{"lon":-9.36667,"lat":53.533329}},{"_id":2962597,"name":"Miltown Malbay","country":"IE","coord":{"lon":-9.39833,"lat":52.855282}},{"_id":2962298,"name":"Newbawn","country":"IE","coord":{"lon":-6.78444,"lat":52.340279}},{"_id":2963162,"name":"Kinlough","country":"IE","coord":{"lon":-8.28333,"lat":54.450001}},{"_id":2964848,"name":"Delgany","country":"IE","coord":{"lon":-6.09139,"lat":53.130829}},{"_id":3311855,"name":"Capparoe","country":"IE","coord":{"lon":-8.58056,"lat":52.917221}},{"_id":2964466,"name":"Durrow Cross Roads","country":"IE","coord":{"lon":-7.51778,"lat":52.14444}},{"_id":2966585,"name":"Ballygarvan","country":"IE","coord":{"lon":-8.46389,"lat":51.827499}},{"_id":2966056,"name":"Borris in Ossory","country":"IE","coord":{"lon":-7.63639,"lat":52.93639}},{"_id":2964311,"name":"Fethard","country":"IE","coord":{"lon":-6.85167,"lat":52.191669}},{"_id":2967096,"name":"Abbeydorney","country":"IE","coord":{"lon":-9.68333,"lat":52.349998}},{"_id":2960955,"name":"Whitechurch","country":"IE","coord":{"lon":-7.74944,"lat":52.10944}},{"_id":2963640,"name":"Inniskeen","country":"IE","coord":{"lon":-6.58333,"lat":54.0}},{"_id":3309085,"name":"Meenmore","country":"IE","coord":{"lon":-8.39111,"lat":54.958889}},{"_id":2963959,"name":"Gormanston","country":"IE","coord":{"lon":-6.23778,"lat":53.64056}},{"_id":2961981,"name":"Quilty","country":"IE","coord":{"lon":-9.45083,"lat":52.81694}},{"_id":2966922,"name":"Ardfert","country":"IE","coord":{"lon":-9.78333,"lat":52.333328}},{"_id":2966857,"name":"Askeaton","country":"IE","coord":{"lon":-8.97556,"lat":52.59972}},{"_id":2964747,"name":"Doneraile","country":"IE","coord":{"lon":-8.58333,"lat":52.216671}},{"_id":2963718,"name":"Hugginstown","country":"IE","coord":{"lon":-7.24667,"lat":52.452499}},{"_id":2965857,"name":"Caherlistrane","country":"IE","coord":{"lon":-9.01667,"lat":53.5}},{"_id":2965248,"name":"Collooney","country":"IE","coord":{"lon":-8.5,"lat":54.183331}},{"_id":2962919,"name":"Lisdoonvarna","country":"IE","coord":{"lon":-9.28833,"lat":53.03278}},{"_id":2966956,"name":"Annestown","country":"IE","coord":{"lon":-7.30444,"lat":52.138062}},{"_id":2963499,"name":"Kilbeggan","country":"IE","coord":{"lon":-7.50333,"lat":53.369438}},{"_id":2966058,"name":"Borris","country":"IE","coord":{"lon":-6.9175,"lat":52.599998}},{"_id":2964985,"name":"Crosshaven","country":"IE","coord":{"lon":-8.30083,"lat":51.798328}},{"_id":2965841,"name":"Callan","country":"IE","coord":{"lon":-7.39111,"lat":52.544998}},{"_id":2965216,"name":"Coolaney","country":"IE","coord":{"lon":-8.59972,"lat":54.178059}},{"_id":2965980,"name":"Broadford","country":"IE","coord":{"lon":-8.63222,"lat":52.804722}},{"_id":3312417,"name":"Shannafreaghoge","country":"IE","coord":{"lon":-9.20556,"lat":53.275829}},{"_id":2963136,"name":"Knockaderry","country":"IE","coord":{"lon":-8.96667,"lat":52.450001}},{"_id":2965466,"name":"Clarinbridge","country":"IE","coord":{"lon":-8.8775,"lat":53.228611}},{"_id":2964233,"name":"Foxford","country":"IE","coord":{"lon":-9.11667,"lat":53.98333}},{"_id":3315082,"name":"Kilpedder","country":"IE","coord":{"lon":-6.10667,"lat":53.109169}},{"_id":3315009,"name":"Ballycullen","country":"IE","coord":{"lon":-6.20056,"lat":53.003891}},{"_id":2966208,"name":"Belmullet","country":"IE","coord":{"lon":-9.99083,"lat":54.224998}},{"_id":2962658,"name":"Meelick","country":"IE","coord":{"lon":-8.0875,"lat":53.173061}},{"_id":3313244,"name":"Craughwell","country":"IE","coord":{"lon":-8.22111,"lat":53.210831}},{"_id":2965111,"name":"Corofin","country":"IE","coord":{"lon":-9.06306,"lat":52.947781}},{"_id":2965616,"name":"Castlegregory","country":"IE","coord":{"lon":-10.0225,"lat":52.25806}},{"_id":2965396,"name":"Clonaslee","country":"IE","coord":{"lon":-7.52444,"lat":53.147499}},{"_id":3316286,"name":"Feltrim","country":"IE","coord":{"lon":-6.1775,"lat":53.43528}},{"_id":2966492,"name":"Ballymote","country":"IE","coord":{"lon":-8.51667,"lat":54.083328}},{"_id":2966690,"name":"Ballivor","country":"IE","coord":{"lon":-6.96111,"lat":53.53167}},{"_id":2966596,"name":"Ballyfarnan","country":"IE","coord":{"lon":-8.19944,"lat":54.068062}},{"_id":2961342,"name":"Straffan","country":"IE","coord":{"lon":-6.63472,"lat":53.315559}},{"_id":2964973,"name":"Falcarragh","country":"IE","coord":{"lon":-8.1,"lat":55.133331}},{"_id":2963609,"name":"Inistioge","country":"IE","coord":{"lon":-7.06278,"lat":52.488892}},{"_id":2963208,"name":"Kiltamagh","country":"IE","coord":{"lon":-9.0,"lat":53.849998}},{"_id":2961358,"name":"Stonehall","country":"IE","coord":{"lon":-8.87306,"lat":52.60722}},{"_id":2961574,"name":"Scarriff","country":"IE","coord":{"lon":-8.50917,"lat":52.898891}},{"_id":3307495,"name":"Termon","country":"IE","coord":{"lon":-7.81639,"lat":55.049171}},{"_id":2964507,"name":"Dunlavin","country":"IE","coord":{"lon":-6.70389,"lat":53.055561}},{"_id":2965226,"name":"Convoy","country":"IE","coord":{"lon":-7.66556,"lat":54.860828}},{"_id":2961481,"name":"Shrule","country":"IE","coord":{"lon":-9.08902,"lat":53.516811}},{"_id":2961884,"name":"Rathnew","country":"IE","coord":{"lon":-6.08528,"lat":52.990559}},{"_id":3313413,"name":"Kilnamanagh","country":"IE","coord":{"lon":-7.97333,"lat":53.40583}},{"_id":3300045,"name":"Leamlara","country":"IE","coord":{"lon":-8.26498,"lat":51.971661}},{"_id":2966132,"name":"Blackrock","country":"IE","coord":{"lon":-8.41,"lat":51.896938}},{"_id":2961770,"name":"Rochfortbridge","country":"IE","coord":{"lon":-7.29611,"lat":53.414169}},{"_id":2967076,"name":"Adare","country":"IE","coord":{"lon":-8.79556,"lat":52.561939}},{"_id":3305688,"name":"Ogonnelloe","country":"IE","coord":{"lon":-8.4575,"lat":52.888062}},{"_id":2961228,"name":"Terryglass","country":"IE","coord":{"lon":-8.19889,"lat":53.050282}},{"_id":2966245,"name":"Belgooly","country":"IE","coord":{"lon":-8.49,"lat":51.738892}},{"_id":2962226,"name":"Newtownlynch","country":"IE","coord":{"lon":-9.02083,"lat":53.166111}},{"_id":3313917,"name":"Kilcolgan","country":"IE","coord":{"lon":-7.77639,"lat":53.269169}},{"_id":2966555,"name":"Ballyhooly","country":"IE","coord":{"lon":-8.40056,"lat":52.149441}},{"_id":2964584,"name":"Drumshanbo","country":"IE","coord":{"lon":-8.03333,"lat":54.049999}},{"_id":2966122,"name":"Blackwater","country":"IE","coord":{"lon":-6.34528,"lat":52.446671}},{"_id":2963259,"name":"Kilmihil","country":"IE","coord":{"lon":-9.31861,"lat":52.72139}},{"_id":2962540,"name":"Mooncoin","country":"IE","coord":{"lon":-7.24833,"lat":52.28944}},{"_id":2966037,"name":"Brackhill","country":"IE","coord":{"lon":-9.7,"lat":52.166672}},{"_id":3309865,"name":"Kilmore","country":"IE","coord":{"lon":-7.07583,"lat":54.1325}},{"_id":2965413,"name":"Cloughjordan","country":"IE","coord":{"lon":-8.03556,"lat":52.940281}},{"_id":2964120,"name":"Glandore","country":"IE","coord":{"lon":-9.11889,"lat":51.573059}},{"_id":2961617,"name":"Patrickswell","country":"IE","coord":{"lon":-8.70889,"lat":52.597221}},{"_id":2964329,"name":"Fenit","country":"IE","coord":{"lon":-9.8675,"lat":52.28083}},{"_id":2966719,"name":"Ballinlough","country":"IE","coord":{"lon":-8.63333,"lat":53.73333}},{"_id":2963399,"name":"Kilkelly","country":"IE","coord":{"lon":-8.85,"lat":53.866669}},{"_id":2964052,"name":"Glenealy","country":"IE","coord":{"lon":-6.14583,"lat":52.962219}},{"_id":3301342,"name":"Carrickphilip","country":"IE","coord":{"lon":-7.3,"lat":52.200829}},{"_id":2965780,"name":"Carbury","country":"IE","coord":{"lon":-6.96583,"lat":53.358608}},{"_id":2961043,"name":"Tyrrellspass","country":"IE","coord":{"lon":-7.37361,"lat":53.388889}},{"_id":2963062,"name":"Lackagh","country":"IE","coord":{"lon":-8.86667,"lat":53.366669}},{"_id":2964589,"name":"Dromod","country":"IE","coord":{"lon":-7.91667,"lat":53.866669}},{"_id":3315306,"name":"Balgriffin","country":"IE","coord":{"lon":-6.17417,"lat":53.409439}},{"_id":2966231,"name":"Bellananagh","country":"IE","coord":{"lon":-7.41667,"lat":53.933331}},{"_id":2960948,"name":"Whitehall","country":"IE","coord":{"lon":-7.93333,"lat":53.75}},{"_id":2963736,"name":"Horse and Jockey","country":"IE","coord":{"lon":-7.77528,"lat":52.61639}},{"_id":2965645,"name":"Castlebridge","country":"IE","coord":{"lon":-6.44944,"lat":52.386391}},{"_id":2964293,"name":"Finnea","country":"IE","coord":{"lon":-7.38333,"lat":53.76667}},{"_id":3312459,"name":"Corrandulla","country":"IE","coord":{"lon":-8.99917,"lat":53.399719}},{"_id":2963998,"name":"Glin","country":"IE","coord":{"lon":-9.28278,"lat":52.570278}},{"_id":2966650,"name":"Ballycarney","country":"IE","coord":{"lon":-6.56806,"lat":52.580559}},{"_id":2966726,"name":"Ballinhassig","country":"IE","coord":{"lon":-8.53694,"lat":51.814171}},{"_id":2965834,"name":"Caltragh","country":"IE","coord":{"lon":-7.93333,"lat":53.599998}},{"_id":2961182,"name":"Tobercurry","country":"IE","coord":{"lon":-8.73333,"lat":54.049999}},{"_id":2966530,"name":"Ballylooby","country":"IE","coord":{"lon":-7.97889,"lat":52.326939}},{"_id":2966649,"name":"Belcarra","country":"IE","coord":{"lon":-9.21667,"lat":53.799999}},{"_id":2962025,"name":"Portlaw","country":"IE","coord":{"lon":-7.32056,"lat":52.28833}},{"_id":2964318,"name":"Ferns","country":"IE","coord":{"lon":-6.49972,"lat":52.588329}},{"_id":3311721,"name":"Ballagh","country":"IE","coord":{"lon":-9.23583,"lat":52.961109}},{"_id":2962472,"name":"Mount Nugent","country":"IE","coord":{"lon":-7.25,"lat":53.816669}},{"_id":2964109,"name":"Glanworth","country":"IE","coord":{"lon":-8.3575,"lat":52.186668}},{"_id":2966271,"name":"Beaufort House","country":"IE","coord":{"lon":-9.63333,"lat":52.066669}},{"_id":2964755,"name":"Donard","country":"IE","coord":{"lon":-6.61472,"lat":53.019169}},{"_id":2964152,"name":"Garristown","country":"IE","coord":{"lon":-6.38556,"lat":53.566109}},{"_id":2964976,"name":"Crosspatrick","country":"IE","coord":{"lon":-7.61139,"lat":52.773331}},{"_id":2966844,"name":"Athea","country":"IE","coord":{"lon":-9.28944,"lat":52.459721}},{"_id":3315233,"name":"Porterstown","country":"IE","coord":{"lon":-6.55139,"lat":53.246109}},{"_id":2962981,"name":"Lehinch","country":"IE","coord":{"lon":-9.34528,"lat":52.936668}},{"_id":3314744,"name":"Killure","country":"IE","coord":{"lon":-7.21556,"lat":53.348888}},{"_id":2964951,"name":"Culdaff","country":"IE","coord":{"lon":-7.16667,"lat":55.283329}},{"_id":2965761,"name":"Carndonagh","country":"IE","coord":{"lon":-7.26667,"lat":55.25}},{"_id":2965694,"name":"Carrigtwohill","country":"IE","coord":{"lon":-8.26333,"lat":51.908329}},{"_id":2963158,"name":"Kinnegad","country":"IE","coord":{"lon":-7.09972,"lat":53.452221}},{"_id":2965590,"name":"Castlemartyr","country":"IE","coord":{"lon":-8.05389,"lat":51.910278}},{"_id":6691027,"name":"Drumcondra","country":"IE","coord":{"lon":-6.2683,"lat":53.367149}},{"_id":2966667,"name":"Ballyboghil","country":"IE","coord":{"lon":-6.2625,"lat":53.52528}},{"_id":2963036,"name":"Lanesborough","country":"IE","coord":{"lon":-7.98333,"lat":53.666672}},{"_id":2964322,"name":"Ferbane","country":"IE","coord":{"lon":-7.82694,"lat":53.26944}},{"_id":2965276,"name":"Cloyne","country":"IE","coord":{"lon":-8.12444,"lat":51.862782}},{"_id":3303300,"name":"Ardattin","country":"IE","coord":{"lon":-6.70389,"lat":52.752499}},{"_id":2961231,"name":"Termonfeckin","country":"IE","coord":{"lon":-6.26778,"lat":53.763329}},{"_id":2965145,"name":"Corcreeghagh","country":"IE","coord":{"lon":-6.62361,"lat":53.957218}},{"_id":2965946,"name":"Bruckless","country":"IE","coord":{"lon":-8.38333,"lat":54.636391}},{"_id":2960987,"name":"Watergrasshill","country":"IE","coord":{"lon":-8.34417,"lat":52.011391}},{"_id":2961792,"name":"Riverstick","country":"IE","coord":{"lon":-8.49778,"lat":51.7775}},{"_id":2963283,"name":"Kilmacthomas","country":"IE","coord":{"lon":-7.42583,"lat":52.209721}},{"_id":2960924,"name":"Williamstown","country":"IE","coord":{"lon":-8.58333,"lat":53.683331}},{"_id":2964710,"name":"Doonbeg","country":"IE","coord":{"lon":-9.52278,"lat":52.731941}},{"_id":2963850,"name":"Grenagh","country":"IE","coord":{"lon":-8.60882,"lat":52.015259}},{"_id":2966357,"name":"Banteer","country":"IE","coord":{"lon":-8.9,"lat":52.116669}},{"_id":2965902,"name":"Burren","country":"IE","coord":{"lon":-9.07556,"lat":53.146671}},{"_id":2965872,"name":"Caher","country":"IE","coord":{"lon":-8.64528,"lat":52.964722}},{"_id":2962362,"name":"Mullinavat","country":"IE","coord":{"lon":-7.16472,"lat":52.367222}},{"_id":2962570,"name":"Mohill","country":"IE","coord":{"lon":-7.86667,"lat":53.916672}},{"_id":2962139,"name":"Avoca","country":"IE","coord":{"lon":-6.21694,"lat":52.852779}},{"_id":2965595,"name":"Castlelyons","country":"IE","coord":{"lon":-8.27889,"lat":52.086941}},{"_id":2964212,"name":"Frenchpark","country":"IE","coord":{"lon":-8.4,"lat":53.866669}},{"_id":2960980,"name":"Wellingtonbridge","country":"IE","coord":{"lon":-6.77833,"lat":52.263329}},{"_id":2963261,"name":"Kilmessan","country":"IE","coord":{"lon":-6.65667,"lat":53.55917}},{"_id":2967030,"name":"Aherla","country":"IE","coord":{"lon":-8.73889,"lat":51.85722}},{"_id":3299481,"name":"Rochestown","country":"IE","coord":{"lon":-8.38306,"lat":51.869999}},{"_id":2964006,"name":"Glenties","country":"IE","coord":{"lon":-8.2825,"lat":54.797501}},{"_id":2962523,"name":"Mornington","country":"IE","coord":{"lon":-6.2825,"lat":53.723331}},{"_id":2962054,"name":"Daingean","country":"IE","coord":{"lon":-7.28944,"lat":53.296108}},{"_id":2965476,"name":"Clarecastle","country":"IE","coord":{"lon":-8.96667,"lat":52.815559}},{"_id":2966531,"name":"Ballylongford","country":"IE","coord":{"lon":-9.47417,"lat":52.54583}},{"_id":2962795,"name":"Louisburgh","country":"IE","coord":{"lon":-9.81667,"lat":53.76667}},{"_id":2964339,"name":"Feakle","country":"IE","coord":{"lon":-8.64528,"lat":52.924721}},{"_id":2964763,"name":"Donadea","country":"IE","coord":{"lon":-6.74583,"lat":53.350281}},{"_id":2966625,"name":"Ballycumber","country":"IE","coord":{"lon":-7.68278,"lat":53.32444}},{"_id":2966055,"name":"Borrisokane","country":"IE","coord":{"lon":-8.12806,"lat":52.995281}},{"_id":2963600,"name":"Inveran","country":"IE","coord":{"lon":-9.42917,"lat":53.242222}},{"_id":2965632,"name":"Castledermot","country":"IE","coord":{"lon":-6.84222,"lat":52.90889}},{"_id":2964999,"name":"Croom","country":"IE","coord":{"lon":-8.71778,"lat":52.51944}},{"_id":2964642,"name":"Dromiskin","country":"IE","coord":{"lon":-6.41139,"lat":53.927502}},{"_id":2962080,"name":"Pallaskenry","country":"IE","coord":{"lon":-8.86889,"lat":52.643059}},{"_id":2961025,"name":"Urlingford","country":"IE","coord":{"lon":-7.5825,"lat":52.720558}},{"_id":2964132,"name":"Geashill","country":"IE","coord":{"lon":-7.32,"lat":53.235279}},{"_id":2961283,"name":"Tallanstown","country":"IE","coord":{"lon":-6.54639,"lat":53.922779}},{"_id":2965714,"name":"Carrigallen","country":"IE","coord":{"lon":-7.64583,"lat":53.977219}},{"_id":2963918,"name":"Gowran","country":"IE","coord":{"lon":-7.07333,"lat":52.62944}},{"_id":2966569,"name":"Ballyhale","country":"IE","coord":{"lon":-7.19639,"lat":52.46806}},{"_id":2965234,"name":"Conna","country":"IE","coord":{"lon":-8.11056,"lat":52.090832}},{"_id":2961095,"name":"Tullaghan","country":"IE","coord":{"lon":-8.33111,"lat":54.46833}},{"_id":2966684,"name":"Ballyadams","country":"IE","coord":{"lon":-7.08167,"lat":52.964169}},{"_id":2965095,"name":"Courtmacsherry","country":"IE","coord":{"lon":-8.71306,"lat":51.631939}},{"_id":2966737,"name":"Ballineen","country":"IE","coord":{"lon":-8.95694,"lat":51.736938}},{"_id":2962504,"name":"Mountcollins","country":"IE","coord":{"lon":-9.23333,"lat":52.316669}},{"_id":2963124,"name":"Knockananna","country":"IE","coord":{"lon":-6.49556,"lat":52.869999}},{"_id":2962594,"name":"Minane Bridge","country":"IE","coord":{"lon":-8.37417,"lat":51.764439}},{"_id":2967061,"name":"Aghada","country":"IE","coord":{"lon":-8.21222,"lat":51.839169}},{"_id":3300460,"name":"Castletownroche","country":"IE","coord":{"lon":-8.50389,"lat":52.151939}},{"_id":2966670,"name":"Ballyboden","country":"IE","coord":{"lon":-6.31639,"lat":53.28056}},{"_id":2961882,"name":"Rathowen","country":"IE","coord":{"lon":-7.5,"lat":53.650002}},{"_id":2964598,"name":"Drumkeeran","country":"IE","coord":{"lon":-8.15,"lat":54.166672}},{"_id":2961533,"name":"Shanagarry","country":"IE","coord":{"lon":-8.07083,"lat":51.854439}},{"_id":2963184,"name":"Kilworth","country":"IE","coord":{"lon":-8.24417,"lat":52.176392}},{"_id":2966618,"name":"Ballydehob","country":"IE","coord":{"lon":-9.46667,"lat":51.549999}},{"_id":2966496,"name":"Ballymore Eustace","country":"IE","coord":{"lon":-6.61667,"lat":53.133331}},{"_id":2963482,"name":"Kilcar","country":"IE","coord":{"lon":-8.59333,"lat":54.633888}},{"_id":2964020,"name":"Glenamaddy","country":"IE","coord":{"lon":-8.56007,"lat":53.606461}},{"_id":3305640,"name":"Castleconnell","country":"IE","coord":{"lon":-8.49944,"lat":52.71389}},{"_id":2966935,"name":"Ardara","country":"IE","coord":{"lon":-8.4075,"lat":54.764439}},{"_id":3315194,"name":"Hempstown","country":"IE","coord":{"lon":-6.50111,"lat":53.202221}},{"_id":3315332,"name":"Hartstown","country":"IE","coord":{"lon":-6.42694,"lat":53.393059}},{"_id":2961571,"name":"Scartaglin","country":"IE","coord":{"lon":-9.4,"lat":52.183331}},{"_id":2962012,"name":"Portroe","country":"IE","coord":{"lon":-8.35028,"lat":52.8825}},{"_id":2964542,"name":"Duncormick","country":"IE","coord":{"lon":-6.64583,"lat":52.225281}},{"_id":3299471,"name":"Glounthaune","country":"IE","coord":{"lon":-8.36111,"lat":51.91111}},{"_id":2963413,"name":"Kilgarvan","country":"IE","coord":{"lon":-9.45,"lat":51.900002}},{"_id":2965885,"name":"Buttevant","country":"IE","coord":{"lon":-8.66667,"lat":52.23333}},{"_id":2963455,"name":"Kilcornan","country":"IE","coord":{"lon":-8.88333,"lat":52.616669}},{"_id":2963438,"name":"Kildalkey","country":"IE","coord":{"lon":-6.90306,"lat":53.570278}},{"_id":2965436,"name":"Cloghan","country":"IE","coord":{"lon":-7.88417,"lat":53.221668}},{"_id":2964980,"name":"Crossmolina","country":"IE","coord":{"lon":-9.31667,"lat":54.099998}},{"_id":2966301,"name":"Batterstown","country":"IE","coord":{"lon":-6.53639,"lat":53.469719}},{"_id":2964143,"name":"Garryvoe","country":"IE","coord":{"lon":-8.00028,"lat":51.875561}},{"_id":2965161,"name":"Cooraclare","country":"IE","coord":{"lon":-9.42083,"lat":52.700829}},{"_id":2962045,"name":"Piltown","country":"IE","coord":{"lon":-7.34028,"lat":52.353329}},{"_id":2964025,"name":"Glenmore","country":"IE","coord":{"lon":-9.265,"lat":52.766941}},{"_id":2961894,"name":"Rathmolyon","country":"IE","coord":{"lon":-6.79861,"lat":53.490002}},{"_id":2966638,"name":"Ballyconnell","country":"IE","coord":{"lon":-7.58333,"lat":54.116669}},{"_id":3313875,"name":"Kildangan","country":"IE","coord":{"lon":-7.54806,"lat":53.309441}},{"_id":2963056,"name":"Ladysbridge","country":"IE","coord":{"lon":-8.04583,"lat":51.895279}},{"_id":2964989,"name":"Crosserlough","country":"IE","coord":{"lon":-7.28333,"lat":53.883331}},{"_id":2963336,"name":"Killeroran","country":"IE","coord":{"lon":-8.31667,"lat":53.51667}},{"_id":2965250,"name":"Collinstown","country":"IE","coord":{"lon":-7.20667,"lat":53.644169}},{"_id":3314364,"name":"Killenard","country":"IE","coord":{"lon":-7.14861,"lat":53.13306}},{"_id":2961893,"name":"Rathmore","country":"IE","coord":{"lon":-9.21667,"lat":52.083328}},{"_id":2963199,"name":"Kiltegan","country":"IE","coord":{"lon":-6.60722,"lat":52.901112}},{"_id":2963857,"name":"Greenore","country":"IE","coord":{"lon":-6.13333,"lat":54.033329}},{"_id":2964400,"name":"Ennistimon","country":"IE","coord":{"lon":-9.29222,"lat":52.944721}},{"_id":2965449,"name":"Clifden","country":"IE","coord":{"lon":-10.01667,"lat":53.48333}},{"_id":2962424,"name":"Moyne","country":"IE","coord":{"lon":-7.63333,"lat":53.900002}},{"_id":2965760,"name":"Carnew","country":"IE","coord":{"lon":-6.49444,"lat":52.708061}},{"_id":2964666,"name":"Dripsey","country":"IE","coord":{"lon":-8.75,"lat":51.916672}},{"_id":2964632,"name":"Dromahair","country":"IE","coord":{"lon":-8.3,"lat":54.23333}},{"_id":2962363,"name":"Mullinahone","country":"IE","coord":{"lon":-7.50417,"lat":52.509998}},{"_id":2963264,"name":"Kilmeedy","country":"IE","coord":{"lon":-8.9175,"lat":52.415001}},{"_id":2961972,"name":"Raharney","country":"IE","coord":{"lon":-7.0925,"lat":53.522499}},{"_id":3315247,"name":"Brittas","country":"IE","coord":{"lon":-6.45222,"lat":53.236938}},{"_id":2961924,"name":"Rathcormac","country":"IE","coord":{"lon":-8.28194,"lat":52.076939}},{"_id":2961944,"name":"Raphoe","country":"IE","coord":{"lon":-7.59833,"lat":54.874722}},{"_id":2965828,"name":"Camolin","country":"IE","coord":{"lon":-6.42056,"lat":52.615559}},{"_id":3308493,"name":"Gortahork","country":"IE","coord":{"lon":-7.75056,"lat":54.758888}},{"_id":2961855,"name":"Redcross","country":"IE","coord":{"lon":-6.14583,"lat":52.88583}},{"_id":2966515,"name":"Ballymahon","country":"IE","coord":{"lon":-7.76667,"lat":53.566669}},{"_id":2966089,"name":"Bodyke","country":"IE","coord":{"lon":-8.60111,"lat":52.883888}},{"_id":2964582,"name":"Drumsna","country":"IE","coord":{"lon":-8.0,"lat":53.933331}},{"_id":2963409,"name":"Kilglass","country":"IE","coord":{"lon":-9.05611,"lat":54.23917}},{"_id":2966375,"name":"Baltinglass","country":"IE","coord":{"lon":-6.70917,"lat":52.937222}},{"_id":2963025,"name":"Strandhill","country":"IE","coord":{"lon":-8.59333,"lat":54.271938}},{"_id":3311499,"name":"Gurteen","country":"IE","coord":{"lon":-8.31389,"lat":54.325829}},{"_id":2962160,"name":"Omeath","country":"IE","coord":{"lon":-6.26167,"lat":54.086941}},{"_id":2964225,"name":"Foynes","country":"IE","coord":{"lon":-9.11028,"lat":52.611389}},{"_id":3302374,"name":"Skeaghvasteen","country":"IE","coord":{"lon":-6.98139,"lat":52.593609}},{"_id":3286703,"name":"Ballinure","country":"IE","coord":{"lon":-8.40417,"lat":51.888889}},{"_id":2966507,"name":"Ballymoe","country":"IE","coord":{"lon":-8.46667,"lat":53.700001}},{"_id":2964077,"name":"Glenbeigh","country":"IE","coord":{"lon":-9.93778,"lat":52.05806}},{"_id":2964204,"name":"Fuerty","country":"IE","coord":{"lon":-8.26667,"lat":53.616669}},{"_id":3316342,"name":"Damastown","country":"IE","coord":{"lon":-6.30472,"lat":53.555828}},{"_id":2965463,"name":"Clashmore","country":"IE","coord":{"lon":-7.81944,"lat":52.003059}},{"_id":3309347,"name":"Cornamucklagh","country":"IE","coord":{"lon":-6.29306,"lat":54.104172}},{"_id":2963682,"name":"Inchigeelagh","country":"IE","coord":{"lon":-9.11667,"lat":51.833328}},{"_id":2962165,"name":"Oldtown","country":"IE","coord":{"lon":-6.31556,"lat":53.52528}},{"_id":2965786,"name":"Cappoquin","country":"IE","coord":{"lon":-7.85528,"lat":52.147221}},{"_id":2962707,"name":"Manorcunningham","country":"IE","coord":{"lon":-7.61667,"lat":54.950001}},{"_id":2966740,"name":"Ballindine","country":"IE","coord":{"lon":-8.96667,"lat":53.666672}},{"_id":2961344,"name":"Stradone","country":"IE","coord":{"lon":-7.23333,"lat":53.98333}},{"_id":2966760,"name":"Ballinamore","country":"IE","coord":{"lon":-7.8,"lat":54.049999}},{"_id":2963282,"name":"Kilmaganny","country":"IE","coord":{"lon":-7.32861,"lat":52.463058}},{"_id":2966646,"name":"Ballycastle","country":"IE","coord":{"lon":-9.36667,"lat":54.283329}},{"_id":2966779,"name":"Ballina","country":"IE","coord":{"lon":-8.43556,"lat":52.807781}},{"_id":2963471,"name":"Kilcogy","country":"IE","coord":{"lon":-7.41667,"lat":53.833328}},{"_id":2961288,"name":"Tagoat","country":"IE","coord":{"lon":-6.38028,"lat":52.242779}},{"_id":2965699,"name":"Carrignavar","country":"IE","coord":{"lon":-8.47972,"lat":51.988609}},{"_id":2966769,"name":"Ballinagleragh","country":"IE","coord":{"lon":-8.005,"lat":54.15694}},{"_id":2963013,"name":"Lauragh","country":"IE","coord":{"lon":-9.76667,"lat":51.75}},{"_id":2961014,"name":"Ventry","country":"IE","coord":{"lon":-10.36694,"lat":52.1325}},{"_id":3310905,"name":"Carrigans","country":"IE","coord":{"lon":-8.48972,"lat":54.107498}},{"_id":3298515,"name":"Farran","country":"IE","coord":{"lon":-10.42972,"lat":52.190559}},{"_id":2962930,"name":"Liscannor","country":"IE","coord":{"lon":-9.38583,"lat":52.941669}},{"_id":2961489,"name":"Shinrone","country":"IE","coord":{"lon":-7.92444,"lat":52.982498}},{"_id":2964395,"name":"Errill","country":"IE","coord":{"lon":-7.68528,"lat":52.858891}},{"_id":2963299,"name":"Killumney","country":"IE","coord":{"lon":-8.65,"lat":51.866669}},{"_id":2963905,"name":"Graiguenamanagh","country":"IE","coord":{"lon":-6.95472,"lat":52.540279}},{"_id":3310688,"name":"Drumgowna","country":"IE","coord":{"lon":-6.60167,"lat":53.951111}},{"_id":2966425,"name":"Ballyporeen","country":"IE","coord":{"lon":-8.10028,"lat":52.269169}},{"_id":3311954,"name":"Hollymount","country":"IE","coord":{"lon":-8.71306,"lat":53.091942}},{"_id":2966780,"name":"Ballickmoyler","country":"IE","coord":{"lon":-7.01083,"lat":52.876942}},{"_id":2966542,"name":"Ballylanders","country":"IE","coord":{"lon":-8.34583,"lat":52.372501}},{"_id":2962293,"name":"Newbliss","country":"IE","coord":{"lon":-7.135,"lat":54.156391}},{"_id":2965759,"name":"Carney","country":"IE","coord":{"lon":-8.52722,"lat":54.340561}},{"_id":2963202,"name":"Kilteely","country":"IE","coord":{"lon":-8.39917,"lat":52.521938}},{"_id":2964533,"name":"Dundrum","country":"IE","coord":{"lon":-8.04222,"lat":52.560558}},{"_id":2962276,"name":"Newcestown","country":"IE","coord":{"lon":-8.87361,"lat":51.782219}},{"_id":2961267,"name":"Tarbert","country":"IE","coord":{"lon":-9.37528,"lat":52.572781}},{"_id":2960949,"name":"Paulstown","country":"IE","coord":{"lon":-7.02222,"lat":52.68111}},{"_id":2963203,"name":"Kilteel","country":"IE","coord":{"lon":-6.52472,"lat":53.235001}},{"_id":2966767,"name":"Ballinakill","country":"IE","coord":{"lon":-7.30806,"lat":52.87389}},{"_id":2961165,"name":"Tuamgraney","country":"IE","coord":{"lon":-8.53861,"lat":52.897221}},{"_id":2963538,"name":"Keenagh","country":"IE","coord":{"lon":-7.81488,"lat":53.623161}},{"_id":2963366,"name":"Killashee","country":"IE","coord":{"lon":-7.88333,"lat":53.683331}},{"_id":2962157,"name":"Oola","country":"IE","coord":{"lon":-8.25833,"lat":52.52972}},{"_id":2963273,"name":"Kilmanagh","country":"IE","coord":{"lon":-7.42444,"lat":52.621941}},{"_id":2963323,"name":"Killinick","country":"IE","coord":{"lon":-6.45056,"lat":52.252781}},{"_id":2964735,"name":"Doochary","country":"IE","coord":{"lon":-8.20944,"lat":54.906391}},{"_id":2966700,"name":"Ballintogher","country":"IE","coord":{"lon":-8.36667,"lat":54.200001}},{"_id":7870968,"name":"Drumconrath","country":"IE","coord":{"lon":-6.65626,"lat":53.851768}},{"_id":2962083,"name":"Pallas Grean","country":"IE","coord":{"lon":-8.3525,"lat":52.547218}},{"_id":2961204,"name":"Tinahely","country":"IE","coord":{"lon":-6.46333,"lat":52.796669}},{"_id":3316293,"name":"Seafield","country":"IE","coord":{"lon":-6.17639,"lat":53.47472}},{"_id":2966692,"name":"Ballitore","country":"IE","coord":{"lon":-6.81944,"lat":53.006939}},{"_id":2967080,"name":"Aclare","country":"IE","coord":{"lon":-8.9,"lat":54.033329}},{"_id":2966342,"name":"Bearna","country":"IE","coord":{"lon":-9.14972,"lat":53.251942}},{"_id":2963105,"name":"Knockbridge","country":"IE","coord":{"lon":-6.48597,"lat":53.973202}},{"_id":2965764,"name":"Carna","country":"IE","coord":{"lon":-9.82778,"lat":53.330559}},{"_id":3305990,"name":"Kilcommon","country":"IE","coord":{"lon":-8.14389,"lat":52.69389}},{"_id":2966906,"name":"Ardnacrusha","country":"IE","coord":{"lon":-8.61667,"lat":52.683331}},{"_id":3299468,"name":"Killeena","country":"IE","coord":{"lon":-8.32583,"lat":51.94722}},{"_id":2963103,"name":"Knockcroghery","country":"IE","coord":{"lon":-8.1,"lat":53.566669}},{"_id":2963484,"name":"Kilbrittain","country":"IE","coord":{"lon":-8.69333,"lat":51.67556}},{"_id":2961055,"name":"Turloughmore","country":"IE","coord":{"lon":-8.86472,"lat":53.374722}},{"_id":2962204,"name":"Nurney","country":"IE","coord":{"lon":-6.90972,"lat":52.750561}},{"_id":2961349,"name":"Stradbally","country":"IE","coord":{"lon":-7.15278,"lat":53.01556}},{"_id":2964918,"name":"Curragha","country":"IE","coord":{"lon":-6.44667,"lat":53.536942}},{"_id":2961606,"name":"Sallybrook","country":"IE","coord":{"lon":-8.38639,"lat":51.935001}},{"_id":3300829,"name":"Murrins Cross Roads","country":"IE","coord":{"lon":-8.48472,"lat":52.355}},{"_id":2961883,"name":"Rathnure","country":"IE","coord":{"lon":-6.76306,"lat":52.49889}},{"_id":2965056,"name":"Creeslough","country":"IE","coord":{"lon":-7.9,"lat":55.116669}},{"_id":2964677,"name":"Dowra","country":"IE","coord":{"lon":-8.015,"lat":54.191109}},{"_id":2962505,"name":"Mountcharles","country":"IE","coord":{"lon":-8.19556,"lat":54.646389}},{"_id":2966054,"name":"Borrisoleigh","country":"IE","coord":{"lon":-7.95306,"lat":52.75222}},{"_id":2964457,"name":"Dysart","country":"IE","coord":{"lon":-7.45,"lat":53.466671}},{"_id":2966390,"name":"Baile Bhuirne","country":"IE","coord":{"lon":-9.16689,"lat":51.94606}},{"_id":2966817,"name":"Aughrim","country":"IE","coord":{"lon":-6.3275,"lat":52.853329}},{"_id":2964420,"name":"Elphin","country":"IE","coord":{"lon":-8.2,"lat":53.849998}},{"_id":2967039,"name":"Aglish","country":"IE","coord":{"lon":-7.8275,"lat":52.06889}},{"_id":2965251,"name":"Colbinstown","country":"IE","coord":{"lon":-6.74806,"lat":53.03167}},{"_id":2964596,"name":"Drumlish","country":"IE","coord":{"lon":-7.76667,"lat":53.816669}},{"_id":2966950,"name":"Araglin","country":"IE","coord":{"lon":-8.11611,"lat":52.208328}},{"_id":2965746,"name":"Carraroe","country":"IE","coord":{"lon":-9.58361,"lat":53.26556}},{"_id":2966528,"name":"Ballymacarbry","country":"IE","coord":{"lon":-7.74472,"lat":52.264439}},{"_id":2963079,"name":"Knocktopher","country":"IE","coord":{"lon":-7.21194,"lat":52.483608}},{"_id":2963367,"name":"Killeshandra","country":"IE","coord":{"lon":-7.53333,"lat":54.01667}},{"_id":2961491,"name":"Shillelagh","country":"IE","coord":{"lon":-6.53722,"lat":52.753891}},{"_id":2965333,"name":"Cloonacool","country":"IE","coord":{"lon":-8.7775,"lat":54.10194}},{"_id":2965602,"name":"Castlejordan","country":"IE","coord":{"lon":-7.12611,"lat":53.40028}},{"_id":2963226,"name":"Kilrane","country":"IE","coord":{"lon":-6.3525,"lat":52.241112}},{"_id":2966840,"name":"Athleague","country":"IE","coord":{"lon":-8.25,"lat":53.566669}},{"_id":2962613,"name":"Millstreet","country":"IE","coord":{"lon":-9.06667,"lat":52.066669}},{"_id":2963547,"name":"Kealkill","country":"IE","coord":{"lon":-9.39917,"lat":51.757221}},{"_id":2965833,"name":"Calverstown","country":"IE","coord":{"lon":-6.7977,"lat":53.08279}},{"_id":3314863,"name":"Rathcoffey","country":"IE","coord":{"lon":-6.6925,"lat":53.33556}},{"_id":2961874,"name":"Rathvilly","country":"IE","coord":{"lon":-6.69333,"lat":52.878891}},{"_id":3310686,"name":"Derrygorry","country":"IE","coord":{"lon":-7.05,"lat":54.40889}},{"_id":2964315,"name":"Ferrybank","country":"IE","coord":{"lon":-7.10778,"lat":52.264439}},{"_id":2966704,"name":"Ballintober","country":"IE","coord":{"lon":-8.41667,"lat":53.716671}},{"_id":2961337,"name":"Stranorlar","country":"IE","coord":{"lon":-7.76667,"lat":54.799999}},{"_id":6691002,"name":"Milltown","country":"IE","coord":{"lon":-6.2453,"lat":53.313011}},{"_id":2966420,"name":"Ballyragget","country":"IE","coord":{"lon":-7.33028,"lat":52.788891}},{"_id":2963356,"name":"Killeagh","country":"IE","coord":{"lon":-7.99778,"lat":51.942219}},{"_id":3291406,"name":"Raheenagh","country":"IE","coord":{"lon":-9.04222,"lat":52.375278}},{"_id":2963195,"name":"Kiltoom","country":"IE","coord":{"lon":-8.01667,"lat":53.466671}},{"_id":2961726,"name":"Rosenallis","country":"IE","coord":{"lon":-7.40444,"lat":53.134441}},{"_id":2963280,"name":"Kilmainham","country":"IE","coord":{"lon":-6.28333,"lat":53.333328}},{"_id":2963335,"name":"Killeshin","country":"IE","coord":{"lon":-7.00306,"lat":52.84444}},{"_id":2962057,"name":"Peterswell","country":"IE","coord":{"lon":-8.74139,"lat":53.115002}},{"_id":3309739,"name":"Culloville","country":"IE","coord":{"lon":-6.66611,"lat":54.052219}},{"_id":2965865,"name":"Caherconlish","country":"IE","coord":{"lon":-8.47028,"lat":52.593609}},{"_id":2963819,"name":"Hacketstown","country":"IE","coord":{"lon":-6.55694,"lat":52.863892}},{"_id":2962722,"name":"Malin","country":"IE","coord":{"lon":-7.26667,"lat":55.299999}},{"_id":6691001,"name":"Crumlin","country":"IE","coord":{"lon":-6.29199,"lat":53.331261}},{"_id":2962427,"name":"Moynalty","country":"IE","coord":{"lon":-6.88278,"lat":53.788609}},{"_id":2965338,"name":"Clontibret","country":"IE","coord":{"lon":-6.83833,"lat":54.203609}},{"_id":2962849,"name":"Lobinstown","country":"IE","coord":{"lon":-6.64806,"lat":53.786671}},{"_id":6691041,"name":"Dartry","country":"IE","coord":{"lon":-6.26418,"lat":53.311241}},{"_id":2963084,"name":"Knockraha","country":"IE","coord":{"lon":-8.34056,"lat":51.95639}},{"_id":2966513,"name":"Ballymakeery","country":"IE","coord":{"lon":-9.13333,"lat":51.933331}},{"_id":2966734,"name":"Ballingarry","country":"IE","coord":{"lon":-7.54,"lat":52.587219}},{"_id":2965317,"name":"Cloonboo","country":"IE","coord":{"lon":-9.01278,"lat":53.37611}},{"_id":2964308,"name":"Fiddown","country":"IE","coord":{"lon":-7.31556,"lat":52.330002}},{"_id":2963281,"name":"Kilmaine","country":"IE","coord":{"lon":-9.11667,"lat":53.583328}},{"_id":2962306,"name":"Neale","country":"IE","coord":{"lon":-9.23333,"lat":53.566669}},{"_id":2962233,"name":"Newtown Forbes","country":"IE","coord":{"lon":-7.83333,"lat":53.76667}},{"_id":2966698,"name":"Ballintra","country":"IE","coord":{"lon":-8.11972,"lat":54.576939}},{"_id":3313427,"name":"Cloonfad","country":"IE","coord":{"lon":-8.10833,"lat":53.29528}},{"_id":2965791,"name":"Cappamore","country":"IE","coord":{"lon":-8.33556,"lat":52.614441}},{"_id":2966919,"name":"Ardfinnan","country":"IE","coord":{"lon":-7.875,"lat":52.311668}},{"_id":2966520,"name":"Ballymacoda","country":"IE","coord":{"lon":-7.9325,"lat":51.889999}},{"_id":2965863,"name":"Caherdaniel","country":"IE","coord":{"lon":-10.1,"lat":51.76667}},{"_id":2961354,"name":"Stonyford","country":"IE","coord":{"lon":-7.22,"lat":52.536388}},{"_id":2966304,"name":"Bartlemy","country":"IE","coord":{"lon":-8.26583,"lat":52.048328}},{"_id":2961622,"name":"St Johnston","country":"IE","coord":{"lon":-7.46109,"lat":54.935532}},{"_id":2962640,"name":"Menlough","country":"IE","coord":{"lon":-9.06917,"lat":53.302502}},{"_id":3315294,"name":"Stacumny","country":"IE","coord":{"lon":-6.51528,"lat":53.336109}},{"_id":2966179,"name":"Bennettsbridge","country":"IE","coord":{"lon":-7.18,"lat":52.591942}},{"_id":2966663,"name":"Ballybrittas","country":"IE","coord":{"lon":-7.1375,"lat":53.10944}},{"_id":3305767,"name":"Monard","country":"IE","coord":{"lon":-8.21111,"lat":52.512501}},{"_id":2964523,"name":"Dungourney","country":"IE","coord":{"lon":-8.09722,"lat":51.96833}},{"_id":2966416,"name":"Ballyroan","country":"IE","coord":{"lon":-7.30417,"lat":52.94556}},{"_id":2964984,"name":"Crosskeys","country":"IE","coord":{"lon":-7.02,"lat":53.103611}},{"_id":2965705,"name":"Carrig East","country":"IE","coord":{"lon":-9.63333,"lat":51.933331}},{"_id":2962980,"name":"Leighlinbridge","country":"IE","coord":{"lon":-6.9725,"lat":52.736389}},{"_id":3309509,"name":"Cornafean","country":"IE","coord":{"lon":-7.48556,"lat":53.946388}},{"_id":2964240,"name":"Foulkesmill","country":"IE","coord":{"lon":-6.75056,"lat":52.310829}},{"_id":2963121,"name":"Knockanore","country":"IE","coord":{"lon":-7.88528,"lat":52.051941}},{"_id":2964671,"name":"Drimoleague","country":"IE","coord":{"lon":-9.26667,"lat":51.650002}},{"_id":2963284,"name":"Kilmacrenan","country":"IE","coord":{"lon":-7.77917,"lat":55.03083}},{"_id":2966573,"name":"Ballyhahill","country":"IE","coord":{"lon":-9.19278,"lat":52.55917}},{"_id":3311152,"name":"Ballygawley","country":"IE","coord":{"lon":-8.44639,"lat":54.192219}},{"_id":2964051,"name":"Gleneely","country":"IE","coord":{"lon":-7.68333,"lat":54.76667}},{"_id":3314416,"name":"Suncroft","country":"IE","coord":{"lon":-6.88639,"lat":53.106392}},{"_id":2963417,"name":"Kilflynn","country":"IE","coord":{"lon":-9.63333,"lat":52.349998}},{"_id":2964653,"name":"Dromard","country":"IE","coord":{"lon":-8.67611,"lat":54.240002}},{"_id":2962928,"name":"Liscarney","country":"IE","coord":{"lon":-9.55,"lat":53.73333}},{"_id":2966640,"name":"Ballycommon","country":"IE","coord":{"lon":-7.36333,"lat":53.29361}},{"_id":2963328,"name":"Killinardrish","country":"IE","coord":{"lon":-8.85,"lat":51.900002}},{"_id":3310813,"name":"Riversdale","country":"IE","coord":{"lon":-8.19583,"lat":54.003609}},{"_id":2967013,"name":"Allenwood","country":"IE","coord":{"lon":-6.89444,"lat":53.286942}},{"_id":2961849,"name":"Redhills","country":"IE","coord":{"lon":-7.31667,"lat":54.099998}},{"_id":2966590,"name":"Ballyfoyle","country":"IE","coord":{"lon":-7.23028,"lat":52.72361}},{"_id":2966617,"name":"Ballydesmond","country":"IE","coord":{"lon":-9.23333,"lat":52.183331}},{"_id":3315085,"name":"Ballynerrin","country":"IE","coord":{"lon":-6.075,"lat":53.12833}},{"_id":2966080,"name":"Boherbue","country":"IE","coord":{"lon":-9.06878,"lat":52.158508}},{"_id":2966293,"name":"Bawnboy","country":"IE","coord":{"lon":-7.67556,"lat":54.121391}},{"_id":2966248,"name":"Belclare","country":"IE","coord":{"lon":-8.93333,"lat":53.48333}},{"_id":3310956,"name":"Moylough","country":"IE","coord":{"lon":-8.69972,"lat":54.03056}},{"_id":3310349,"name":"Lavally","country":"IE","coord":{"lon":-9.07694,"lat":52.73167}},{"_id":2962549,"name":"Moneygall","country":"IE","coord":{"lon":-7.95861,"lat":52.88028}},{"_id":2966437,"name":"Ballyneety","country":"IE","coord":{"lon":-8.54694,"lat":52.596111}},{"_id":2960952,"name":"Whitegate","country":"IE","coord":{"lon":-8.22972,"lat":51.830559}},{"_id":3311710,"name":"Kilshanny","country":"IE","coord":{"lon":-9.29417,"lat":52.984718}},{"_id":2966873,"name":"Arvagh","country":"IE","coord":{"lon":-7.58333,"lat":53.916672}},{"_id":2966373,"name":"Baltray","country":"IE","coord":{"lon":-6.2675,"lat":53.740559}},{"_id":2960909,"name":"Windgap","country":"IE","coord":{"lon":-7.39972,"lat":52.465561}},{"_id":2963212,"name":"Kilsheelan","country":"IE","coord":{"lon":-7.57667,"lat":52.360279}},{"_id":2963174,"name":"Kincasslagh","country":"IE","coord":{"lon":-8.39098,"lat":55.025269}},{"_id":3314133,"name":"Wolfhill","country":"IE","coord":{"lon":-7.11861,"lat":52.903061}},{"_id":2962354,"name":"Multyfarnham","country":"IE","coord":{"lon":-7.38333,"lat":53.616669}},{"_id":2965741,"name":"Carrigart","country":"IE","coord":{"lon":-7.79778,"lat":55.174438}},{"_id":2963097,"name":"Knocklong","country":"IE","coord":{"lon":-8.40639,"lat":52.435829}},{"_id":2965934,"name":"Bunbeg","country":"IE","coord":{"lon":-8.30028,"lat":55.059719}},{"_id":3314536,"name":"Curragh Camp","country":"IE","coord":{"lon":-6.83639,"lat":53.147221}},{"_id":3315183,"name":"Ballybrew","country":"IE","coord":{"lon":-6.19944,"lat":53.203331}},{"_id":2965014,"name":"Croghan","country":"IE","coord":{"lon":-7.27722,"lat":53.340561}},{"_id":2964625,"name":"Drumbilla","country":"IE","coord":{"lon":-6.48333,"lat":54.066669}},{"_id":2961531,"name":"Shanagolden","country":"IE","coord":{"lon":-9.1025,"lat":52.572498}},{"_id":2966330,"name":"Barnesmore","country":"IE","coord":{"lon":-7.99472,"lat":54.69194}},{"_id":3315325,"name":"Windy Arbour","country":"IE","coord":{"lon":-6.24925,"lat":53.30431}},{"_id":2966834,"name":"Attanagh","country":"IE","coord":{"lon":-7.37139,"lat":52.836109}},{"_id":3291047,"name":"Knockbrack","country":"IE","coord":{"lon":-9.63167,"lat":52.333611}},{"_id":2961897,"name":"Ramelton","country":"IE","coord":{"lon":-7.64923,"lat":55.036732}},{"_id":2966683,"name":"Ballyagran","country":"IE","coord":{"lon":-8.78583,"lat":52.40139}},{"_id":2966841,"name":"Athlacca","country":"IE","coord":{"lon":-8.64861,"lat":52.45694}},{"_id":3291519,"name":"Farran","country":"IE","coord":{"lon":-8.73778,"lat":51.874439}},{"_id":2965939,"name":"Bullaun","country":"IE","coord":{"lon":-8.55167,"lat":53.246941}},{"_id":2964959,"name":"Crusheen","country":"IE","coord":{"lon":-8.89333,"lat":52.939442}},{"_id":2965689,"name":"Kerrykeel","country":"IE","coord":{"lon":-7.65,"lat":55.133331}},{"_id":2965033,"name":"Crinkill","country":"IE","coord":{"lon":-7.89722,"lat":53.077221}},{"_id":2967093,"name":"Abbeylara","country":"IE","coord":{"lon":-7.45,"lat":53.76667}},{"_id":2963428,"name":"Kildoon","country":"IE","coord":{"lon":-6.9,"lat":53.083328}},{"_id":2963156,"name":"Kinnitty","country":"IE","coord":{"lon":-7.72139,"lat":53.095558}},{"_id":2966770,"name":"Ballinagar","country":"IE","coord":{"lon":-7.335,"lat":53.264439}},{"_id":2962335,"name":"Myshall","country":"IE","coord":{"lon":-6.77833,"lat":52.685001}},{"_id":3315212,"name":"Glencullen","country":"IE","coord":{"lon":-6.21361,"lat":53.221668}},{"_id":2965424,"name":"Clogheen","country":"IE","coord":{"lon":-7.99222,"lat":52.275829}},{"_id":3316373,"name":"Clonalvy","country":"IE","coord":{"lon":-6.33667,"lat":53.589722}},{"_id":2961568,"name":"Scotshouse","country":"IE","coord":{"lon":-7.2475,"lat":54.121941}},{"_id":2962021,"name":"Portmagee","country":"IE","coord":{"lon":-10.36167,"lat":51.886108}},{"_id":2962311,"name":"Narraghmore","country":"IE","coord":{"lon":-6.83444,"lat":53.047501}},{"_id":3311053,"name":"Lecarrow","country":"IE","coord":{"lon":-8.71861,"lat":54.23111}},{"_id":3314737,"name":"Coole","country":"IE","coord":{"lon":-7.25361,"lat":53.32972}},{"_id":2964991,"name":"Crossdoney","country":"IE","coord":{"lon":-7.43333,"lat":53.952782}},{"_id":2964521,"name":"Dunhill","country":"IE","coord":{"lon":-7.25694,"lat":52.16972}},{"_id":2966378,"name":"Balrothery","country":"IE","coord":{"lon":-6.21639,"lat":53.595558}},{"_id":2965739,"name":"Carrickboy","country":"IE","coord":{"lon":-7.68333,"lat":53.633331}},{"_id":2961734,"name":"Rosbercon","country":"IE","coord":{"lon":-6.94778,"lat":52.399719}},{"_id":2962962,"name":"Letterfrack","country":"IE","coord":{"lon":-9.95,"lat":53.549999}},{"_id":3301290,"name":"Lemybrien","country":"IE","coord":{"lon":-7.52222,"lat":52.16806}},{"_id":3309631,"name":"Clifferna","country":"IE","coord":{"lon":-7.17472,"lat":53.957779}},{"_id":3310731,"name":"Slieve","country":"IE","coord":{"lon":-6.49028,"lat":54.03194}},{"_id":3302136,"name":"Lough","country":"IE","coord":{"lon":-6.39056,"lat":52.225281}},{"_id":3314152,"name":"Rosetown","country":"IE","coord":{"lon":-6.93722,"lat":52.945}},{"_id":2961206,"name":"Timolin","country":"IE","coord":{"lon":-6.81167,"lat":52.982498}},{"_id":2962224,"name":"Newtown Mount Kennedy","country":"IE","coord":{"lon":-6.11194,"lat":53.089722}},{"_id":2966756,"name":"Ballinamuck","country":"IE","coord":{"lon":-7.71667,"lat":53.866669}},{"_id":2964675,"name":"Drangan","country":"IE","coord":{"lon":-7.58806,"lat":52.516109}},{"_id":2965626,"name":"Castlefinn","country":"IE","coord":{"lon":-7.58333,"lat":54.799999}},{"_id":2964131,"name":"Geevagh","country":"IE","coord":{"lon":-8.25,"lat":54.099998}},{"_id":2963513,"name":"Keshcarrigan","country":"IE","coord":{"lon":-7.94333,"lat":54.01778}},{"_id":2966482,"name":"Ballynacarrigy","country":"IE","coord":{"lon":-7.53333,"lat":53.583328}},{"_id":2966485,"name":"Ballynacally","country":"IE","coord":{"lon":-9.06583,"lat":52.71917}},{"_id":2966743,"name":"Ballinderreen","country":"IE","coord":{"lon":-8.90639,"lat":53.18639}},{"_id":2966469,"name":"Ballynagore","country":"IE","coord":{"lon":-7.46417,"lat":53.404999}},{"_id":3309781,"name":"Tullyvin","country":"IE","coord":{"lon":-6.73333,"lat":54.105831}},{"_id":2963186,"name":"Kiltyclogher","country":"IE","coord":{"lon":-8.03667,"lat":54.35833}},{"_id":2966762,"name":"Ballinameen","country":"IE","coord":{"lon":-8.3,"lat":53.900002}},{"_id":2960928,"name":"Wilkinstown","country":"IE","coord":{"lon":-6.71306,"lat":53.735561}},{"_id":2967064,"name":"Aghabullogue","country":"IE","coord":{"lon":-8.8,"lat":51.933331}},{"_id":2964494,"name":"Dunmore","country":"IE","coord":{"lon":-8.73333,"lat":53.616669}},{"_id":2964760,"name":"Donaghmore","country":"IE","coord":{"lon":-6.36972,"lat":53.496109}},{"_id":2963385,"name":"Killadysert","country":"IE","coord":{"lon":-9.10639,"lat":52.671669}},{"_id":2963286,"name":"Kilmacow","country":"IE","coord":{"lon":-7.17167,"lat":52.30611}},{"_id":3310884,"name":"Castlebaldwin","country":"IE","coord":{"lon":-8.37611,"lat":54.07917}},{"_id":2961775,"name":"Robinstown","country":"IE","coord":{"lon":-6.72861,"lat":53.592499}},{"_id":2961002,"name":"Walterstown","country":"IE","coord":{"lon":-6.55306,"lat":53.612782}},{"_id":2961292,"name":"Taghmon","country":"IE","coord":{"lon":-6.6475,"lat":52.321671}},{"_id":2965455,"name":"Cleggan","country":"IE","coord":{"lon":-10.11667,"lat":53.549999}},{"_id":3306235,"name":"Templederry","country":"IE","coord":{"lon":-8.06167,"lat":52.77528}},{"_id":2963880,"name":"Grangemockler","country":"IE","coord":{"lon":-7.49417,"lat":52.45639}},{"_id":3302117,"name":"Davidstown","country":"IE","coord":{"lon":-6.55694,"lat":52.33778}},{"_id":2965306,"name":"Cloone","country":"IE","coord":{"lon":-7.78333,"lat":53.950001}},{"_id":2965007,"name":"Crolly","country":"IE","coord":{"lon":-8.26083,"lat":55.025002}},{"_id":2964049,"name":"Glenfarne","country":"IE","coord":{"lon":-7.98722,"lat":54.286942}},{"_id":2966479,"name":"Ballinacurra","country":"IE","coord":{"lon":-8.165,"lat":51.896111}},{"_id":2966899,"name":"Ardrahan","country":"IE","coord":{"lon":-8.80583,"lat":53.157501}},{"_id":2961580,"name":"Scalp","country":"IE","coord":{"lon":-6.58333,"lat":53.083328}},{"_id":2963331,"name":"Killimor","country":"IE","coord":{"lon":-8.28472,"lat":53.16333}},{"_id":3314589,"name":"Punchestown","country":"IE","coord":{"lon":-6.63611,"lat":53.186668}},{"_id":2965243,"name":"Commons","country":"IE","coord":{"lon":-7.54139,"lat":52.627499}},{"_id":2966709,"name":"Ballinspittle","country":"IE","coord":{"lon":-8.60028,"lat":51.667782}},{"_id":2965961,"name":"Broughal","country":"IE","coord":{"lon":-7.77528,"lat":53.190559}},{"_id":2967090,"name":"Abbeyshrule","country":"IE","coord":{"lon":-7.65,"lat":53.583328}},{"_id":2962983,"name":"Legan","country":"IE","coord":{"lon":-7.61667,"lat":53.616669}},{"_id":2964335,"name":"Fedamore","country":"IE","coord":{"lon":-8.6025,"lat":52.54528}},{"_id":2961084,"name":"Tullaroan","country":"IE","coord":{"lon":-7.43639,"lat":52.66222}},{"_id":2965821,"name":"Camross","country":"IE","coord":{"lon":-7.59056,"lat":53.003609}},{"_id":3313993,"name":"Erry","country":"IE","coord":{"lon":-7.62444,"lat":53.329441}},{"_id":2965370,"name":"Clonegal","country":"IE","coord":{"lon":-6.64528,"lat":52.690559}},{"_id":2966697,"name":"Ballintubbert","country":"IE","coord":{"lon":-7.08944,"lat":52.981392}},{"_id":2963357,"name":"Killea","country":"IE","coord":{"lon":-7.01444,"lat":52.164169}},{"_id":2966294,"name":"Bawn","country":"IE","coord":{"lon":-8.21528,"lat":52.829441}},{"_id":3316395,"name":"Colp","country":"IE","coord":{"lon":-6.29278,"lat":53.709171}},{"_id":2961061,"name":"Tulsk","country":"IE","coord":{"lon":-8.25,"lat":53.783329}},{"_id":2966075,"name":"Bohola","country":"IE","coord":{"lon":-9.05,"lat":53.900002}},{"_id":2965176,"name":"Coolrain","country":"IE","coord":{"lon":-7.56861,"lat":52.979721}},{"_id":3314264,"name":"Ardscull","country":"IE","coord":{"lon":-6.90917,"lat":53.017502}},{"_id":2961516,"name":"Shannonbridge","country":"IE","coord":{"lon":-8.03722,"lat":53.277779}},{"_id":2961650,"name":"Rushbrooke","country":"IE","coord":{"lon":-8.31667,"lat":51.849998}},{"_id":2964002,"name":"Glenville","country":"IE","coord":{"lon":-8.42472,"lat":52.043892}},{"_id":2961939,"name":"Rath","country":"IE","coord":{"lon":-7.8075,"lat":53.136108}},{"_id":2963939,"name":"Gortmore","country":"IE","coord":{"lon":-9.15944,"lat":53.388889}},{"_id":2964942,"name":"Culleens","country":"IE","coord":{"lon":-8.99194,"lat":54.213329}},{"_id":2965358,"name":"Clonlyon","country":"IE","coord":{"lon":-7.88333,"lat":53.283329}},{"_id":2965905,"name":"Burnfoot","country":"IE","coord":{"lon":-7.4,"lat":55.049999}},{"_id":2966754,"name":"Ballinascarty","country":"IE","coord":{"lon":-8.90528,"lat":51.672218}},{"_id":2964276,"name":"Flagmount","country":"IE","coord":{"lon":-8.64389,"lat":52.985828}},{"_id":2964402,"name":"Enniskean","country":"IE","coord":{"lon":-8.93806,"lat":51.741669}},{"_id":2965167,"name":"Coonagh","country":"IE","coord":{"lon":-8.68944,"lat":52.663059}},{"_id":3304371,"name":"Coolroe","country":"IE","coord":{"lon":-6.27028,"lat":52.525829}},{"_id":2964101,"name":"Glassan","country":"IE","coord":{"lon":-7.86667,"lat":53.466671}},{"_id":3308036,"name":"Graigueavoice","country":"IE","coord":{"lon":-7.46722,"lat":52.815559}},{"_id":2962911,"name":"Lisgoold","country":"IE","coord":{"lon":-8.21917,"lat":51.973331}},{"_id":2963028,"name":"Laragh","country":"IE","coord":{"lon":-6.29889,"lat":53.00444}},{"_id":2962182,"name":"Oilgate","country":"IE","coord":{"lon":-6.53889,"lat":52.42667}},{"_id":2961567,"name":"Scotstown","country":"IE","coord":{"lon":-7.065,"lat":54.2775}},{"_id":2962015,"name":"Portnoo","country":"IE","coord":{"lon":-8.46667,"lat":54.842499}},{"_id":3314600,"name":"Walshisland","country":"IE","coord":{"lon":-7.22056,"lat":53.251942}},{"_id":2961057,"name":"Turlough","country":"IE","coord":{"lon":-9.06528,"lat":53.09222}},{"_id":2963292,"name":"Killygordon","country":"IE","coord":{"lon":-7.68333,"lat":54.799999}},{"_id":2963248,"name":"Kilmovee","country":"IE","coord":{"lon":-8.68333,"lat":53.883331}},{"_id":3315434,"name":"Easton","country":"IE","coord":{"lon":-6.50944,"lat":53.368889}},{"_id":3301750,"name":"Carrigeen","country":"IE","coord":{"lon":-7.20806,"lat":52.269169}},{"_id":2966654,"name":"Ballycanew","country":"IE","coord":{"lon":-6.30306,"lat":52.608891}},{"_id":2961926,"name":"Rathcore","country":"IE","coord":{"lon":-6.84417,"lat":53.450001}},{"_id":2963742,"name":"Holycross","country":"IE","coord":{"lon":-7.86306,"lat":52.639721}},{"_id":3291994,"name":"Berrings","country":"IE","coord":{"lon":-8.69861,"lat":51.936939}},{"_id":2961876,"name":"Rathtroane","country":"IE","coord":{"lon":-6.79639,"lat":53.435558}},{"_id":3315310,"name":"Kilmore","country":"IE","coord":{"lon":-6.22806,"lat":53.396389}},{"_id":2965313,"name":"Clooncan","country":"IE","coord":{"lon":-8.66667,"lat":53.783329}},{"_id":3314689,"name":"Coolearagh","country":"IE","coord":{"lon":-6.845,"lat":53.299171}},{"_id":2961450,"name":"Slane","country":"IE","coord":{"lon":-6.54333,"lat":53.709999}},{"_id":2966454,"name":"Ballynameeltoge","country":"IE","coord":{"lon":-7.91667,"lat":54.116669}},{"_id":3315013,"name":"Trooperstown","country":"IE","coord":{"lon":-6.26583,"lat":52.996941}},{"_id":3314579,"name":"Tipperkevin","country":"IE","coord":{"lon":-6.61028,"lat":53.167221}},{"_id":2961561,"name":"Scregg East","country":"IE","coord":{"lon":-8.56667,"lat":53.533329}},{"_id":2962918,"name":"Lisdowney","country":"IE","coord":{"lon":-7.38861,"lat":52.78944}},{"_id":2967049,"name":"Aghavannagh","country":"IE","coord":{"lon":-6.41694,"lat":52.914169}},{"_id":2966990,"name":"Annacurragh","country":"IE","coord":{"lon":-6.35861,"lat":52.83889}},{"_id":2961564,"name":"Scramoge","country":"IE","coord":{"lon":-8.05,"lat":53.76667}},{"_id":2961265,"name":"Tarmon","country":"IE","coord":{"lon":-9.37889,"lat":52.538059}},{"_id":3314830,"name":"Mucklon","country":"IE","coord":{"lon":-6.83361,"lat":53.370281}},{"_id":2966077,"name":"Bohermeen","country":"IE","coord":{"lon":-6.80194,"lat":53.662781}},{"_id":3315111,"name":"Garryknock","country":"IE","coord":{"lon":-6.46111,"lat":53.073059}},{"_id":2966889,"name":"Ardsollus Bridge","country":"IE","coord":{"lon":-8.88889,"lat":52.797501}},{"_id":2963899,"name":"Graney","country":"IE","coord":{"lon":-6.79056,"lat":52.897781}},{"_id":3306996,"name":"Moglass","country":"IE","coord":{"lon":-7.71694,"lat":52.522221}},{"_id":3307807,"name":"Barrack Village","country":"IE","coord":{"lon":-7.27111,"lat":52.76944}},{"_id":3314118,"name":"Knocklead","country":"IE","coord":{"lon":-7.19556,"lat":52.921108}},{"_id":2966713,"name":"Ballinruan","country":"IE","coord":{"lon":-8.82611,"lat":52.95306}},{"_id":3315318,"name":"Cappoge","country":"IE","coord":{"lon":-6.32917,"lat":53.400829}},{"_id":2961645,"name":"Ryefield","country":"IE","coord":{"lon":-7.05861,"lat":53.788059}},{"_id":3311804,"name":"Carran","country":"IE","coord":{"lon":-9.07806,"lat":53.038059}},{"_id":3312364,"name":"Ballygarriff","country":"IE","coord":{"lon":-8.81556,"lat":53.235828}},{"_id":2962559,"name":"Monaster","country":"IE","coord":{"lon":-8.67194,"lat":52.520828}},{"_id":3313633,"name":"Clondarrig","country":"IE","coord":{"lon":-7.37528,"lat":53.05056}},{"_id":3314180,"name":"Woodfield","country":"IE","coord":{"lon":-6.67667,"lat":52.925831}},{"_id":2964990,"name":"Crossea","country":"IE","coord":{"lon":-7.63333,"lat":53.666672}},{"_id":3315091,"name":"Sraghmore","country":"IE","coord":{"lon":-6.22694,"lat":53.091389}},{"_id":3313600,"name":"Ballinrally","country":"IE","coord":{"lon":-7.63944,"lat":52.996109}},{"_id":3313303,"name":"Crossconnell","country":"IE","coord":{"lon":-8.26194,"lat":53.26944}},{"_id":3300361,"name":"Garrycloyne","country":"IE","coord":{"lon":-8.00722,"lat":52.128609}},{"_id":2961385,"name":"Spittle","country":"IE","coord":{"lon":-8.3375,"lat":52.380001}},{"_id":2966731,"name":"Ballingeary","country":"IE","coord":{"lon":-9.23333,"lat":51.849998}},{"_id":3314765,"name":"Ballyheashill","country":"IE","coord":{"lon":-7.15,"lat":53.369438}},{"_id":2965003,"name":"Crookedwood","country":"IE","coord":{"lon":-7.28333,"lat":53.599998}},{"_id":2962056,"name":"Pettigoe","country":"IE","coord":{"lon":-7.83333,"lat":54.549999}},{"_id":3301427,"name":"Curraheen","country":"IE","coord":{"lon":-7.55306,"lat":52.290562}},{"_id":2961457,"name":"Skreen","country":"IE","coord":{"lon":-8.73111,"lat":54.243328}},{"_id":2963065,"name":"Labasheeda","country":"IE","coord":{"lon":-9.24694,"lat":52.623329}},{"_id":3315200,"name":"Eadestown","country":"IE","coord":{"lon":-6.57806,"lat":53.202782}},{"_id":2965084,"name":"Craddanstown","country":"IE","coord":{"lon":-7.06611,"lat":53.547779}},{"_id":3314335,"name":"Ballytoole","country":"IE","coord":{"lon":-6.59444,"lat":52.963058}},{"_id":3300352,"name":"Castlerichard","country":"IE","coord":{"lon":-7.98278,"lat":52.131111}},{"_id":2961181,"name":"Toberdan","country":"IE","coord":{"lon":-8.06667,"lat":53.533329}},{"_id":3314919,"name":"Coan","country":"IE","coord":{"lon":-6.54306,"lat":52.96917}},{"_id":3313948,"name":"Grange and Kiltober","country":"IE","coord":{"lon":-7.44444,"lat":53.350559}},{"_id":2967066,"name":"Aghaboe","country":"IE","coord":{"lon":-7.51194,"lat":52.918892}},{"_id":3307000,"name":"Graystown","country":"IE","coord":{"lon":-7.70694,"lat":52.561111}},{"_id":2963358,"name":"Killavullen","country":"IE","coord":{"lon":-8.51389,"lat":52.145828}},{"_id":3316316,"name":"Saint Margaret’s","country":"IE","coord":{"lon":-6.30028,"lat":53.431671}},{"_id":2962819,"name":"Lorrha","country":"IE","coord":{"lon":-8.12111,"lat":53.090561}},{"_id":2964189,"name":"Galbally","country":"IE","coord":{"lon":-8.29278,"lat":52.40028}},{"_id":2964144,"name":"Garryspillane","country":"IE","coord":{"lon":-8.37944,"lat":52.412781}},{"_id":2966775,"name":"Ballinaclash","country":"IE","coord":{"lon":-6.26139,"lat":52.899719}},{"_id":2964411,"name":"Emly","country":"IE","coord":{"lon":-8.34917,"lat":52.46389}},{"_id":3315578,"name":"Tullycross","country":"IE","coord":{"lon":-9.96194,"lat":53.588329}},{"_id":2962439,"name":"Moydow","country":"IE","coord":{"lon":-7.76667,"lat":53.666672}},{"_id":3314220,"name":"Ballymaddock","country":"IE","coord":{"lon":-7.1925,"lat":53.039719}},{"_id":2962916,"name":"Lisduff","country":"IE","coord":{"lon":-7.02944,"lat":53.797218}},{"_id":2964913,"name":"Curragh West","country":"IE","coord":{"lon":-8.65,"lat":53.650002}},{"_id":3300369,"name":"Kilcoran","country":"IE","coord":{"lon":-8.08611,"lat":52.123058}},{"_id":3315787,"name":"Terrybaun","country":"IE","coord":{"lon":-9.24167,"lat":53.986111}},{"_id":2966500,"name":"Ballymore","country":"IE","coord":{"lon":-7.66667,"lat":53.48333}},{"_id":2966773,"name":"Ballinafad","country":"IE","coord":{"lon":-8.08333,"lat":53.73333}},{"_id":3313416,"name":"Cloonown","country":"IE","coord":{"lon":-7.97417,"lat":53.36639}},{"_id":3291507,"name":"Moanflugh","country":"IE","coord":{"lon":-8.9825,"lat":51.967781}},{"_id":3314213,"name":"Ballinteskin","country":"IE","coord":{"lon":-7.15417,"lat":52.988331}},{"_id":3315232,"name":"Arthurstown","country":"IE","coord":{"lon":-6.57333,"lat":53.231941}},{"_id":2966929,"name":"Ardcath","country":"IE","coord":{"lon":-6.39139,"lat":53.608059}},{"_id":2961837,"name":"Renaghmore","country":"IE","coord":{"lon":-7.53667,"lat":52.650002}},{"_id":2963016,"name":"Latton","country":"IE","coord":{"lon":-6.94806,"lat":54.069721}},{"_id":2963144,"name":"Kishkeam","country":"IE","coord":{"lon":-9.16667,"lat":52.166672}},{"_id":2967048,"name":"Aghavas","country":"IE","coord":{"lon":-7.71611,"lat":53.953892}},{"_id":2961767,"name":"Rockcorry","country":"IE","coord":{"lon":-7.01667,"lat":54.116669}},{"_id":3306680,"name":"Bouladuff","country":"IE","coord":{"lon":-7.90667,"lat":52.716671}},{"_id":2964209,"name":"Freshford","country":"IE","coord":{"lon":-7.39889,"lat":52.734169}},{"_id":2965904,"name":"Burnfort","country":"IE","coord":{"lon":-8.6,"lat":52.066669}},{"_id":2964356,"name":"Farnanes Cross Roads","country":"IE","coord":{"lon":-8.80611,"lat":51.864719}},{"_id":2966695,"name":"Ballinure","country":"IE","coord":{"lon":-7.76889,"lat":52.563061}},{"_id":2962069,"name":"Partry","country":"IE","coord":{"lon":-9.28333,"lat":53.700001}},{"_id":2963123,"name":"Knockanare","country":"IE","coord":{"lon":-8.73333,"lat":51.966671}},{"_id":2963434,"name":"Kildavin","country":"IE","coord":{"lon":-6.68667,"lat":52.681389}},{"_id":2962247,"name":"Newtownshandrum","country":"IE","coord":{"lon":-8.76667,"lat":52.349998}},{"_id":2962220,"name":"Nicker","country":"IE","coord":{"lon":-8.35333,"lat":52.561939}},{"_id":3311805,"name":"Fahee","country":"IE","coord":{"lon":-9.04444,"lat":53.036388}},{"_id":3315215,"name":"Golden Ball","country":"IE","coord":{"lon":-6.22167,"lat":53.240002}},{"_id":2963010,"name":"Lavey","country":"IE","coord":{"lon":-7.2425,"lat":53.969719}},{"_id":3316425,"name":"Hackett’s Cross","country":"IE","coord":{"lon":-6.25556,"lat":53.80167}},{"_id":3311752,"name":"Lismorahaun","country":"IE","coord":{"lon":-9.24889,"lat":53.074718}},{"_id":3314611,"name":"Killoneen","country":"IE","coord":{"lon":-7.255,"lat":53.299721}},{"_id":3313863,"name":"Barnaboy","country":"IE","coord":{"lon":-7.36806,"lat":53.315559}},{"_id":2964987,"name":"Cross Guns","country":"IE","coord":{"lon":-6.73639,"lat":53.79361}},{"_id":2965132,"name":"Cornacullew","country":"IE","coord":{"lon":-7.71667,"lat":53.883331}},{"_id":2961619,"name":"Saint Mullins","country":"IE","coord":{"lon":-6.92306,"lat":52.492779}},{"_id":2961757,"name":"Rockhill","country":"IE","coord":{"lon":-8.15,"lat":54.066669}},{"_id":2963781,"name":"Herbertstown","country":"IE","coord":{"lon":-8.46556,"lat":52.518608}},{"_id":2964613,"name":"Drumcree","country":"IE","coord":{"lon":-7.1625,"lat":53.633331}},{"_id":3310955,"name":"Carrowreagh","country":"IE","coord":{"lon":-8.7225,"lat":54.040001}},{"_id":2965050,"name":"Creeves","country":"IE","coord":{"lon":-9.03222,"lat":52.561668}},{"_id":3314301,"name":"Ballyhook","country":"IE","coord":{"lon":-6.71417,"lat":52.998058}},{"_id":2961892,"name":"Rathmore","country":"IE","coord":{"lon":-6.56444,"lat":53.21722}},{"_id":3301246,"name":"Knockboy","country":"IE","coord":{"lon":-7.67861,"lat":52.197498}},{"_id":2964535,"name":"Dunderry","country":"IE","coord":{"lon":-6.77417,"lat":53.605831}},{"_id":2965254,"name":"Collegeland","country":"IE","coord":{"lon":-6.68556,"lat":53.494999}},{"_id":3313016,"name":"Cloonmoylan","country":"IE","coord":{"lon":-8.31472,"lat":53.056938}},{"_id":2964075,"name":"Glenbreedy","country":"IE","coord":{"lon":-8.02222,"lat":52.785831}},{"_id":3314844,"name":"Nicholastown","country":"IE","coord":{"lon":-6.74056,"lat":53.419441}},{"_id":3314156,"name":"Kilkea","country":"IE","coord":{"lon":-6.89861,"lat":52.946388}},{"_id":2963338,"name":"Killenaule","country":"IE","coord":{"lon":-7.67139,"lat":52.568329}},{"_id":2966015,"name":"Bree","country":"IE","coord":{"lon":-6.60472,"lat":52.434719}},{"_id":2961642,"name":"Rylane Cross","country":"IE","coord":{"lon":-8.83333,"lat":51.98333}},{"_id":2965762,"name":"Carnaross","country":"IE","coord":{"lon":-6.95417,"lat":53.75111}},{"_id":2964588,"name":"Drumone","country":"IE","coord":{"lon":-7.15222,"lat":53.718609}},{"_id":3315145,"name":"Ballylow","country":"IE","coord":{"lon":-6.40972,"lat":53.153889}},{"_id":2962574,"name":"Modreeny","country":"IE","coord":{"lon":-8.05806,"lat":52.95472}},{"_id":3306094,"name":"Ballyoughter Bridge","country":"IE","coord":{"lon":-7.94083,"lat":52.659168}},{"_id":3314135,"name":"Kilcruise","country":"IE","coord":{"lon":-7.08806,"lat":52.904442}},{"_id":2965892,"name":"Bushfield","country":"IE","coord":{"lon":-8.35861,"lat":52.799171}},{"_id":3316376,"name":"Greenanstown","country":"IE","coord":{"lon":-6.31833,"lat":53.621941}},{"_id":2965281,"name":"Cloonusker","country":"IE","coord":{"lon":-8.57167,"lat":52.941391}},{"_id":3300673,"name":"Monalour","country":"IE","coord":{"lon":-7.90528,"lat":52.179169}},{"_id":3305475,"name":"Ballinvreena","country":"IE","coord":{"lon":-8.42556,"lat":52.396111}},{"_id":2966827,"name":"Aughboy","country":"IE","coord":{"lon":-8.54028,"lat":52.73917}},{"_id":2963903,"name":"Granabeg","country":"IE","coord":{"lon":-6.50139,"lat":53.0625}},{"_id":3315123,"name":"Lugnaskeagh","country":"IE","coord":{"lon":-6.48944,"lat":53.10667}},{"_id":3307950,"name":"Garranmaconly","country":"IE","coord":{"lon":-7.67083,"lat":52.898609}},{"_id":3313601,"name":"Srahanboy","country":"IE","coord":{"lon":-7.64,"lat":53.024719}},{"_id":3304164,"name":"Ballyroe","country":"IE","coord":{"lon":-6.39167,"lat":52.43528}},{"_id":2961175,"name":"Togher","country":"IE","coord":{"lon":-9.15556,"lat":51.781109}},{"_id":2961931,"name":"Rathconrath","country":"IE","coord":{"lon":-7.51667,"lat":53.51667}},{"_id":2962547,"name":"Monivea","country":"IE","coord":{"lon":-8.69778,"lat":53.367779}},{"_id":2965036,"name":"Creggs","country":"IE","coord":{"lon":-8.35,"lat":53.599998}},{"_id":2962884,"name":"Lispole","country":"IE","coord":{"lon":-10.16028,"lat":52.142502}},{"_id":2964419,"name":"Elton","country":"IE","coord":{"lon":-8.46111,"lat":52.428329}},{"_id":2961666,"name":"Rosturk","country":"IE","coord":{"lon":-9.71778,"lat":53.900002}},