{"countryCode":"IM","countryName":"Isle of Man","countryFilePath":"IM.json","countryCityList":[{"_id":3042225,"name":"Isle of Man","country":"IM","coord":{"lon":-4.5,"lat":54.25}},{"_id":6620382,"name":"Isle of Man","country":"IM","coord":{"lon":-4.4844,"lat":54.15052}},{"_id":3042213,"name":"Lezayre","country":"IM","coord":{"lon":-4.41667,"lat":54.316669}},{"_id":3042237,"name":"Douglas","country":"IM","coord":{"lon":-4.48333,"lat":54.150002}},{"_id":3042255,"name":"Castletown","country":"IM","coord":{"lon":-4.65365,"lat":54.074451}},{"_id":3042201,"name":"Onchan","country":"IM","coord":{"lon":-4.45324,"lat":54.17329}},{"_id":3042217,"name":"Laxey","country":"IM","coord":{"lon":-4.39985,"lat":54.230171}},{"_id":3042264,"name":"Ballasalla","country":"IM","coord":{"lon":-4.62962,"lat":54.095901}},{"_id":3042245,"name":"Crosby","country":"IM","coord":{"lon":-4.56667,"lat":54.183331}},{"_id":3042251,"name":"Colby","country":"IM","coord":{"lon":-4.70592,"lat":54.096649}},{"_id":3042220,"name":"Kirkmichael","country":"IM","coord":{"lon":-4.58748,"lat":54.285622}},{"_id":3042244,"name":"Dalby","country":"IM","coord":{"lon":-4.72923,"lat":54.168789}},{"_id":3042221,"name":"Kirk Braddon","country":"IM","coord":{"lon":-4.51667,"lat":54.166672}},{"_id":3042231,"name":"Foxdale","country":"IM","coord":{"lon":-4.61667,"lat":54.166672}},{"_id":3042174,"name":"Sulby","country":"IM","coord":{"lon":-4.47968,"lat":54.32283}},{"_id":3042210,"name":"Maughold","country":"IM","coord":{"lon":-4.31844,"lat":54.298771}},{"_id":3042271,"name":"Andreas","country":"IM","coord":{"lon":-4.43333,"lat":54.366669}},{"_id":3042185,"name":"Saint Marks","country":"IM","coord":{"lon":-4.6,"lat":54.133331}},{"_id":3042267,"name":"Ballabeg","country":"IM","coord":{"lon":-4.68333,"lat":54.099998}},{"_id":3042259,"name":"Bride","country":"IM","coord":{"lon":-4.38921,"lat":54.382561}},{"_id":3042229,"name":"Glen Maye","country":"IM","coord":{"lon":-4.7,"lat":54.183331}},{"_id":3042189,"name":"Ronaldsway","country":"IM","coord":{"lon":-4.61667,"lat":54.083328}},{"_id":3042196,"name":"Port Erin","country":"IM","coord":{"lon":-4.75099,"lat":54.084869}}]}
