{"countryCode":"KH","countryName":"Cambodia","countryFilePath":"KH.json","countryCityList":[{"_id":1821935,"name":"Ta Khmau","country":"KH","coord":{"lon":104.949997,"lat":11.48333}},{"_id":1822029,"name":"Stoeng Treng","country":"KH","coord":{"lon":105.9683,"lat":13.52586}},{"_id":1822768,"name":"Pursat","country":"KH","coord":{"lon":103.919197,"lat":12.53878}},{"_id":1822906,"name":"Phumi Veal Sre","country":"KH","coord":{"lon":104.778282,"lat":10.98081}},{"_id":1831037,"name":"Khétt Kaôh Kŏng","country":"KH","coord":{"lon":103.5,"lat":11.5}},{"_id":1831172,"name":"Khétt Kâmpóng Cham","country":"KH","coord":{"lon":105.583328,"lat":12.08333}},{"_id":1826603,"name":"Phumĭ Péam Knŏng","country":"KH","coord":{"lon":105.264053,"lat":11.99421}},{"_id":1821310,"name":"Khétt Bătdâmbâng","country":"KH","coord":{"lon":103.083328,"lat":12.91667}},{"_id":1828166,"name":"Phumĭ Kâmpov","country":"KH","coord":{"lon":103.115532,"lat":13.03857}},{"_id":1821301,"name":"Khétt Poŭthĭsăt","country":"KH","coord":{"lon":103.666672,"lat":12.33333}},{"_id":1830377,"name":"Lumphat","country":"KH","coord":{"lon":106.981583,"lat":13.48784}},{"_id":1831722,"name":"Kingdom of Cambodia","country":"KH","coord":{"lon":105.0,"lat":13.0}},{"_id":1831095,"name":"Khétt Kândal","country":"KH","coord":{"lon":105.0,"lat":11.41667}},{"_id":1830103,"name":"Krŏng Phnum Pénh","country":"KH","coord":{"lon":104.866669,"lat":11.55}},{"_id":1821306,"name":"Phnom Penh","country":"KH","coord":{"lon":104.916008,"lat":11.56245}},{"_id":1821453,"name":"Tuŏl Tumpung","country":"KH","coord":{"lon":104.906281,"lat":11.55118}},{"_id":1821992,"name":"Khétt Svay Riĕng","country":"KH","coord":{"lon":105.833328,"lat":11.16667}},{"_id":1821993,"name":"Svay Rieng","country":"KH","coord":{"lon":105.799347,"lat":11.08785}},{"_id":1821939,"name":"Khétt Takêv","country":"KH","coord":{"lon":104.833328,"lat":10.91667}},{"_id":1821940,"name":"Takev","country":"KH","coord":{"lon":104.783333,"lat":10.98333}},{"_id":1831797,"name":"Batdambang","country":"KH","coord":{"lon":103.198219,"lat":13.10271}},{"_id":1831111,"name":"Khétt Kâmpôt","country":"KH","coord":{"lon":104.333328,"lat":10.83333}},{"_id":1831112,"name":"Kampot","country":"KH","coord":{"lon":104.183327,"lat":10.61667}},{"_id":1822028,"name":"Khétt Stœ̆ng Trêng","country":"KH","coord":{"lon":106.25,"lat":13.75}},{"_id":1828491,"name":"Phumĭ Dŏng Ta Dăm","country":"KH","coord":{"lon":106.005692,"lat":13.53626}},{"_id":1822213,"name":"Khétt Siĕm Réab","country":"KH","coord":{"lon":104.0,"lat":13.5}},{"_id":1825049,"name":"Phumĭ Sândăn","country":"KH","coord":{"lon":103.80619,"lat":13.39364}},{"_id":1825664,"name":"Phumĭ Prey Snuŏl","country":"KH","coord":{"lon":104.842461,"lat":11.55681}},{"_id":1831166,"name":"Khétt Kâmpóng Chhnăng","country":"KH","coord":{"lon":104.550003,"lat":12.16667}},{"_id":1826509,"name":"Phumĭ Phlov","country":"KH","coord":{"lon":104.560204,"lat":12.2549}},{"_id":1899273,"name":"Khétt Bântéay Méan Choăy","country":"KH","coord":{"lon":103.0,"lat":13.75}},{"_id":1822207,"name":"Sisophon","country":"KH","coord":{"lon":102.973686,"lat":13.58588}},{"_id":1822214,"name":"Siemreab","country":"KH","coord":{"lon":103.849998,"lat":13.36667}},{"_id":1822676,"name":"Khétt Preăh Vĭhéar","country":"KH","coord":{"lon":105.0,"lat":13.75}},{"_id":1830098,"name":"Phnum Tbeng Meanchey","country":"KH","coord":{"lon":104.966667,"lat":13.81667}},{"_id":1830194,"name":"Paoy Pet","country":"KH","coord":{"lon":102.5625,"lat":13.65611}},{"_id":1830206,"name":"Khétt Pailĭn","country":"KH","coord":{"lon":102.599998,"lat":12.86667}},{"_id":1830205,"name":"Pailin","country":"KH","coord":{"lon":102.609283,"lat":12.84895}},{"_id":1822449,"name":"Khêtt Rôtânôkiri","country":"KH","coord":{"lon":107.116669,"lat":13.83333}},{"_id":1830468,"name":"Krong Kaoh Kong","country":"KH","coord":{"lon":102.98056,"lat":11.6175}},{"_id":1830563,"name":"Khétt Krâchéh","country":"KH","coord":{"lon":106.083328,"lat":12.66667}},{"_id":1830564,"name":"Kratie","country":"KH","coord":{"lon":106.018791,"lat":12.48811}},{"_id":1831124,"name":"Khétt Kâmpóng Thum","country":"KH","coord":{"lon":105.0,"lat":12.83333}},{"_id":1831125,"name":"Kampong Thum","country":"KH","coord":{"lon":104.888733,"lat":12.71112}},{"_id":1831132,"name":"Khétt Kâmpóng Spœ","country":"KH","coord":{"lon":104.333328,"lat":11.5}},{"_id":1831133,"name":"Kampong Spoe","country":"KH","coord":{"lon":104.533333,"lat":11.45}},{"_id":1899262,"name":"Khétt Preăh Seihânŭ","country":"KH","coord":{"lon":103.75,"lat":10.66667}},{"_id":1831142,"name":"Sihanoukville","country":"KH","coord":{"lon":103.529579,"lat":10.60932}},{"_id":1831167,"name":"Kampong Chhnang","country":"KH","coord":{"lon":104.666672,"lat":12.25}},{"_id":1831173,"name":"Kampong Cham","country":"KH","coord":{"lon":105.463501,"lat":11.99339}},{"_id":1822227,"name":"Senmonourom","country":"KH","coord":{"lon":107.199997,"lat":12.45}},{"_id":1822331,"name":"Samraong","country":"KH","coord":{"lon":105.587257,"lat":12.45262}},{"_id":1822610,"name":"Prey Veng","country":"KH","coord":{"lon":105.325333,"lat":11.48682}},{"_id":1830467,"name":"Krong Keb","country":"KH","coord":{"lon":104.316673,"lat":10.48333}},{"_id":6690237,"name":"Sen monorom","country":"KH","coord":{"lon":107.247681,"lat":12.44756}},{"_id":6942076,"name":"Banlung","country":"KH","coord":{"lon":107.004517,"lat":13.7468}}]}
