{"countryCode":"KI","countryName":"Kiribati","countryFilePath":"KI.json","countryCityList":[{"_id":7521611,"name":"Tarawa","country":"KI","coord":{"lon":172.983994,"lat":1.419}},{"_id":7601768,"name":"Bonriki Village","country":"KI","coord":{"lon":173.13887,"lat":1.38081}},{"_id":2110215,"name":"Gilbert Islands","country":"KI","coord":{"lon":172.983994,"lat":1.42}},{"_id":7521588,"name":"Butaritari","country":"KI","coord":{"lon":172.797394,"lat":3.1616}},{"_id":2110099,"name":"Tabonuea Village","country":"KI","coord":{"lon":172.82312,"lat":3.09612}},{"_id":7521586,"name":"Beru","country":"KI","coord":{"lon":175.980713,"lat":-1.32957}},{"_id":2110204,"name":"Eriko Village","country":"KI","coord":{"lon":176.002243,"lat":-1.35925}},{"_id":4030945,"name":"Republic of Kiribati","country":"KI","coord":{"lon":172.983994,"lat":1.421}},{"_id":2110257,"name":"Tarawa","country":"KI","coord":{"lon":172.976959,"lat":1.3278}},{"_id":2110070,"name":"Teaoraereke Village","country":"KI","coord":{"lon":173.011627,"lat":1.33309}},{"_id":2110131,"name":"Rawannawi Village","country":"KI","coord":{"lon":173.263535,"lat":2.05379}},{"_id":2110227,"name":"Butaritari","country":"KI","coord":{"lon":172.790222,"lat":3.07071}},{"_id":2110229,"name":"Buota Village","country":"KI","coord":{"lon":173.130814,"lat":1.39078}},{"_id":2110248,"name":"Betio Village","country":"KI","coord":{"lon":172.921051,"lat":1.35797}},{"_id":2110254,"name":"Banraeaba Village","country":"KI","coord":{"lon":173.034637,"lat":1.3454}},{"_id":4030939,"name":"London Village","country":"KI","coord":{"lon":-157.475021,"lat":1.98487}},{"_id":7521902,"name":"Tabwakea Village","country":"KI","coord":{"lon":-157.487732,"lat":2.01643}},{"_id":7521903,"name":"Banana Village","country":"KI","coord":{"lon":-157.365265,"lat":1.98329}},{"_id":7576909,"name":"Makin Village","country":"KI","coord":{"lon":172.983521,"lat":3.3644}},{"_id":7601762,"name":"Bairiki Village","country":"KI","coord":{"lon":172.97522,"lat":1.32924}},{"_id":7601765,"name":"Ambo Village","country":"KI","coord":{"lon":173.042587,"lat":1.35317}},{"_id":7601770,"name":"Temaiku Village","country":"KI","coord":{"lon":173.162262,"lat":1.36292}},{"_id":7601771,"name":"Nawerewere Village","country":"KI","coord":{"lon":173.139343,"lat":1.36362}},{"_id":7601774,"name":"Bikenibeu Village","country":"KI","coord":{"lon":173.124146,"lat":1.3673}},{"_id":7601776,"name":"Eita Village","country":"KI","coord":{"lon":173.081131,"lat":1.36154}}]}
