{"countryCode":"LS","countryName":"Lesotho","countryFilePath":"LS.json","countryCityList":[{"_id":932184,"name":"Quthing District","country":"LS","coord":{"lon":28.0,"lat":-30.41667}},{"_id":932700,"name":"Leribe District","country":"LS","coord":{"lon":28.252661,"lat":-29.03651}},{"_id":932521,"name":"Maputsoe","country":"LS","coord":{"lon":27.9,"lat":-28.883329}},{"_id":932698,"name":"Leribe","country":"LS","coord":{"lon":28.04501,"lat":-28.871849}},{"_id":932218,"name":"Qachas Nek","country":"LS","coord":{"lon":28.68936,"lat":-30.11537}},{"_id":932439,"name":"Mohale’s Hoek District","country":"LS","coord":{"lon":27.66667,"lat":-30.16667}},{"_id":932438,"name":"Mohales Hoek","country":"LS","coord":{"lon":27.47691,"lat":-30.151369}},{"_id":932615,"name":"Mafeteng District","country":"LS","coord":{"lon":27.502621,"lat":-29.8041}},{"_id":932614,"name":"Mafeteng","country":"LS","coord":{"lon":27.23744,"lat":-29.823}},{"_id":932886,"name":"Butha-Buthe","country":"LS","coord":{"lon":28.249359,"lat":-28.76659}},{"_id":932692,"name":"Kingdom of Lesotho","country":"LS","coord":{"lon":28.25,"lat":-29.5}},{"_id":931975,"name":"Tosing","country":"LS","coord":{"lon":27.9,"lat":-30.35}},{"_id":932183,"name":"Quthing","country":"LS","coord":{"lon":27.70027,"lat":-30.400009}},{"_id":932219,"name":"Qacha’s Nek District","country":"LS","coord":{"lon":28.75,"lat":-30.0}},{"_id":932506,"name":"Maseru District","country":"LS","coord":{"lon":28.0,"lat":-29.5}},{"_id":932505,"name":"Maseru","country":"LS","coord":{"lon":27.48333,"lat":-29.316669}},{"_id":932618,"name":"Machekoaneng","country":"LS","coord":{"lon":27.545,"lat":-29.43532}},{"_id":932888,"name":"Butha-Buthe District","country":"LS","coord":{"lon":28.5,"lat":-28.83333}},{"_id":932035,"name":"Teyateyaneng","country":"LS","coord":{"lon":27.748949,"lat":-29.14719}},{"_id":932416,"name":"Mokhotlong","country":"LS","coord":{"lon":29.067511,"lat":-29.289391}},{"_id":1106835,"name":"Thaba-Tseka","country":"LS","coord":{"lon":28.6084,"lat":-29.522039}}]}
