{"countryCode":"MA","countryName":"Morocco","countryFilePath":"MA.json","countryCityList":[{"_id":2538470,"name":"Région de Rabat-Salé-Zemmour-Zaër","country":"MA","coord":{"lon":-6.33333,"lat":33.75}},{"_id":2565327,"name":"Al Haïmriyine","country":"MA","coord":{"lon":-6.01,"lat":34.169998}},{"_id":2526435,"name":"Zaio","country":"MA","coord":{"lon":-2.7329,"lat":34.942822}},{"_id":2527645,"name":"Tirhanimine","country":"MA","coord":{"lon":-3.95453,"lat":35.236191}},{"_id":2528659,"name":"Tiflet","country":"MA","coord":{"lon":-6.3065,"lat":33.894691}},{"_id":2538474,"name":"Rabat","country":"MA","coord":{"lon":-6.84006,"lat":33.991112}},{"_id":6545495,"name":"Midelt","country":"MA","coord":{"lon":-4.74077,"lat":32.6828}},{"_id":6547296,"name":"El-Hajeb","country":"MA","coord":{"lon":-5.46119,"lat":33.728828}},{"_id":2550252,"name":"El Hajeb","country":"MA","coord":{"lon":-5.371,"lat":33.687859}},{"_id":2569452,"name":"Oulad Kerroum","country":"MA","coord":{"lon":-6.95192,"lat":33.854198}},{"_id":2531480,"name":"Tahala","country":"MA","coord":{"lon":-4.42795,"lat":34.04845}},{"_id":2540689,"name":"Oued Zem","country":"MA","coord":{"lon":-6.57359,"lat":32.862701}},{"_id":2542866,"name":"Mechra Belqsiri","country":"MA","coord":{"lon":-5.95372,"lat":34.573959}},{"_id":2545985,"name":"Imzourene","country":"MA","coord":{"lon":-3.86,"lat":35.150002}},{"_id":6546955,"name":"El Hajeb","country":"MA","coord":{"lon":-5.36835,"lat":33.6828}},{"_id":6546378,"name":"Azrou","country":"MA","coord":{"lon":-5.22079,"lat":33.43824}},{"_id":2542007,"name":"Kingdom of Morocco","country":"MA","coord":{"lon":-5.0,"lat":32.0}},{"_id":2597554,"name":"Région de Souss-Massa-Drâa","country":"MA","coord":{"lon":-7.5,"lat":30.66667}},{"_id":2560237,"name":"Aït Bou Mezrag","country":"MA","coord":{"lon":-5.55,"lat":30.18}},{"_id":2527825,"name":"Ti n’ Salah","country":"MA","coord":{"lon":-9.33218,"lat":30.23579}},{"_id":2542710,"name":"Région de Meknès-Tafilalet","country":"MA","coord":{"lon":-5.0,"lat":32.583328}},{"_id":2554988,"name":"Bou Dra","country":"MA","coord":{"lon":-5.03785,"lat":33.259022}},{"_id":2597548,"name":"Région de Chaouia-Ouardigha","country":"MA","coord":{"lon":-7.16667,"lat":33.0}},{"_id":2536792,"name":"Sidi Ahmed el Rhandour","country":"MA","coord":{"lon":-7.23519,"lat":33.366421}},{"_id":2529665,"name":"Tarmilet","country":"MA","coord":{"lon":-6.1078,"lat":33.386829}},{"_id":2597557,"name":"Région de Taza-Al Hoceima-Taounate","country":"MA","coord":{"lon":-4.16667,"lat":34.5}},{"_id":2538396,"name":"Ras el Oued","country":"MA","coord":{"lon":-4.0,"lat":34.150002}},{"_id":2597550,"name":"Région de Gharb-Chrarda-Beni Hssen","country":"MA","coord":{"lon":-6.0,"lat":34.5}},{"_id":2597553,"name":"Région de l’ Oriental","country":"MA","coord":{"lon":-2.5,"lat":33.666672}},{"_id":2546536,"name":"Ijertsal","country":"MA","coord":{"lon":-2.48701,"lat":35.092892}},{"_id":2549626,"name":"El Menzeh","country":"MA","coord":{"lon":-5.54328,"lat":33.896278}},{"_id":2550479,"name":"El Faïd","country":"MA","coord":{"lon":-8.21466,"lat":30.61496}},{"_id":2597556,"name":"Région de Tanger-Tétouan","country":"MA","coord":{"lon":-5.91667,"lat":35.25}},{"_id":2530333,"name":"Tanger-Assilah","country":"MA","coord":{"lon":-5.75,"lat":35.583328}},{"_id":6546249,"name":"Tanger-Medina","country":"MA","coord":{"lon":-5.80936,"lat":35.771309}},{"_id":2530335,"name":"Tangier","country":"MA","coord":{"lon":-5.81365,"lat":35.780579}},{"_id":7456416,"name":"Medina De Rabat","country":"MA","coord":{"lon":-6.8359,"lat":34.025421}},{"_id":2537405,"name":"Settat","country":"MA","coord":{"lon":-7.41667,"lat":33.083328}},{"_id":6546109,"name":"Settat","country":"MA","coord":{"lon":-7.62452,"lat":33.011459}},{"_id":2537406,"name":"Settat","country":"MA","coord":{"lon":-7.62035,"lat":33.000702}},{"_id":2553603,"name":"Région du Grand Casablanca","country":"MA","coord":{"lon":-7.58333,"lat":33.533329}},{"_id":6547294,"name":"Casablanca","country":"MA","coord":{"lon":-7.55785,"lat":33.588402}},{"_id":2553604,"name":"Casablanca","country":"MA","coord":{"lon":-7.61916,"lat":33.592781}},{"_id":2540482,"name":"Oujda-Angad","country":"MA","coord":{"lon":-2.08333,"lat":34.666672}},{"_id":6545974,"name":"Oujda","country":"MA","coord":{"lon":-1.9108,"lat":34.68288}},{"_id":2540483,"name":"Oujda","country":"MA","coord":{"lon":-1.90764,"lat":34.680519}},{"_id":2542995,"name":"Région de Marrakech-Tensift-Al Haouz","country":"MA","coord":{"lon":-8.33333,"lat":31.5}},{"_id":2551646,"name":"Douar Jdida","country":"MA","coord":{"lon":-8.86,"lat":31.280001}},{"_id":2561655,"name":"Agadir-Ida-ou-Tnan","country":"MA","coord":{"lon":-9.5,"lat":30.58333}},{"_id":6545515,"name":"Agadir","country":"MA","coord":{"lon":-9.59802,"lat":30.42013}},{"_id":2561668,"name":"Agadir","country":"MA","coord":{"lon":-9.59815,"lat":30.420179}},{"_id":6547301,"name":"Mohammedia","country":"MA","coord":{"lon":-7.37699,"lat":33.647511}},{"_id":6546783,"name":"Mohammedia","country":"MA","coord":{"lon":-7.38502,"lat":33.69474}},{"_id":2542051,"name":"Mohammedia","country":"MA","coord":{"lon":-7.39442,"lat":33.706589}},{"_id":2528910,"name":"Tetouan","country":"MA","coord":{"lon":-5.37242,"lat":35.571091}},{"_id":6547285,"name":"Marrakech","country":"MA","coord":{"lon":-8.01041,"lat":31.63623}},{"_id":6546896,"name":"Marrakech-Medina","country":"MA","coord":{"lon":-7.99117,"lat":31.601669}},{"_id":2542997,"name":"Marrakesh","country":"MA","coord":{"lon":-8.00828,"lat":31.631479}},{"_id":2544568,"name":"Kenitra","country":"MA","coord":{"lon":-6.33333,"lat":34.583328}},{"_id":6546897,"name":"Kenitra","country":"MA","coord":{"lon":-6.57719,"lat":34.26593}},{"_id":2544571,"name":"Kenitra","country":"MA","coord":{"lon":-6.5802,"lat":34.261009}},{"_id":2556145,"name":"Bel Aroussi","country":"MA","coord":{"lon":-6.80356,"lat":34.049999}},{"_id":2544363,"name":"Khemisset","country":"MA","coord":{"lon":-6.25,"lat":33.666672}},{"_id":6546130,"name":"Khemisset","country":"MA","coord":{"lon":-6.07048,"lat":33.82449}},{"_id":2558470,"name":"Khemisset","country":"MA","coord":{"lon":-6.06627,"lat":33.824039}},{"_id":2541472,"name":"Nador","country":"MA","coord":{"lon":-3.0,"lat":35.0}},{"_id":6547050,"name":"Nador","country":"MA","coord":{"lon":-2.93621,"lat":35.17498}},{"_id":2541479,"name":"Nador","country":"MA","coord":{"lon":-2.92866,"lat":35.174042}},{"_id":2562055,"name":"Skhirat","country":"MA","coord":{"lon":-7.04037,"lat":33.849838}},{"_id":2565228,"name":"Kasba Skhirat","country":"MA","coord":{"lon":-7.06182,"lat":33.861382}},{"_id":2551808,"name":"Douar el Hajra","country":"MA","coord":{"lon":-8.30246,"lat":31.82439}},{"_id":2548882,"name":"Région de Fès-Boulemane","country":"MA","coord":{"lon":-4.25,"lat":33.333328}},{"_id":6547286,"name":"Sefrou","country":"MA","coord":{"lon":-4.68,"lat":33.799789}},{"_id":6546442,"name":"Sefrou","country":"MA","coord":{"lon":-4.83005,"lat":33.822521}},{"_id":2537545,"name":"Sefrou","country":"MA","coord":{"lon":-4.828,"lat":33.83186}},{"_id":2597549,"name":"Région de Doukkala-Abda","country":"MA","coord":{"lon":-8.75,"lat":32.5}},{"_id":2537878,"name":"Safi","country":"MA","coord":{"lon":-8.83333,"lat":32.166672}},{"_id":6546086,"name":"Safi","country":"MA","coord":{"lon":-9.23478,"lat":32.269241}},{"_id":2537881,"name":"Safi","country":"MA","coord":{"lon":-9.23718,"lat":32.299389}},{"_id":2562053,"name":"Skhirate-Temara","country":"MA","coord":{"lon":-6.98333,"lat":33.883331}},{"_id":6545720,"name":"Temara","country":"MA","coord":{"lon":-6.90704,"lat":33.927799}},{"_id":2529013,"name":"Temara","country":"MA","coord":{"lon":-6.90656,"lat":33.928661}},{"_id":2528907,"name":"Tetouan","country":"MA","coord":{"lon":-5.5,"lat":35.583328}},{"_id":6546337,"name":"Martil","country":"MA","coord":{"lon":-5.30265,"lat":35.64341}},{"_id":2542987,"name":"Martil","country":"MA","coord":{"lon":-5.27522,"lat":35.616619}},{"_id":2549259,"name":"Essaouira","country":"MA","coord":{"lon":-9.75655,"lat":31.50675}},{"_id":6546650,"name":"Essaouira","country":"MA","coord":{"lon":-9.76954,"lat":31.44845}},{"_id":2549263,"name":"Essaouira","country":"MA","coord":{"lon":-9.77,"lat":31.512501}},{"_id":2551043,"name":"Dou Tourga","country":"MA","coord":{"lon":-9.73,"lat":29.709999}},{"_id":2555519,"name":"Ben Slimane","country":"MA","coord":{"lon":-7.12079,"lat":33.612968}},{"_id":2529374,"name":"Tassoumat","country":"MA","coord":{"lon":-6.92965,"lat":30.9212}},{"_id":2597555,"name":"Région de Tadla-Azilal","country":"MA","coord":{"lon":-6.41667,"lat":32.166672}},{"_id":2555742,"name":"Beni-Mellal","country":"MA","coord":{"lon":-6.33333,"lat":32.5}},{"_id":6546831,"name":"Alkhalfia","country":"MA","coord":{"lon":-6.52976,"lat":32.544239}},{"_id":2555745,"name":"Beni Mellal","country":"MA","coord":{"lon":-6.34984,"lat":32.33725}},{"_id":2550076,"name":"El-Jadida","country":"MA","coord":{"lon":-8.5,"lat":32.900002}},{"_id":6546785,"name":"Azemmour","country":"MA","coord":{"lon":-8.35027,"lat":33.295219}},{"_id":2556657,"name":"Azemmour","country":"MA","coord":{"lon":-8.3425,"lat":33.28952}},{"_id":2544246,"name":"Khouribga","country":"MA","coord":{"lon":-6.6,"lat":32.933331}},{"_id":6546695,"name":"Khouribga","country":"MA","coord":{"lon":-6.91356,"lat":32.886768}},{"_id":2544248,"name":"Khouribga","country":"MA","coord":{"lon":-6.9063,"lat":32.881081}},{"_id":2543546,"name":"Larache","country":"MA","coord":{"lon":-5.83333,"lat":35.166672}},{"_id":6545687,"name":"Larache","country":"MA","coord":{"lon":-6.13848,"lat":35.18811}},{"_id":2543549,"name":"Larache","country":"MA","coord":{"lon":-6.15572,"lat":35.193211}},{"_id":2545956,"name":"Inezgane-Ait Mellou","country":"MA","coord":{"lon":-9.03333,"lat":30.1}},{"_id":6545936,"name":"Inezgane","country":"MA","coord":{"lon":-9.5417,"lat":30.353451}},{"_id":2545957,"name":"Inezgane","country":"MA","coord":{"lon":-9.53639,"lat":30.35535}},{"_id":2550554,"name":"El Borj","country":"MA","coord":{"lon":-2.42292,"lat":35.131279}},{"_id":2542828,"name":"Medina","country":"MA","coord":{"lon":-4.01909,"lat":34.21035}},{"_id":2548818,"name":"Fnidek","country":"MA","coord":{"lon":-5.35747,"lat":35.84906}},{"_id":2548830,"name":"Fkih Ben Salah","country":"MA","coord":{"lon":-6.69062,"lat":32.500931}},{"_id":6546705,"name":"Berrechid","country":"MA","coord":{"lon":-7.5871,"lat":33.273129}},{"_id":2556272,"name":"Berrechid","country":"MA","coord":{"lon":-7.58754,"lat":33.26553}},{"_id":2556569,"name":"Azilal","country":"MA","coord":{"lon":-6.5,"lat":31.91667}},{"_id":6546525,"name":"Demnate","country":"MA","coord":{"lon":-7.01216,"lat":31.734579}},{"_id":2552317,"name":"Demnate","country":"MA","coord":{"lon":-7.00505,"lat":31.73443}},{"_id":2597551,"name":"Région de Guelmim-Es Smara","country":"MA","coord":{"lon":-9.16667,"lat":28.83333}},{"_id":2530241,"name":"Tan-Tan","country":"MA","coord":{"lon":-11.10321,"lat":28.43799}},{"_id":2553455,"name":"Chefchaouene","country":"MA","coord":{"lon":-5.2636,"lat":35.168781}},{"_id":2548525,"name":"Guelmim","country":"MA","coord":{"lon":-10.0,"lat":28.75}},{"_id":6546501,"name":"Guelmim","country":"MA","coord":{"lon":-10.06345,"lat":28.986349}},{"_id":2548526,"name":"Guelmim","country":"MA","coord":{"lon":-10.05738,"lat":28.986959}},{"_id":2560841,"name":"Aïn Harrouda","country":"MA","coord":{"lon":-7.44971,"lat":33.63736}},{"_id":2529723,"name":"Tarhzout","country":"MA","coord":{"lon":-8.14793,"lat":30.69282}},{"_id":2557055,"name":"Asilah","country":"MA","coord":{"lon":-6.0348,"lat":35.465019}},{"_id":2529313,"name":"Taza","country":"MA","coord":{"lon":-3.75,"lat":34.25}},{"_id":6547086,"name":"Guercif","country":"MA","coord":{"lon":-3.35235,"lat":34.22514}},{"_id":2548489,"name":"Guercif","country":"MA","coord":{"lon":-3.35361,"lat":34.225681}},{"_id":2542473,"name":"Mers el Hajer","country":"MA","coord":{"lon":-8.69351,"lat":32.636341}},{"_id":2549340,"name":"Errachidia","country":"MA","coord":{"lon":-4.5,"lat":31.75}},{"_id":2549356,"name":"Erfoud","country":"MA","coord":{"lon":-4.23752,"lat":31.43482}},{"_id":2538027,"name":"Rissani","country":"MA","coord":{"lon":-4.26883,"lat":31.284639}},{"_id":2546906,"name":"Ifrane","country":"MA","coord":{"lon":-5.25,"lat":33.333328}},{"_id":6546079,"name":"Ifrane","country":"MA","coord":{"lon":-5.10912,"lat":33.526852}},{"_id":2546917,"name":"Ifrane","country":"MA","coord":{"lon":-5.11019,"lat":33.526661}},{"_id":2544331,"name":"Khenifra","country":"MA","coord":{"lon":-5.66667,"lat":32.933331}},{"_id":6546573,"name":"Khenifra","country":"MA","coord":{"lon":-5.66629,"lat":32.932072}},{"_id":2544333,"name":"Khenifra","country":"MA","coord":{"lon":-5.6686,"lat":32.939098}},{"_id":2537538,"name":"Segangane","country":"MA","coord":{"lon":-3.00175,"lat":35.156891}},{"_id":2540409,"name":"Oulad Abdallah Barraho","country":"MA","coord":{"lon":-5.46625,"lat":33.928501}},{"_id":6547284,"name":"Chichaoua","country":"MA","coord":{"lon":-8.84411,"lat":31.263651}},{"_id":6546616,"name":"Chichaoua","country":"MA","coord":{"lon":-8.76493,"lat":31.55006}},{"_id":2553303,"name":"Chichaoua","country":"MA","coord":{"lon":-8.76274,"lat":31.54351}},{"_id":2535530,"name":"Sidi Bouqnadel","country":"MA","coord":{"lon":-6.71965,"lat":34.122169}},{"_id":6546821,"name":"Kasba Tadla","country":"MA","coord":{"lon":-6.265,"lat":32.596088}},{"_id":2544720,"name":"Kasba Tadla","country":"MA","coord":{"lon":-6.26844,"lat":32.597698}},{"_id":2564788,"name":"Aklim","country":"MA","coord":{"lon":-2.43,"lat":34.919998}},{"_id":2529647,"name":"Taroudannt","country":"MA","coord":{"lon":-8.41667,"lat":30.5}},{"_id":6545834,"name":"Taroudant","country":"MA","coord":{"lon":-8.87549,"lat":30.4702}},{"_id":2529649,"name":"Taroudant","country":"MA","coord":{"lon":-8.87695,"lat":30.47028}},{"_id":2548881,"name":"Fès al Bali","country":"MA","coord":{"lon":-5.12505,"lat":34.547749}},{"_id":2544001,"name":"Ksar el Kebir","country":"MA","coord":{"lon":-5.90534,"lat":35.00174}},{"_id":2532822,"name":"Sidi Yahia el Gharb","country":"MA","coord":{"lon":-6.30618,"lat":34.306519}},{"_id":2550985,"name":"Driouch","country":"MA","coord":{"lon":-3.37902,"lat":34.977051}},{"_id":2555885,"name":"Beni Drar","country":"MA","coord":{"lon":-1.99,"lat":34.82}},{"_id":6547299,"name":"Nouaceur","country":"MA","coord":{"lon":-7.64726,"lat":33.458389}},{"_id":6546277,"name":"Bouskoura","country":"MA","coord":{"lon":-7.64711,"lat":33.476292}},{"_id":2554006,"name":"Bouskoura","country":"MA","coord":{"lon":-7.65239,"lat":33.44976}},{"_id":6546898,"name":"Sidi Slimane","country":"MA","coord":{"lon":-5.92184,"lat":34.26194}},{"_id":2532945,"name":"Sidi Slimane","country":"MA","coord":{"lon":-5.92598,"lat":34.264778}},{"_id":2542898,"name":"M’dik","country":"MA","coord":{"lon":-5.32285,"lat":35.681561}},{"_id":6547287,"name":"Berkane","country":"MA","coord":{"lon":-2.3461,"lat":34.908371}},{"_id":6545678,"name":"Berkane","country":"MA","coord":{"lon":-2.33179,"lat":34.920189}},{"_id":2555467,"name":"Berkane","country":"MA","coord":{"lon":-2.32,"lat":34.919998}},{"_id":2541833,"name":"Moulay Bou Selham","country":"MA","coord":{"lon":-6.2948,"lat":34.878681}},{"_id":6547288,"name":"Jerada","country":"MA","coord":{"lon":-2.04284,"lat":34.236622}},{"_id":6545872,"name":"Jerada","country":"MA","coord":{"lon":-2.18847,"lat":34.300629}},{"_id":2545017,"name":"Jerada","country":"MA","coord":{"lon":-2.16,"lat":34.310001}},{"_id":2548885,"name":"Fes","country":"MA","coord":{"lon":-4.9998,"lat":34.037151}},{"_id":2548880,"name":"Fès al Bali","country":"MA","coord":{"lon":-4.95473,"lat":34.070099}},{"_id":2527087,"name":"Tiznit","country":"MA","coord":{"lon":-9.5,"lat":29.58333}},{"_id":6545624,"name":"Sidi Ifni","country":"MA","coord":{"lon":-10.16328,"lat":29.37075}},{"_id":2534515,"name":"Sidi Ifni","country":"MA","coord":{"lon":-10.17299,"lat":29.379749}},{"_id":6545434,"name":"Azilal","country":"MA","coord":{"lon":-6.57429,"lat":31.96419}},{"_id":2556570,"name":"Azilal","country":"MA","coord":{"lon":-6.57109,"lat":31.961559}},{"_id":2528867,"name":"Tiaouanine","country":"MA","coord":{"lon":-4.95748,"lat":31.689171}},{"_id":2527915,"name":"Tineghir","country":"MA","coord":{"lon":-5.53428,"lat":31.515711}},{"_id":2558545,"name":"Al Hoceima","country":"MA","coord":{"lon":-3.93092,"lat":35.243328}},{"_id":2555086,"name":"Bou Beker","country":"MA","coord":{"lon":-4.75505,"lat":33.35894}},{"_id":2565364,"name":"Dar Ben Abdallah Ben Dehbi","country":"MA","coord":{"lon":-7.73,"lat":33.509998}},{"_id":2569308,"name":"Oulfa","country":"MA","coord":{"lon":-7.69421,"lat":33.564861}},{"_id":2552471,"name":"Dar Sultan","country":"MA","coord":{"lon":-5.90086,"lat":35.72863}},{"_id":2571955,"name":"Souani","country":"MA","coord":{"lon":-5.33099,"lat":35.610649}},{"_id":2546295,"name":"Imejoudene","country":"MA","coord":{"lon":-3.84713,"lat":35.186779}},{"_id":2530066,"name":"Taourirt","country":"MA","coord":{"lon":-6.90026,"lat":30.918289}},{"_id":2532759,"name":"Sidi Youssef","country":"MA","coord":{"lon":-6.58,"lat":34.310001}},{"_id":2554221,"name":"Bou-Okkaz","country":"MA","coord":{"lon":-8.0243,"lat":31.59339}},{"_id":2542013,"name":"Monte ’Arrouit","country":"MA","coord":{"lon":-3.00453,"lat":35.011848}},{"_id":2541210,"name":"Nouaseur","country":"MA","coord":{"lon":-7.62105,"lat":33.380199}},{"_id":2559658,"name":"Aït Lahsene","country":"MA","coord":{"lon":-9.66981,"lat":31.414339}},{"_id":2543412,"name":"Le Polo","country":"MA","coord":{"lon":-7.6,"lat":33.549999}},{"_id":2543342,"name":"L'Oasis","country":"MA","coord":{"lon":-7.64108,"lat":33.554272}},{"_id":2551117,"name":"Douba","country":"MA","coord":{"lon":-1.90974,"lat":34.80991}},{"_id":2539875,"name":"Oulad el Haj","country":"MA","coord":{"lon":-4.40272,"lat":31.93026}},{"_id":2546466,"name":"Ikhorbane","country":"MA","coord":{"lon":-9.40845,"lat":30.33642}},{"_id":6547302,"name":"Zagora","country":"MA","coord":{"lon":-5.83649,"lat":30.348391}},{"_id":6545905,"name":"Zagora","country":"MA","coord":{"lon":-5.83517,"lat":30.30452}},{"_id":2526452,"name":"Zagora","country":"MA","coord":{"lon":-5.8384,"lat":30.332411}},{"_id":6546087,"name":"Youssoufia","country":"MA","coord":{"lon":-8.53351,"lat":32.253941}},{"_id":2526488,"name":"Youssoufia","country":"MA","coord":{"lon":-8.52941,"lat":32.246342}},{"_id":6547047,"name":"Tiznit","country":"MA","coord":{"lon":-9.69927,"lat":29.68638}},{"_id":2527089,"name":"Tiznit","country":"MA","coord":{"lon":-9.73162,"lat":29.69742}},{"_id":6546939,"name":"Tiflet","country":"MA","coord":{"lon":-6.31519,"lat":33.895168}},{"_id":6547088,"name":"Taza","country":"MA","coord":{"lon":-4.0088,"lat":34.215}},{"_id":2529317,"name":"Taza","country":"MA","coord":{"lon":-4.01,"lat":34.209999}},{"_id":6545983,"name":"Taourirt","country":"MA","coord":{"lon":-2.90029,"lat":34.403431}},{"_id":2530048,"name":"Taourirt","country":"MA","coord":{"lon":-2.89732,"lat":34.407299}},{"_id":2530153,"name":"Taounate","country":"MA","coord":{"lon":-4.83333,"lat":34.5}},{"_id":6547002,"name":"Taounate","country":"MA","coord":{"lon":-4.65322,"lat":34.523209}},{"_id":2530155,"name":"Taounate","country":"MA","coord":{"lon":-4.64143,"lat":34.538219}},{"_id":2532394,"name":"Souq Larba al Gharb","country":"MA","coord":{"lon":-6.00272,"lat":34.686642}},{"_id":2533191,"name":"Sidi Qacem","country":"MA","coord":{"lon":-5.70775,"lat":34.221489}},{"_id":6546787,"name":"Sidi Bennour","country":"MA","coord":{"lon":-8.42819,"lat":32.661362}},{"_id":2536074,"name":"Sidi Bennour","country":"MA","coord":{"lon":-8.42769,"lat":32.652359}},{"_id":2537763,"name":"Sale","country":"MA","coord":{"lon":-6.8166,"lat":34.038921}},{"_id":2538475,"name":"Rabat","country":"MA","coord":{"lon":-6.83255,"lat":34.013248}},{"_id":2539134,"name":"Oulad Teima","country":"MA","coord":{"lon":-9.20897,"lat":30.39467}},{"_id":6545669,"name":"Oued Zem","country":"MA","coord":{"lon":-6.56605,"lat":32.869499}},{"_id":2540810,"name":"Ouazzane","country":"MA","coord":{"lon":-5.58224,"lat":34.797112}},{"_id":2540846,"name":"Ouarzazate","country":"MA","coord":{"lon":-6.90285,"lat":30.941299}},{"_id":2540850,"name":"Ouarzazat","country":"MA","coord":{"lon":-6.89341,"lat":30.91894}},{"_id":2542227,"name":"Midelt","country":"MA","coord":{"lon":-4.74512,"lat":32.6852}},{"_id":6547283,"name":"Meknes","country":"MA","coord":{"lon":-5.52496,"lat":33.977612}},{"_id":6546578,"name":"Meknes","country":"MA","coord":{"lon":-5.53329,"lat":33.882339}},{"_id":2542715,"name":"Meknes","country":"MA","coord":{"lon":-5.54727,"lat":33.89352}},{"_id":2550078,"name":"El Jadida","country":"MA","coord":{"lon":-8.50602,"lat":33.254921}},{"_id":2550806,"name":"El Aioun","country":"MA","coord":{"lon":-2.50612,"lat":34.583191}},{"_id":2555517,"name":"Benslimane","country":"MA","coord":{"lon":-7.16667,"lat":33.5}},{"_id":6546124,"name":"Bouznika","country":"MA","coord":{"lon":-7.20881,"lat":33.764839}},{"_id":2553751,"name":"Bouznika","country":"MA","coord":{"lon":-7.15968,"lat":33.789421}},{"_id":2556464,"name":"Azrou","country":"MA","coord":{"lon":-5.22126,"lat":33.434429}},{"_id":6545532,"name":"Ahfir","country":"MA","coord":{"lon":-2.10665,"lat":34.95274}},{"_id":2561124,"name":"Ahfir","country":"MA","coord":{"lon":-2.10027,"lat":34.953678}},{"_id":6546693,"name":"Boujniba","country":"MA","coord":{"lon":-6.77464,"lat":32.900459}},{"_id":2552439,"name":"Dbagh","country":"MA","coord":{"lon":-6.87,"lat":33.990002}},{"_id":2525874,"name":"Zoumi","country":"MA","coord":{"lon":-5.34458,"lat":34.803211}},{"_id":2525973,"name":"Zinat","country":"MA","coord":{"lon":-5.4,"lat":35.43}},{"_id":2526159,"name":"Saddina","country":"MA","coord":{"lon":-5.45191,"lat":35.614101}},{"_id":2526924,"name":"Touama","country":"MA","coord":{"lon":-7.49291,"lat":31.535009}},{"_id":2527055,"name":"Tiztoutine","country":"MA","coord":{"lon":-3.15273,"lat":34.971588}},{"_id":2527184,"name":"Tizguine","country":"MA","coord":{"lon":-8.31611,"lat":31.228359}},{"_id":2527271,"name":"Tit Mellil","country":"MA","coord":{"lon":-7.48647,"lat":33.558079}},{"_id":2527366,"name":"Tissa","country":"MA","coord":{"lon":-4.66372,"lat":34.28791}},{"_id":2527695,"name":"Tiout","country":"MA","coord":{"lon":-8.69572,"lat":30.3887}},{"_id":2527749,"name":"Tiouli","country":"MA","coord":{"lon":-1.83705,"lat":34.366791}},{"_id":2528013,"name":"Timoulilt","country":"MA","coord":{"lon":-6.4666,"lat":32.203678}},{"_id":2528129,"name":"Timezgana","country":"MA","coord":{"lon":-4.73,"lat":34.580002}},{"_id":2528130,"name":"Timezgadiouine","country":"MA","coord":{"lon":-9.04548,"lat":30.883659}},{"_id":2528258,"name":"Tilmi","country":"MA","coord":{"lon":-5.76812,"lat":31.81794}},{"_id":2528650,"name":"Tifni","country":"MA","coord":{"lon":-6.94093,"lat":31.627769}},{"_id":2529019,"name":"Telouet","country":"MA","coord":{"lon":-7.23789,"lat":31.28924}},{"_id":2529133,"name":"Tazouta","country":"MA","coord":{"lon":-4.63392,"lat":33.66991}},{"_id":2529245,"name":"Taznakht","country":"MA","coord":{"lon":-7.20341,"lat":30.57836}},{"_id":2529251,"name":"Tazemmourt","country":"MA","coord":{"lon":-8.829,"lat":30.408541}},{"_id":2529286,"name":"Tazarine","country":"MA","coord":{"lon":-4.1862,"lat":33.88306}},{"_id":2529362,"name":"Tata","country":"MA","coord":{"lon":-7.973,"lat":29.744089}},{"_id":2529621,"name":"Tarsouat","country":"MA","coord":{"lon":-9.02664,"lat":29.58153}},{"_id":2529656,"name":"Teroual","country":"MA","coord":{"lon":-5.27331,"lat":34.674519}},{"_id":2529872,"name":"Targuist","country":"MA","coord":{"lon":-4.31856,"lat":34.937691}},{"_id":2529923,"name":"Tarfaya","country":"MA","coord":{"lon":-12.92184,"lat":27.93578}},{"_id":2530148,"name":"Taounza","country":"MA","coord":{"lon":-6.60607,"lat":32.093681}},{"_id":2530160,"name":"Taouloukoult","country":"MA","coord":{"lon":-9.07943,"lat":31.222179}},{"_id":2530188,"name":"Taouima","country":"MA","coord":{"lon":-2.9279,"lat":35.129902}},{"_id":2530395,"name":"Tanalt","country":"MA","coord":{"lon":-9.16796,"lat":29.77548}},{"_id":2530516,"name":"Tamorot","country":"MA","coord":{"lon":-4.7794,"lat":34.936321}},{"_id":2530843,"name":"Tamanar","country":"MA","coord":{"lon":-9.67802,"lat":31.00087}},{"_id":2530906,"name":"Talzemt","country":"MA","coord":{"lon":-4.19,"lat":33.59}},{"_id":2530978,"name":"Talmest","country":"MA","coord":{"lon":-9.33,"lat":31.809999}},{"_id":2531014,"name":"Taliouine","country":"MA","coord":{"lon":-7.91262,"lat":30.529169}},{"_id":2531877,"name":"Tafraout","country":"MA","coord":{"lon":-8.9747,"lat":29.724489}},{"_id":2531994,"name":"Tadrart","country":"MA","coord":{"lon":-9.45951,"lat":30.774771}},{"_id":2532195,"name":"Tabouda","country":"MA","coord":{"lon":-5.1403,"lat":34.719231}},{"_id":2532214,"name":"Tabia","country":"MA","coord":{"lon":-6.79985,"lat":32.03009}},{"_id":2532230,"name":"Tabia","country":"MA","coord":{"lon":-8.87688,"lat":30.03462}},{"_id":2532270,"name":"Tabant","country":"MA","coord":{"lon":-6.41049,"lat":31.65255}},{"_id":2532542,"name":"Senada","country":"MA","coord":{"lon":-4.21583,"lat":35.07452}},{"_id":2532628,"name":"Skoura","country":"MA","coord":{"lon":-6.5525,"lat":31.06262}},{"_id":2532797,"name":"Sidi Yahya Ou Saad","country":"MA","coord":{"lon":-5.57738,"lat":32.680111}},{"_id":2532918,"name":"Sidi Smail","country":"MA","coord":{"lon":-8.5081,"lat":32.822681}},{"_id":2533158,"name":"Sidi Redouane","country":"MA","coord":{"lon":-5.44538,"lat":34.68692}},{"_id":2533178,"name":"Sidi Rahhal","country":"MA","coord":{"lon":-7.47288,"lat":31.650311}},{"_id":2533339,"name":"Sidi Moussa","country":"MA","coord":{"lon":-7.20095,"lat":32.272091}},{"_id":2534315,"name":"Sidi Lamine","country":"MA","coord":{"lon":-6.05069,"lat":32.907829}},{"_id":2534496,"name":"Sidi Jaber","country":"MA","coord":{"lon":-6.42095,"lat":32.389519}},{"_id":2534572,"name":"Sidi Harazem","country":"MA","coord":{"lon":-4.88343,"lat":34.027328}},{"_id":2535477,"name":"Sidi Bousber","country":"MA","coord":{"lon":-5.36208,"lat":34.56284}},{"_id":2535534,"name":"Sidi Bou Othmane","country":"MA","coord":{"lon":-7.94169,"lat":31.90226}},{"_id":2536370,"name":"Sidi Amar","country":"MA","coord":{"lon":-5.83225,"lat":32.949871}},{"_id":2537320,"name":"Sidi Abdallah","country":"MA","coord":{"lon":-7.83243,"lat":32.535439}},{"_id":2537469,"name":"Selouane","country":"MA","coord":{"lon":-2.9423,"lat":35.073132}},{"_id":2537965,"name":"Rouadi","country":"MA","coord":{"lon":-4.13631,"lat":35.14119}},{"_id":2538028,"name":"Rislane","country":"MA","coord":{"lon":-2.46034,"lat":34.769871}},{"_id":2538099,"name":"Ghouazi","country":"MA","coord":{"lon":-5.30235,"lat":34.477371}},{"_id":2538332,"name":"Reggada","country":"MA","coord":{"lon":-9.70086,"lat":29.58016}},{"_id":2538385,"name":"Ratba","country":"MA","coord":{"lon":-4.9399,"lat":34.777721}},{"_id":2538652,"name":"Ourtzagh","country":"MA","coord":{"lon":-4.96878,"lat":34.534771}},{"_id":2538898,"name":"Oulmes","country":"MA","coord":{"lon":-6.00137,"lat":33.42585}},{"_id":2539139,"name":"Oulad Tayeb","country":"MA","coord":{"lon":-4.99509,"lat":33.946331}},{"_id":2539936,"name":"Oulad Daoud","country":"MA","coord":{"lon":-4.69342,"lat":34.404381}},{"_id":2540207,"name":"Oulad Ayad","country":"MA","coord":{"lon":-6.8,"lat":32.200001}},{"_id":2540512,"name":"Ouirgane","country":"MA","coord":{"lon":-8.07329,"lat":31.17766}},{"_id":2540554,"name":"Ouijjane","country":"MA","coord":{"lon":-9.53959,"lat":29.627781}},{"_id":2540698,"name":"Oued Laou","country":"MA","coord":{"lon":-5.09627,"lat":35.448399}},{"_id":2540716,"name":"Oued Amlil","country":"MA","coord":{"lon":-4.28,"lat":34.200001}},{"_id":2541779,"name":"Moulay Yacoub","country":"MA","coord":{"lon":-5.18171,"lat":34.087929}},{"_id":2541830,"name":"Moulay Brahim","country":"MA","coord":{"lon":-7.9683,"lat":31.287849}},{"_id":2541840,"name":"Moulay Bouchta","country":"MA","coord":{"lon":-5.13023,"lat":34.48922}},{"_id":2541906,"name":"Moulay Abdallah","country":"MA","coord":{"lon":-8.58811,"lat":33.19664}},{"_id":2542147,"name":"Missour","country":"MA","coord":{"lon":-3.98946,"lat":33.048931}},{"_id":2542230,"name":"Midar","country":"MA","coord":{"lon":-3.53311,"lat":34.94025}},{"_id":2542826,"name":"Mediouna","country":"MA","coord":{"lon":-7.51995,"lat":33.451611}},{"_id":2542957,"name":"Matmata","country":"MA","coord":{"lon":-4.55219,"lat":34.09914}},{"_id":2543231,"name":"Madagh","country":"MA","coord":{"lon":-2.33701,"lat":35.010319}},{"_id":2543394,"name":"Ifrane","country":"MA","coord":{"lon":-6.3494,"lat":31.702169}},{"_id":2543667,"name":"Lalla Mimouna","country":"MA","coord":{"lon":-6.06645,"lat":34.846062}},{"_id":2544510,"name":"Kerrouchen","country":"MA","coord":{"lon":-5.3188,"lat":32.796391}},{"_id":2544815,"name":"Kariat Arkmane","country":"MA","coord":{"lon":-2.74693,"lat":35.107101}},{"_id":2544821,"name":"Karia Ba Mohamed","country":"MA","coord":{"lon":-5.2138,"lat":34.370941}},{"_id":2544968,"name":"Jorf","country":"MA","coord":{"lon":-4.40598,"lat":31.494419}},{"_id":2545346,"name":"Itzer","country":"MA","coord":{"lon":-5.0515,"lat":32.8783}},{"_id":2545436,"name":"Isseksi","country":"MA","coord":{"lon":-6.27661,"lat":32.229809}},{"_id":2546081,"name":"Imider","country":"MA","coord":{"lon":-5.79384,"lat":31.37324}},{"_id":2546187,"name":"Imilchil","country":"MA","coord":{"lon":-5.62453,"lat":32.153091}},{"_id":2546627,"name":"Iguidi","country":"MA","coord":{"lon":-7.90294,"lat":30.838261}},{"_id":2547782,"name":"Hassi Berkane","country":"MA","coord":{"lon":-2.86699,"lat":34.838982}},{"_id":2548313,"name":"Zerkten","country":"MA","coord":{"lon":-7.39224,"lat":31.4447}},{"_id":2548320,"name":"Had Kourt","country":"MA","coord":{"lon":-5.7404,"lat":34.615879}},{"_id":2548343,"name":"Oulad Frej","country":"MA","coord":{"lon":-8.2274,"lat":32.95956}},{"_id":2548420,"name":"Guisser","country":"MA","coord":{"lon":-7.49818,"lat":32.766449}},{"_id":2548503,"name":"Guenfouda","country":"MA","coord":{"lon":-2.04562,"lat":34.483608}},{"_id":2548623,"name":"Goulmima","country":"MA","coord":{"lon":-4.95256,"lat":31.69227}},{"_id":2548713,"name":"Galaz","country":"MA","coord":{"lon":-4.80355,"lat":34.544239}},{"_id":2548851,"name":"Figuig (Centre)","country":"MA","coord":{"lon":-1.22855,"lat":32.10891}},{"_id":2548855,"name":"Fifi","country":"MA","coord":{"lon":-5.24798,"lat":34.94873}},{"_id":2548869,"name":"Fezna","country":"MA","coord":{"lon":-4.45562,"lat":31.529209}},{"_id":2549076,"name":"Ezzhiliga","country":"MA","coord":{"lon":-6.53,"lat":33.299999}},{"_id":2549750,"name":"El Ksiba","country":"MA","coord":{"lon":-6.01947,"lat":32.572861}},{"_id":2550684,"name":"Ouaoula","country":"MA","coord":{"lon":-6.75,"lat":31.870001}},{"_id":2552306,"name":"Derdara","country":"MA","coord":{"lon":-5.29015,"lat":35.110409}},{"_id":2552407,"name":"Debdou","country":"MA","coord":{"lon":-3.04263,"lat":33.982281}},{"_id":2552531,"name":"Riah","country":"MA","coord":{"lon":-7.37504,"lat":33.151218}},{"_id":2552545,"name":"Dar Ould Zidouh","country":"MA","coord":{"lon":-6.90494,"lat":32.312469}},{"_id":2552615,"name":"Dar Bouazza","country":"MA","coord":{"lon":-7.81677,"lat":33.51535}},{"_id":2552886,"name":"Dar Chaoui","country":"MA","coord":{"lon":-5.71742,"lat":35.537701}},{"_id":2553654,"name":"Bzou","country":"MA","coord":{"lon":-7.04786,"lat":32.091709}},{"_id":2553694,"name":"Brikcha","country":"MA","coord":{"lon":-5.57295,"lat":34.967319}},{"_id":2554281,"name":"Boumia","country":"MA","coord":{"lon":-5.1025,"lat":32.723598}},{"_id":2554389,"name":"Boulemane","country":"MA","coord":{"lon":-4.72896,"lat":33.363762}},{"_id":2554409,"name":"Boulaouane","country":"MA","coord":{"lon":-8.05555,"lat":32.859951}},{"_id":2554997,"name":"Boudinar","country":"MA","coord":{"lon":-3.62358,"lat":35.15601}},{"_id":2555157,"name":"Bouarfa","country":"MA","coord":{"lon":-1.95,"lat":32.529999}},{"_id":2555262,"name":"Bouabout","country":"MA","coord":{"lon":-9.17865,"lat":31.265539}},{"_id":2555372,"name":"Bigoudine","country":"MA","coord":{"lon":-9.21097,"lat":30.723761}},{"_id":2555395,"name":"Bhalil","country":"MA","coord":{"lon":-4.87228,"lat":33.85194}},{"_id":2556377,"name":"Bab Taza","country":"MA","coord":{"lon":-5.19828,"lat":35.061661}},{"_id":2556629,"name":"Azgour","country":"MA","coord":{"lon":-8.31488,"lat":31.137529}},{"_id":2556835,"name":"Assoul","country":"MA","coord":{"lon":-5.20812,"lat":31.95286}},{"_id":2556991,"name":"Assads","country":"MA","coord":{"lon":-8.86,"lat":30.23}},{"_id":2557347,"name":"Argana","country":"MA","coord":{"lon":-9.11968,"lat":30.782499}},{"_id":2557391,"name":"Arbaoua","country":"MA","coord":{"lon":-5.94871,"lat":34.90239}},{"_id":2557415,"name":"Arazane","country":"MA","coord":{"lon":-8.60637,"lat":30.50346}},{"_id":2557500,"name":"Aourir","country":"MA","coord":{"lon":-9.6355,"lat":30.49238}},{"_id":2557533,"name":"Aoulouz","country":"MA","coord":{"lon":-8.18087,"lat":30.673071}},{"_id":2557595,"name":"Aoufous","country":"MA","coord":{"lon":-4.17,"lat":31.68}},{"_id":2557995,"name":"Amouguer","country":"MA","coord":{"lon":-4.93535,"lat":32.27491}},{"_id":2558052,"name":"Amizmiz","country":"MA","coord":{"lon":-8.23184,"lat":31.21673}},{"_id":2558118,"name":"Amerzgane","country":"MA","coord":{"lon":-7.21037,"lat":31.043699}},{"_id":2558122,"name":"Amersid","country":"MA","coord":{"lon":-4.47063,"lat":32.749828}},{"_id":2558337,"name":"Amalou","country":"MA","coord":{"lon":-8.74873,"lat":30.19153}},{"_id":2558398,"name":"Alnif","country":"MA","coord":{"lon":-5.17154,"lat":31.114111}},{"_id":2558415,"name":"Almis Marmoucha","country":"MA","coord":{"lon":-4.18,"lat":33.32}},{"_id":2558633,"name":"Aknoul","country":"MA","coord":{"lon":-3.86754,"lat":34.653709}},{"_id":2558768,"name":"Ajdir","country":"MA","coord":{"lon":-3.97582,"lat":34.743469}},{"_id":2559366,"name":"Anergui","country":"MA","coord":{"lon":-5.93961,"lat":32.069141}},{"_id":2561290,"name":"Aguelmous","country":"MA","coord":{"lon":-5.84626,"lat":33.161388}},{"_id":2561291,"name":"Aguelmous","country":"MA","coord":{"lon":-5.83,"lat":33.150002}},{"_id":2561539,"name":"Agdz","country":"MA","coord":{"lon":-6.44628,"lat":30.69356}},{"_id":2561614,"name":"Agadir Melloul","country":"MA","coord":{"lon":-7.79601,"lat":30.22492}},{"_id":2561957,"name":"Adassil","country":"MA","coord":{"lon":-8.49083,"lat":31.10783}},{"_id":2561978,"name":"Adar","country":"MA","coord":{"lon":-8.37221,"lat":30.141109}},{"_id":2562202,"name":"Abadou","country":"MA","coord":{"lon":-7.31308,"lat":31.57917}},{"_id":2565241,"name":"Mellila","country":"MA","coord":{"lon":-7.14,"lat":33.380001}},{"_id":2565258,"name":"Tidili Mesfioua","country":"MA","coord":{"lon":-7.61199,"lat":31.46586}},{"_id":2565267,"name":"Mhamid","country":"MA","coord":{"lon":-5.72,"lat":29.82}},{"_id":2565337,"name":"Mediouna","country":"MA","coord":{"lon":-7.53,"lat":33.470001}},{"_id":2568012,"name":"Taghazout","country":"MA","coord":{"lon":-9.71115,"lat":30.542589}},{"_id":2568400,"name":"Tamri","country":"MA","coord":{"lon":-9.82972,"lat":30.69602}},{"_id":2569052,"name":"Smimou","country":"MA","coord":{"lon":-9.70864,"lat":31.21014}},{"_id":2571059,"name":"Tizgane","country":"MA","coord":{"lon":-5.06836,"lat":35.412109}},{"_id":2571909,"name":"Bouarouss","country":"MA","coord":{"lon":-4.81,"lat":34.360001}},{"_id":2571932,"name":"Azla","country":"MA","coord":{"lon":-5.24472,"lat":35.553028}},{"_id":2572146,"name":"Boukhalef","country":"MA","coord":{"lon":-5.89954,"lat":35.7328}},{"_id":2596325,"name":"Jebel Tiskaouine","country":"MA","coord":{"lon":-5.11643,"lat":31.02722}},{"_id":7280528,"name":"Errachidia","country":"MA","coord":{"lon":-4.42852,"lat":31.92754}},{"_id":2534249,"name":"Sidi Ma’rouf","country":"MA","coord":{"lon":-7.65384,"lat":33.514019}}]}
