{"countryCode":"MN","countryName":"Mongolia","countryFilePath":"MN.json","countryCityList":[{"_id":2029016,"name":"Tamsagbulag","country":"MN","coord":{"lon":117.300003,"lat":47.25}},{"_id":2032532,"name":"Bayanhongor","country":"MN","coord":{"lon":100.116669,"lat":46.716671}},{"_id":2029155,"name":"Sühbaatar Aymag","country":"MN","coord":{"lon":113.5,"lat":46.25}},{"_id":2031866,"name":"Deresen Hiid","country":"MN","coord":{"lon":113.033333,"lat":45.5}},{"_id":2031221,"name":"Gurbaniy Urto","country":"MN","coord":{"lon":114.300003,"lat":48.316669}},{"_id":2030474,"name":"Hovd","country":"MN","coord":{"lon":102.174911,"lat":44.670238}},{"_id":2029969,"name":"Mongolia","country":"MN","coord":{"lon":105.0,"lat":46.0}},{"_id":2031799,"name":"Dornod Aymag","country":"MN","coord":{"lon":115.0,"lat":48.0}},{"_id":2028219,"name":"Yihe Ayl","country":"MN","coord":{"lon":116.783333,"lat":46.283329}},{"_id":1515917,"name":"Govĭ-Altay Aymag","country":"MN","coord":{"lon":96.0,"lat":45.5}},{"_id":1514994,"name":"Urda Goliin Bayshing","country":"MN","coord":{"lon":94.699997,"lat":45.98333}},{"_id":2032768,"name":"Badmashin","country":"MN","coord":{"lon":116.650002,"lat":47.283329}},{"_id":2028461,"name":"Ulaanbaatar Hot","country":"MN","coord":{"lon":106.916672,"lat":47.916672}},{"_id":2028462,"name":"Ulaanbaatar","country":"MN","coord":{"lon":106.88324,"lat":47.907711}},{"_id":7115787,"name":"State Circus","country":"MN","coord":{"lon":106.907188,"lat":47.911911}},{"_id":2055113,"name":"Orhon Aymag","country":"MN","coord":{"lon":104.162697,"lat":49.063061}},{"_id":2031405,"name":"Erdenet","country":"MN","coord":{"lon":104.083328,"lat":49.033329}},{"_id":2030783,"name":"Hentiy Aymag","country":"MN","coord":{"lon":110.5,"lat":48.0}},{"_id":2031966,"name":"Darhan","country":"MN","coord":{"lon":109.416672,"lat":46.616669}},{"_id":2055112,"name":"Govĭ-Sumber","country":"MN","coord":{"lon":108.5,"lat":46.5}},{"_id":2032051,"name":"Choyr","country":"MN","coord":{"lon":108.650002,"lat":46.133331}},{"_id":2032199,"name":"Bulgan Aymag","country":"MN","coord":{"lon":103.5,"lat":49.0}},{"_id":2032201,"name":"Bulgan","country":"MN","coord":{"lon":103.534721,"lat":48.8125}},{"_id":2032054,"name":"Choybalsan","country":"MN","coord":{"lon":114.5,"lat":48.066669}},{"_id":1514967,"name":"Uvs Aymag","country":"MN","coord":{"lon":93.0,"lat":49.5}},{"_id":1515029,"name":"Ulaangom","country":"MN","coord":{"lon":92.066673,"lat":49.98111}},{"_id":1515696,"name":"Hovd Aymag","country":"MN","coord":{"lon":92.5,"lat":47.0}},{"_id":1516048,"name":"Hovd","country":"MN","coord":{"lon":91.641937,"lat":48.005562}},{"_id":2029656,"name":"Zezen Khana","country":"MN","coord":{"lon":110.655563,"lat":47.319439}},{"_id":2032614,"name":"Baruun-Urt","country":"MN","coord":{"lon":113.279167,"lat":46.680561}},{"_id":2028849,"name":"Töv Aymag","country":"MN","coord":{"lon":106.5,"lat":47.5}},{"_id":7648817,"name":"Zuunmod","country":"MN","coord":{"lon":106.952759,"lat":47.706928}},{"_id":2029432,"name":"Selenge Aymag","country":"MN","coord":{"lon":106.416672,"lat":49.666672}},{"_id":2029156,"name":"Suhbaatar","country":"MN","coord":{"lon":106.207779,"lat":50.231392}},{"_id":2030469,"name":"Hövsgöl Aymag","country":"MN","coord":{"lon":100.0,"lat":50.0}},{"_id":2030847,"name":"Hatgal","country":"MN","coord":{"lon":100.166939,"lat":50.451939}},{"_id":1516278,"name":"Bayan-Ölgiy Aymag","country":"MN","coord":{"lon":90.0,"lat":48.5}},{"_id":1515436,"name":"OElgiy","country":"MN","coord":{"lon":89.962502,"lat":48.96833}},{"_id":2029945,"name":"Murun-kuren","country":"MN","coord":{"lon":100.162498,"lat":49.634171}},{"_id":2031740,"name":"Dundgovĭ Aymag","country":"MN","coord":{"lon":106.5,"lat":45.5}},{"_id":2030065,"name":"Mandalgovi","country":"MN","coord":{"lon":106.270828,"lat":45.762501}},{"_id":2029546,"name":"Övörhangay Aymag","country":"MN","coord":{"lon":102.5,"lat":46.0}},{"_id":2031533,"name":"Dzuunharaa","country":"MN","coord":{"lon":106.457863,"lat":48.852291}},{"_id":2055111,"name":"Darhan-Uul Aymag","country":"MN","coord":{"lon":106.118668,"lat":49.28056}},{"_id":2031964,"name":"Darhan","country":"MN","coord":{"lon":105.922783,"lat":49.486671}},{"_id":2029669,"name":"Ömnögovĭ Aymag","country":"MN","coord":{"lon":104.0,"lat":43.0}},{"_id":2032007,"name":"Dalandzadgad","country":"MN","coord":{"lon":104.425003,"lat":43.570831}},{"_id":2031798,"name":"Dornogovĭ Aymag","country":"MN","coord":{"lon":110.0,"lat":44.5}},{"_id":2032081,"name":"Saynshand","country":"MN","coord":{"lon":110.11631,"lat":44.882389}},{"_id":1516290,"name":"Bayanhongor Aymag","country":"MN","coord":{"lon":99.5,"lat":45.5}},{"_id":1514961,"name":"Uyenchi Somon","country":"MN","coord":{"lon":92.01667,"lat":46.049999}},{"_id":1514975,"name":"Uujim","country":"MN","coord":{"lon":89.616669,"lat":48.900002}},{"_id":1514993,"name":"Urdgol","country":"MN","coord":{"lon":92.650002,"lat":47.833328}},{"_id":1515007,"name":"Uliastay","country":"MN","coord":{"lon":96.844437,"lat":47.741669}},{"_id":1515018,"name":"Ulaantolgoy","country":"MN","coord":{"lon":92.783333,"lat":46.683331}},{"_id":1515092,"name":"Tsetserleg","country":"MN","coord":{"lon":94.85836,"lat":49.271278}},{"_id":1515097,"name":"Tsetsegnuur","country":"MN","coord":{"lon":93.26667,"lat":46.599998}},{"_id":1515101,"name":"Tsenher","country":"MN","coord":{"lon":92.116669,"lat":46.916672}},{"_id":1515106,"name":"Tseel","country":"MN","coord":{"lon":95.866669,"lat":45.566669}},{"_id":1515114,"name":"Tsalgar","country":"MN","coord":{"lon":93.26667,"lat":49.716671}},{"_id":1515117,"name":"Tsahir","country":"MN","coord":{"lon":98.851669,"lat":48.07972}},{"_id":1515124,"name":"Tsagaantungi","country":"MN","coord":{"lon":90.449997,"lat":49.049999}},{"_id":1515131,"name":"Tsagaan-Olom","country":"MN","coord":{"lon":96.525879,"lat":46.713268}},{"_id":1515157,"name":"Tsagaanchuluut","country":"MN","coord":{"lon":96.671448,"lat":47.111961}},{"_id":1515167,"name":"Tosontsengel","country":"MN","coord":{"lon":98.28389,"lat":48.756672}},{"_id":1515172,"name":"Tooromt","country":"MN","coord":{"lon":93.583328,"lat":50.466671}},{"_id":1515180,"name":"Tolbo","country":"MN","coord":{"lon":90.283333,"lat":48.416672}},{"_id":1515186,"name":"Togrog","country":"MN","coord":{"lon":92.224388,"lat":47.424141}},{"_id":1515187,"name":"Togrog","country":"MN","coord":{"lon":94.815437,"lat":45.829762}},{"_id":1515194,"name":"Vlaa Vula","country":"MN","coord":{"lon":99.23333,"lat":50.683331}},{"_id":1515208,"name":"Tegsh","country":"MN","coord":{"lon":95.999741,"lat":48.75132}},{"_id":1515213,"name":"Taygan","country":"MN","coord":{"lon":97.366333,"lat":46.353561}},{"_id":1515229,"name":"Talshand","country":"MN","coord":{"lon":97.98333,"lat":45.333328}},{"_id":1515247,"name":"Tahilt","country":"MN","coord":{"lon":96.645699,"lat":45.3466}},{"_id":1515303,"name":"Shiree","country":"MN","coord":{"lon":96.803108,"lat":47.497139}},{"_id":1515329,"name":"Sharga","country":"MN","coord":{"lon":98.800003,"lat":49.799999}},{"_id":1515331,"name":"Sharga","country":"MN","coord":{"lon":95.26667,"lat":46.25}},{"_id":1515332,"name":"Sharbulag","country":"MN","coord":{"lon":93.099998,"lat":48.816669}},{"_id":1515367,"name":"Sayn-Ust","country":"MN","coord":{"lon":94.524483,"lat":47.357319}},{"_id":1515378,"name":"Sangiyn Dalay","country":"MN","coord":{"lon":97.75,"lat":45.133331}},{"_id":1515392,"name":"Rashaant","country":"MN","coord":{"lon":90.833328,"lat":47.76667}},{"_id":1515402,"name":"Oygon","country":"MN","coord":{"lon":96.543388,"lat":48.985619}},{"_id":1515405,"name":"Telmin Suma","country":"MN","coord":{"lon":97.618607,"lat":48.64278}},{"_id":1515416,"name":"Orgil","country":"MN","coord":{"lon":99.35083,"lat":48.587219}},{"_id":1515454,"name":"Nuga","country":"MN","coord":{"lon":95.116669,"lat":48.316669}},{"_id":1515468,"name":"Nogoonnuur","country":"MN","coord":{"lon":90.242043,"lat":49.616268}},{"_id":1515498,"name":"Naranbulag","country":"MN","coord":{"lon":92.566673,"lat":49.366669}},{"_id":1515506,"name":"Namir","country":"MN","coord":{"lon":91.717819,"lat":49.106411}},{"_id":1515532,"name":"Tsagaanhayrhan","country":"MN","coord":{"lon":94.23333,"lat":49.400002}},{"_id":1515549,"name":"Mandal","country":"MN","coord":{"lon":99.433327,"lat":49.900002}},{"_id":1515577,"name":"Jargalant","country":"MN","coord":{"lon":95.447853,"lat":49.30677}},{"_id":1515578,"name":"Jargalant","country":"MN","coord":{"lon":99.633331,"lat":47.150002}},{"_id":1515579,"name":"Jargalant","country":"MN","coord":{"lon":91.087822,"lat":46.926701}},{"_id":1515580,"name":"Jargalant","country":"MN","coord":{"lon":97.175957,"lat":45.709541}},{"_id":1515621,"name":"Ider","country":"MN","coord":{"lon":99.873894,"lat":48.772781}},{"_id":1515659,"name":"Hunt","country":"MN","coord":{"lon":99.466667,"lat":47.866669}},{"_id":1515662,"name":"Hungiy","country":"MN","coord":{"lon":94.294281,"lat":48.51672}},{"_id":1515694,"name":"Hoeviyn Am","country":"MN","coord":{"lon":98.571404,"lat":47.231232}},{"_id":1515704,"name":"Hoshoot","country":"MN","coord":{"lon":89.143578,"lat":48.947762}},{"_id":1515736,"name":"Holboo","country":"MN","coord":{"lon":95.432571,"lat":48.58876}},{"_id":1515741,"name":"Hohtolgoy","country":"MN","coord":{"lon":90.910149,"lat":49.28001}},{"_id":1515762,"name":"Hodrogo","country":"MN","coord":{"lon":96.962593,"lat":48.872841}},{"_id":1515787,"name":"Havtsal","country":"MN","coord":{"lon":91.666672,"lat":50.099998}},{"_id":1515806,"name":"Har-Us","country":"MN","coord":{"lon":92.033333,"lat":49.033329}},{"_id":1515807,"name":"Har-Us","country":"MN","coord":{"lon":91.433327,"lat":48.48333}},{"_id":1515832,"name":"Harmod","country":"MN","coord":{"lon":91.606407,"lat":50.341301}},{"_id":1515838,"name":"Harhiraa","country":"MN","coord":{"lon":91.904243,"lat":49.778488}},{"_id":1515878,"name":"Haliun","country":"MN","coord":{"lon":96.162392,"lat":45.9296}},{"_id":1515882,"name":"Halban","country":"MN","coord":{"lon":97.740898,"lat":49.52877}},{"_id":1515957,"name":"Erdenet","country":"MN","coord":{"lon":99.536652,"lat":48.948769}},{"_id":1515979,"name":"Dzuyl","country":"MN","coord":{"lon":93.904091,"lat":46.306862}},{"_id":1515986,"name":"Dzuunmod","country":"MN","coord":{"lon":97.374397,"lat":48.219872}},{"_id":1515989,"name":"Dzuunhovoo","country":"MN","coord":{"lon":92.402397,"lat":50.609772}},{"_id":1515996,"name":"Dzuer","country":"MN","coord":{"lon":95.793228,"lat":49.657959}},{"_id":1515999,"name":"Dzoolon","country":"MN","coord":{"lon":99.672256,"lat":51.107189}},{"_id":1516004,"name":"Dzel","country":"MN","coord":{"lon":93.78582,"lat":49.907131}},{"_id":1516023,"name":"Dzalaa","country":"MN","coord":{"lon":99.26667,"lat":44.533329}},{"_id":1516036,"name":"Dzag","country":"MN","coord":{"lon":99.166893,"lat":46.942291}},{"_id":1516037,"name":"Dzadgay","country":"MN","coord":{"lon":99.598618,"lat":46.210609}},{"_id":1516040,"name":"Duut","country":"MN","coord":{"lon":91.633331,"lat":47.51667}},{"_id":1516069,"name":"Tsagaannuur","country":"MN","coord":{"lon":99.344437,"lat":51.356392}},{"_id":1516082,"name":"Delgermoron","country":"MN","coord":{"lon":98.287117,"lat":46.409458}},{"_id":1516099,"name":"Darvi","country":"MN","coord":{"lon":94.116669,"lat":46.450001}},{"_id":1516125,"name":"Chihertey","country":"MN","coord":{"lon":89.515572,"lat":48.302719}},{"_id":1516136,"name":"Chandmani","country":"MN","coord":{"lon":96.25,"lat":48.049999}},{"_id":1516143,"name":"Buyant","country":"MN","coord":{"lon":89.547501,"lat":48.57967}},{"_id":1516144,"name":"Buyant","country":"MN","coord":{"lon":91.816673,"lat":48.066669}},{"_id":1516146,"name":"Buyant","country":"MN","coord":{"lon":97.606659,"lat":47.212109}},{"_id":1516147,"name":"Buyant","country":"MN","coord":{"lon":98.691727,"lat":46.166401}},{"_id":1516148,"name":"Buyanbat","country":"MN","coord":{"lon":95.925323,"lat":46.978378}},{"_id":1516173,"name":"Burenhayrhan","country":"MN","coord":{"lon":91.566673,"lat":46.083328}},{"_id":1516186,"name":"Bulgan","country":"MN","coord":{"lon":93.61673,"lat":46.936779}},{"_id":1516187,"name":"Bulgan","country":"MN","coord":{"lon":98.650002,"lat":44.783329}},{"_id":1516196,"name":"Bugat","country":"MN","coord":{"lon":93.816673,"lat":49.533329}},{"_id":1516198,"name":"Buga","country":"MN","coord":{"lon":90.183327,"lat":49.01667}},{"_id":1516199,"name":"Buga","country":"MN","coord":{"lon":95.000504,"lat":47.650131}},{"_id":1516205,"name":"Altay sumu","country":"MN","coord":{"lon":92.283333,"lat":45.799999}},{"_id":1516240,"name":"Biluu","country":"MN","coord":{"lon":89.437981,"lat":49.04372}},{"_id":1516257,"name":"Bayshint","country":"MN","coord":{"lon":90.283333,"lat":49.666672}},{"_id":1516267,"name":"Bayan-Uhaa","country":"MN","coord":{"lon":98.791809,"lat":48.719059}},{"_id":1516272,"name":"Bayansayr","country":"MN","coord":{"lon":99.433144,"lat":45.55529}},{"_id":1516274,"name":"Bayan-Ovoo","country":"MN","coord":{"lon":94.916672,"lat":44.616669}},{"_id":1516288,"name":"Bayanhoshuu","country":"MN","coord":{"lon":91.916672,"lat":48.23333}},{"_id":1516296,"name":"Bayangol","country":"MN","coord":{"lon":94.364487,"lat":45.556549}},{"_id":1516305,"name":"Bayanbulag","country":"MN","coord":{"lon":98.090057,"lat":46.809811}},{"_id":1516306,"name":"Bayanbulag","country":"MN","coord":{"lon":98.927589,"lat":45.014332}},{"_id":1516308,"name":"Bayan","country":"MN","coord":{"lon":99.599998,"lat":49.433331}},{"_id":1516309,"name":"Bayan","country":"MN","coord":{"lon":95.199623,"lat":46.992901}},{"_id":1516313,"name":"Baruunturuun","country":"MN","coord":{"lon":94.404137,"lat":49.65963}},{"_id":1516329,"name":"Balgatay","country":"MN","coord":{"lon":97.150002,"lat":46.900002}},{"_id":1516389,"name":"Altraga","country":"MN","coord":{"lon":98.972054,"lat":50.1791}},{"_id":1516392,"name":"Altay","country":"MN","coord":{"lon":96.3592,"lat":49.703171}},{"_id":1516393,"name":"Altai","country":"MN","coord":{"lon":96.258331,"lat":46.372219}},{"_id":1516395,"name":"Altanteel","country":"MN","coord":{"lon":92.843742,"lat":47.110439}},{"_id":1516399,"name":"Altanbulag","country":"MN","coord":{"lon":96.342369,"lat":49.306881}},{"_id":1516400,"name":"Altan","country":"MN","coord":{"lon":95.716667,"lat":48.116669}},{"_id":1516403,"name":"Aldar","country":"MN","coord":{"lon":96.536873,"lat":47.642262}},{"_id":1538308,"name":"Horgo","country":"MN","coord":{"lon":99.875557,"lat":48.16}},{"_id":2028252,"name":"UEydzen","country":"MN","coord":{"lon":106.86985,"lat":44.082161}},{"_id":2028287,"name":"Uubulan","country":"MN","coord":{"lon":101.934242,"lat":48.608849}},{"_id":2028313,"name":"Urt","country":"MN","coord":{"lon":101.048126,"lat":43.232449}},{"_id":2028351,"name":"Uldz","country":"MN","coord":{"lon":111.994629,"lat":48.690281}},{"_id":2028357,"name":"Ulaan-Uul","country":"MN","coord":{"lon":100.817238,"lat":46.067402}},{"_id":2028359,"name":"Ulaan-Uul","country":"MN","coord":{"lon":111.23333,"lat":44.333328}},{"_id":2028411,"name":"Ulaanjirem","country":"MN","coord":{"lon":105.566673,"lat":45.049999}},{"_id":2028429,"name":"Ulaanhudag","country":"MN","coord":{"lon":104.5,"lat":47.333328}},{"_id":2028437,"name":"Ulaanhad","country":"MN","coord":{"lon":105.553207,"lat":47.949928}},{"_id":2028445,"name":"Ulaan-Ereg","country":"MN","coord":{"lon":109.75,"lat":46.900002}},{"_id":2028450,"name":"Ulaandel","country":"MN","coord":{"lon":113.577003,"lat":46.36446}},{"_id":2028534,"name":"Turt","country":"MN","coord":{"lon":100.662567,"lat":51.507252}},{"_id":2028562,"name":"Tsul-Ulaan","country":"MN","coord":{"lon":104.5,"lat":47.833328}},{"_id":2028577,"name":"Tsoohor","country":"MN","coord":{"lon":104.074173,"lat":43.306568}},{"_id":2028581,"name":"Tsomog","country":"MN","coord":{"lon":109.066673,"lat":45.916672}},{"_id":2028606,"name":"Tsetserleg","country":"MN","coord":{"lon":101.45417,"lat":47.474998}},{"_id":2028614,"name":"Tsengel","country":"MN","coord":{"lon":100.889442,"lat":49.478329}},{"_id":2028653,"name":"Tsant","country":"MN","coord":{"lon":106.716667,"lat":46.183331}},{"_id":2028720,"name":"Tsagaan-Ovoo","country":"MN","coord":{"lon":101.45977,"lat":45.964039}},{"_id":2028722,"name":"Tsagaan-Ovoo","country":"MN","coord":{"lon":105.755943,"lat":45.507191}},{"_id":2028790,"name":"Tsagaandorvolj","country":"MN","coord":{"lon":109.31826,"lat":45.798168}},{"_id":2028792,"name":"Tsagaanders","country":"MN","coord":{"lon":114.366669,"lat":48.049999}},{"_id":2028905,"name":"Naran-mandokhu Somon","country":"MN","coord":{"lon":108.25,"lat":44.400002}},{"_id":2028933,"name":"Teshig","country":"MN","coord":{"lon":102.661232,"lat":49.94669}},{"_id":2028961,"name":"Teel","country":"MN","coord":{"lon":100.509171,"lat":48.046391}},{"_id":2028972,"name":"Tavin","country":"MN","coord":{"lon":105.735168,"lat":46.391941}},{"_id":2028983,"name":"Tavanbulag","country":"MN","coord":{"lon":101.90815,"lat":47.381851}},{"_id":2029117,"name":"Dashinchilling","country":"MN","coord":{"lon":104.050003,"lat":47.849998}},{"_id":2029118,"name":"Suugaant","country":"MN","coord":{"lon":107.045464,"lat":45.53257}},{"_id":2029130,"name":"Sumiyn Bulag","country":"MN","coord":{"lon":114.883331,"lat":49.133331}},{"_id":2029176,"name":"Sort","country":"MN","coord":{"lon":104.381958,"lat":49.317509}},{"_id":2029238,"name":"Shireet","country":"MN","coord":{"lon":112.355629,"lat":45.727268}},{"_id":2029241,"name":"Shiree","country":"MN","coord":{"lon":103.400002,"lat":45.849998}},{"_id":2029315,"name":"Sharingol","country":"MN","coord":{"lon":106.430054,"lat":49.237331}},{"_id":2029321,"name":"Sharhulsan","country":"MN","coord":{"lon":104.050003,"lat":44.650002}},{"_id":2029335,"name":"Sharga","country":"MN","coord":{"lon":102.089249,"lat":49.04192}},{"_id":2029419,"name":"Sergelen","country":"MN","coord":{"lon":114.083328,"lat":48.566669}},{"_id":2029420,"name":"Sergelen","country":"MN","coord":{"lon":111.816673,"lat":46.200001}},{"_id":2029427,"name":"Senj","country":"MN","coord":{"lon":110.76667,"lat":44.716671}},{"_id":2029433,"name":"Selenge","country":"MN","coord":{"lon":101.466667,"lat":49.433331}},{"_id":2029463,"name":"Saynshand","country":"MN","coord":{"lon":102.533333,"lat":43.616669}},{"_id":2029494,"name":"Sangiyn Dalay","country":"MN","coord":{"lon":103.316673,"lat":46.650002}},{"_id":2029495,"name":"Sangiyn Dalay","country":"MN","coord":{"lon":104.942093,"lat":46.007931}},{"_id":2029499,"name":"Sangiyn Dalay","country":"MN","coord":{"lon":105.137962,"lat":42.841991}},{"_id":2029525,"name":"Rashaant","country":"MN","coord":{"lon":101.428062,"lat":49.126671}},{"_id":2029527,"name":"Rashaant","country":"MN","coord":{"lon":106.199997,"lat":45.299999}},{"_id":2029542,"name":"Ovt","country":"MN","coord":{"lon":102.25,"lat":46.816669}},{"_id":2029558,"name":"Ovoot","country":"MN","coord":{"lon":113.84977,"lat":45.30423}},{"_id":2029588,"name":"Orhontuul","country":"MN","coord":{"lon":104.97583,"lat":48.949718}},{"_id":2029596,"name":"Orgon","country":"MN","coord":{"lon":100.39135,"lat":44.73637}},{"_id":2029597,"name":"Orgil","country":"MN","coord":{"lon":105.317688,"lat":48.4538}},{"_id":2029610,"name":"Onon","country":"MN","coord":{"lon":110.599998,"lat":48.616669}},{"_id":2029624,"name":"Ongon","country":"MN","coord":{"lon":103.78389,"lat":46.98259}},{"_id":2029635,"name":"Ongi","country":"MN","coord":{"lon":102.283333,"lat":46.466671}},{"_id":2029636,"name":"Ongi","country":"MN","coord":{"lon":103.900002,"lat":45.450001}},{"_id":2029651,"name":"OEndoerhoshuu","country":"MN","coord":{"lon":113.933327,"lat":48.0}},{"_id":2029698,"name":"Oldziyt","country":"MN","coord":{"lon":101.37394,"lat":48.528431}},{"_id":2029700,"name":"Oldziyt","country":"MN","coord":{"lon":109.01667,"lat":44.683331}},{"_id":2029735,"name":"Ogoomor","country":"MN","coord":{"lon":104.480667,"lat":43.78336}},{"_id":2029784,"name":"Nuden","country":"MN","coord":{"lon":110.466667,"lat":43.583328}},{"_id":2029816,"name":"Nomgon","country":"MN","coord":{"lon":105.665817,"lat":49.2001}},{"_id":2029840,"name":"Nart","country":"MN","coord":{"lon":105.388329,"lat":49.145}},{"_id":2029886,"name":"Naranbulag","country":"MN","coord":{"lon":113.374268,"lat":49.243599}},{"_id":2029947,"name":"Moron","country":"MN","coord":{"lon":110.316467,"lat":47.382542}},{"_id":2029961,"name":"Monhbulag","country":"MN","coord":{"lon":103.51667,"lat":46.75}},{"_id":2029989,"name":"Modot","country":"MN","coord":{"lon":109.050003,"lat":47.75}},{"_id":2030035,"name":"Mayhan","country":"MN","coord":{"lon":103.839508,"lat":46.091209}},{"_id":2030040,"name":"Mardzad","country":"MN","coord":{"lon":102.050003,"lat":45.950001}},{"_id":2030053,"name":"Manhan","country":"MN","coord":{"lon":100.04306,"lat":50.121391}},{"_id":2030066,"name":"Dzuunkharaa","country":"MN","coord":{"lon":106.73333,"lat":48.633331}},{"_id":2030067,"name":"Mandal","country":"MN","coord":{"lon":103.529167,"lat":48.631111}},{"_id":2030068,"name":"Mandal","country":"MN","coord":{"lon":106.740761,"lat":48.370621}},{"_id":2030078,"name":"Maanit","country":"MN","coord":{"lon":103.42556,"lat":48.296669}},{"_id":2030079,"name":"Maanit","country":"MN","coord":{"lon":107.533333,"lat":47.25}},{"_id":2030085,"name":"Sujji","country":"MN","coord":{"lon":105.25,"lat":47.866669}},{"_id":2030159,"name":"Javhlant","country":"MN","coord":{"lon":105.924004,"lat":48.801891}},{"_id":2030161,"name":"Javarthushuu","country":"MN","coord":{"lon":112.73333,"lat":49.150002}},{"_id":2030170,"name":"Jargalant","country":"MN","coord":{"lon":105.880562,"lat":50.067501}},{"_id":2030171,"name":"Jargalant","country":"MN","coord":{"lon":106.333328,"lat":49.666672}},{"_id":2030172,"name":"Jargalant","country":"MN","coord":{"lon":100.257111,"lat":49.29591}},{"_id":2030173,"name":"Jargalant","country":"MN","coord":{"lon":105.868332,"lat":48.520561}},{"_id":2030175,"name":"Jargalant","country":"MN","coord":{"lon":101.972351,"lat":47.793091}},{"_id":2030176,"name":"Jargalant","country":"MN","coord":{"lon":100.216667,"lat":47.533329}},{"_id":2030208,"name":"Ingettolgoy","country":"MN","coord":{"lon":103.974167,"lat":49.46167}},{"_id":2030218,"name":"Ihsueuej","country":"MN","coord":{"lon":106.291519,"lat":48.2257}},{"_id":2030251,"name":"Ihbulag","country":"MN","coord":{"lon":107.199997,"lat":43.200001}},{"_id":2030296,"name":"Huurch","country":"MN","coord":{"lon":105.419998,"lat":50.103611}},{"_id":2030316,"name":"Hutag","country":"MN","coord":{"lon":102.693329,"lat":49.395}},{"_id":2030368,"name":"Huremt","country":"MN","coord":{"lon":102.62278,"lat":48.663059}},{"_id":2030369,"name":"Huremt","country":"MN","coord":{"lon":102.445541,"lat":46.30241}},{"_id":2030392,"name":"Hulstay","country":"MN","coord":{"lon":114.866669,"lat":48.433331}},{"_id":2030427,"name":"Hujirt","country":"MN","coord":{"lon":101.239532,"lat":48.881989}},{"_id":2030428,"name":"Hujirt","country":"MN","coord":{"lon":102.782593,"lat":46.896568}},{"_id":2030429,"name":"Hujirt","country":"MN","coord":{"lon":104.583328,"lat":46.599998}},{"_id":2030465,"name":"Noyon Suma","country":"MN","coord":{"lon":102.131943,"lat":43.173611}},{"_id":2030470,"name":"Khuvsget","country":"MN","coord":{"lon":109.638062,"lat":43.606392}},{"_id":2030473,"name":"Hovd","country":"MN","coord":{"lon":102.383331,"lat":44.666672}},{"_id":2030477,"name":"Hotont","country":"MN","coord":{"lon":102.467941,"lat":47.362782}},{"_id":2030502,"name":"Hoshoot","country":"MN","coord":{"lon":102.556862,"lat":48.100899}},{"_id":2030512,"name":"Horiult","country":"MN","coord":{"lon":100.76667,"lat":45.200001}},{"_id":2030525,"name":"Tsagaan-Owoo","country":"MN","coord":{"lon":113.433327,"lat":48.400002}},{"_id":2030526,"name":"Bayan Uula Sumu","country":"MN","coord":{"lon":101.400002,"lat":45.166672}},{"_id":2030531,"name":"Hoolt","country":"MN","coord":{"lon":102.98333,"lat":45.533329}},{"_id":2030570,"name":"Hongor","country":"MN","coord":{"lon":111.199997,"lat":45.799999}},{"_id":2030572,"name":"Hongor","country":"MN","coord":{"lon":113.683777,"lat":45.135071}},{"_id":2030646,"name":"Undur Sume","country":"MN","coord":{"lon":100.92778,"lat":50.472778}},{"_id":2030696,"name":"Hohburd","country":"MN","coord":{"lon":100.448341,"lat":46.285751}},{"_id":2030764,"name":"Herlen","country":"MN","coord":{"lon":110.566673,"lat":47.299999}},{"_id":2030813,"name":"Haylaastay","country":"MN","coord":{"lon":113.416672,"lat":46.900002}},{"_id":2030841,"name":"Havirga","country":"MN","coord":{"lon":113.083328,"lat":45.666672}},{"_id":2030849,"name":"Hatavch","country":"MN","coord":{"lon":112.949997,"lat":46.166672}},{"_id":2030851,"name":"Hatansuudal","country":"MN","coord":{"lon":100.827881,"lat":44.545952}},{"_id":2030890,"name":"Hashaat","country":"MN","coord":{"lon":104.805107,"lat":45.243229}},{"_id":2030915,"name":"Orhon","country":"MN","coord":{"lon":106.136391,"lat":49.8325}},{"_id":2030927,"name":"Harhorin","country":"MN","coord":{"lon":102.823792,"lat":47.197529}},{"_id":2030996,"name":"Haraat","country":"MN","coord":{"lon":107.650002,"lat":46.416672}},{"_id":2031016,"name":"Hanhohiy","country":"MN","coord":{"lon":112.133331,"lat":47.616669}},{"_id":2031088,"name":"Hajuu-Us","country":"MN","coord":{"lon":107.489548,"lat":46.049881}},{"_id":2031357,"name":"Erhet","country":"MN","coord":{"lon":102.981201,"lat":48.273941}},{"_id":2031368,"name":"Ergel","country":"MN","coord":{"lon":109.133331,"lat":43.150002}},{"_id":2031374,"name":"Ereencav","country":"MN","coord":{"lon":115.725258,"lat":49.880699}},{"_id":2031402,"name":"Erdenetsogt","country":"MN","coord":{"lon":100.822388,"lat":46.418449}},{"_id":2031403,"name":"Erdenetsogt","country":"MN","coord":{"lon":106.11866,"lat":42.972382}},{"_id":2031408,"name":"Eg-Uur","country":"MN","coord":{"lon":101.575279,"lat":50.10944}},{"_id":2031411,"name":"Enhtal","country":"MN","coord":{"lon":105.373611,"lat":49.247501}},{"_id":2031484,"name":"Eg","country":"MN","coord":{"lon":110.183327,"lat":48.683331}},{"_id":2031517,"name":"Dzuunmod","country":"MN","coord":{"lon":106.952782,"lat":47.70694}},{"_id":2031552,"name":"Dzuunbulag","country":"MN","coord":{"lon":115.293961,"lat":46.95343}},{"_id":2031553,"name":"Dzuunbulag","country":"MN","coord":{"lon":112.183327,"lat":46.383331}},{"_id":2031601,"name":"Dzogsool","country":"MN","coord":{"lon":107.150002,"lat":46.799999}},{"_id":2031613,"name":"Dzelter","country":"MN","coord":{"lon":105.04583,"lat":50.315559}},{"_id":2031615,"name":"Dzegstey","country":"MN","coord":{"lon":102.549988,"lat":47.668049}},{"_id":2031704,"name":"Dzaanhoshuu","country":"MN","coord":{"lon":100.878014,"lat":47.493309}},{"_id":2031728,"name":"Dund-Urt","country":"MN","coord":{"lon":105.921898,"lat":48.03791}},{"_id":2031741,"name":"Dundburd","country":"MN","coord":{"lon":111.497841,"lat":47.9459}},{"_id":2031832,"name":"Doloon","country":"MN","coord":{"lon":105.320778,"lat":44.424461}},{"_id":2031906,"name":"Delgerhaan","country":"MN","coord":{"lon":106.185783,"lat":50.085781}},{"_id":2031946,"name":"Dashbalbar","country":"MN","coord":{"lon":114.40287,"lat":49.545712}},{"_id":2031965,"name":"Darhan","country":"MN","coord":{"lon":103.880539,"lat":48.254631}},{"_id":2031998,"name":"Dalay","country":"MN","coord":{"lon":103.51284,"lat":43.467869}},{"_id":2032050,"name":"Choyr","country":"MN","coord":{"lon":108.361107,"lat":46.361111}},{"_id":2032058,"name":"Chonogol","country":"MN","coord":{"lon":115.366669,"lat":45.900002}},{"_id":2032070,"name":"Chandmani","country":"MN","coord":{"lon":110.466667,"lat":45.533329}},{"_id":2032085,"name":"Buyant","country":"MN","coord":{"lon":110.833328,"lat":46.25}},{"_id":2032157,"name":"Burgaltay","country":"MN","coord":{"lon":104.743477,"lat":49.264999}},{"_id":2032191,"name":"Bumbat","country":"MN","coord":{"lon":104.117767,"lat":46.496738}},{"_id":2032200,"name":"Bulgan","country":"MN","coord":{"lon":101.514168,"lat":50.541939}},{"_id":2032202,"name":"Bulgan","country":"MN","coord":{"lon":103.542877,"lat":44.09745}},{"_id":2032220,"name":"Bulagtay","country":"MN","coord":{"lon":107.516159,"lat":49.77594}},{"_id":2032221,"name":"Bulagiyn Denj","country":"MN","coord":{"lon":101.115761,"lat":47.318691}},{"_id":2032225,"name":"Bulag","country":"MN","coord":{"lon":100.626869,"lat":49.859459}},{"_id":2032226,"name":"Bulag","country":"MN","coord":{"lon":108.48333,"lat":48.200001}},{"_id":2032252,"name":"Bugat","country":"MN","coord":{"lon":103.665833,"lat":49.066669}},{"_id":2032255,"name":"Bugant","country":"MN","coord":{"lon":106.849998,"lat":49.583328}},{"_id":2032327,"name":"Bornuur","country":"MN","coord":{"lon":106.26667,"lat":48.466671}},{"_id":2032362,"name":"Bohot","country":"MN","coord":{"lon":108.282448,"lat":45.232231}},{"_id":2032373,"name":"Bodi","country":"MN","coord":{"lon":100.573997,"lat":45.411709}},{"_id":2032432,"name":"Bayshint","country":"MN","coord":{"lon":104.816673,"lat":47.416672}},{"_id":2032435,"name":"Bayasgalant","country":"MN","coord":{"lon":108.259956,"lat":47.179451}},{"_id":2032436,"name":"Bayasgalant","country":"MN","coord":{"lon":112.050003,"lat":46.98333}},{"_id":2032457,"name":"Bayan-Ulaan","country":"MN","coord":{"lon":102.594276,"lat":46.521778}},{"_id":2032473,"name":"Bayantsagaan","country":"MN","coord":{"lon":100.760002,"lat":48.73167}},{"_id":2032480,"name":"Bayantohom","country":"MN","coord":{"lon":105.050003,"lat":46.916672}},{"_id":2032490,"name":"Bayan-Ovoo","country":"MN","coord":{"lon":111.633331,"lat":49.01667}},{"_id":2032491,"name":"Javhlant","country":"MN","coord":{"lon":112.116669,"lat":47.783329}},{"_id":2032523,"name":"Bayanhoshuu","country":"MN","coord":{"lon":100.143303,"lat":46.701969}},{"_id":2032533,"name":"Bayanhongor","country":"MN","coord":{"lon":100.718063,"lat":46.194439}},{"_id":2032571,"name":"Bayandelger","country":"MN","coord":{"lon":108.110619,"lat":47.727322}},{"_id":2032586,"name":"Bayanbulag","country":"MN","coord":{"lon":109.916672,"lat":47.866669}},{"_id":2032593,"name":"Bayanbaraat","country":"MN","coord":{"lon":106.25,"lat":46.866669}},{"_id":2032594,"name":"Bayan","country":"MN","coord":{"lon":111.083328,"lat":48.549999}},{"_id":2032595,"name":"Bayan","country":"MN","coord":{"lon":112.949997,"lat":47.916672}},{"_id":2032596,"name":"Bayan","country":"MN","coord":{"lon":103.150002,"lat":47.450001}},{"_id":2032597,"name":"Bayan","country":"MN","coord":{"lon":110.816673,"lat":47.166672}},{"_id":2032598,"name":"Bayan","country":"MN","coord":{"lon":110.166672,"lat":46.25}},{"_id":2032602,"name":"Bat-Oldziyt","country":"MN","coord":{"lon":104.773178,"lat":48.215519}},{"_id":2032631,"name":"Baruunsuu","country":"MN","coord":{"lon":105.755768,"lat":43.655949}},{"_id":2032663,"name":"Hushaat","country":"MN","coord":{"lon":105.616669,"lat":49.5}},{"_id":2032767,"name":"Badrah","country":"MN","coord":{"lon":101.989723,"lat":49.618328}},{"_id":2032786,"name":"Avraga","country":"MN","coord":{"lon":109.189682,"lat":47.178509}},{"_id":2032789,"name":"Avdzaga","country":"MN","coord":{"lon":103.51667,"lat":47.633331}},{"_id":2032814,"name":"Arvayheer","country":"MN","coord":{"lon":102.775002,"lat":46.263889}},{"_id":2032850,"name":"Arhust","country":"MN","coord":{"lon":107.883339,"lat":47.79425}},{"_id":2032857,"name":"Arguut","country":"MN","coord":{"lon":102.420563,"lat":45.46278}},{"_id":2032860,"name":"Argatay","country":"MN","coord":{"lon":107.98333,"lat":45.76667}},{"_id":2032871,"name":"Argalant","country":"MN","coord":{"lon":105.895844,"lat":47.942108}},{"_id":2032899,"name":"Ar-Asgat","country":"MN","coord":{"lon":105.411942,"lat":48.262218}},{"_id":2032937,"name":"Amardalay","country":"MN","coord":{"lon":106.37426,"lat":46.125721}},{"_id":2032956,"name":"Altan-Ovoo","country":"MN","coord":{"lon":101.755028,"lat":47.447418}},{"_id":2032960,"name":"Altanbulag","country":"MN","coord":{"lon":106.498611,"lat":50.315559}},{"_id":2032961,"name":"Altanbulag","country":"MN","coord":{"lon":106.400002,"lat":47.700001}},{"_id":6988111,"name":"Asgat","country":"MN","coord":{"lon":96.799438,"lat":49.510818}},{"_id":6988118,"name":"Ulaanshiveet","country":"MN","coord":{"lon":103.85659,"lat":47.289478}},{"_id":6997293,"name":"Sumber","country":"MN","coord":{"lon":118.510139,"lat":47.658581}},{"_id":6997301,"name":"Bayantal","country":"MN","coord":{"lon":108.35804,"lat":46.621342}},{"_id":6997302,"name":"Shiveegovi","country":"MN","coord":{"lon":108.68306,"lat":46.090809}},{"_id":6997320,"name":"Hongor","country":"MN","coord":{"lon":105.896744,"lat":49.230122}},{"_id":6997333,"name":"Jargalant","country":"MN","coord":{"lon":104.408028,"lat":49.12915}},{"_id":6997380,"name":"Hoshigiyn-Ar","country":"MN","coord":{"lon":106.963333,"lat":47.557171}},{"_id":7648891,"name":"Kharkhorin","country":"MN","coord":{"lon":102.813492,"lat":47.192451}}]}
