{"countryCode":"NO","countryName":"Norway","countryFilePath":"NO.json","countryCityList":[{"_id":3160606,"name":"Horten","country":"NO","coord":{"lon":10.48527,"lat":59.41547}},{"_id":6453374,"name":"Haugesund","country":"NO","coord":{"lon":5.27551,"lat":59.410149}},{"_id":6453355,"name":"Gjøvik","country":"NO","coord":{"lon":10.69287,"lat":60.79472}},{"_id":6453341,"name":"Ålesund","country":"NO","coord":{"lon":6.15424,"lat":62.471241}},{"_id":3141558,"name":"Rogaland Fylke","country":"NO","coord":{"lon":6.25,"lat":59.0}},{"_id":3157357,"name":"Fjell","country":"NO","coord":{"lon":5.12194,"lat":60.362671}},{"_id":3149469,"name":"Korsmo","country":"NO","coord":{"lon":11.66667,"lat":60.25}},{"_id":3131675,"name":"Vik","country":"NO","coord":{"lon":6.58512,"lat":61.088631}},{"_id":7288344,"name":"Vik","country":"NO","coord":{"lon":6.57806,"lat":61.057121}},{"_id":6692397,"name":"Bjorli","country":"NO","coord":{"lon":8.20404,"lat":62.259609}},{"_id":3153009,"name":"Hem","country":"NO","coord":{"lon":10.01667,"lat":59.433331}},{"_id":3144656,"name":"Nesodden","country":"NO","coord":{"lon":10.6494,"lat":59.842201}},{"_id":3153801,"name":"Hasle","country":"NO","coord":{"lon":10.7,"lat":59.783329}},{"_id":3141172,"name":"Rota","country":"NO","coord":{"lon":10.76667,"lat":63.433331}},{"_id":3155517,"name":"Glemmen","country":"NO","coord":{"lon":10.95,"lat":59.216671}},{"_id":779683,"name":"Hammerfest","country":"NO","coord":{"lon":23.682091,"lat":70.663361}},{"_id":3149312,"name":"Kristiansund","country":"NO","coord":{"lon":7.72795,"lat":63.110451}},{"_id":3154084,"name":"Hamar","country":"NO","coord":{"lon":11.06798,"lat":60.794498}},{"_id":6453370,"name":"Suldal","country":"NO","coord":{"lon":6.25222,"lat":59.48571}},{"_id":6946003,"name":"Kroken","country":"NO","coord":{"lon":10.50413,"lat":61.122181}},{"_id":3145582,"name":"Molde","country":"NO","coord":{"lon":7.15882,"lat":62.738071}},{"_id":6453316,"name":"Tromsø","country":"NO","coord":{"lon":18.95702,"lat":69.649612}},{"_id":3133447,"name":"Tysvær","country":"NO","coord":{"lon":5.44781,"lat":59.421589}},{"_id":3144836,"name":"Nedstrand","country":"NO","coord":{"lon":5.85,"lat":59.349998}},{"_id":3137966,"name":"Sogn og Fjordane Fylke","country":"NO","coord":{"lon":6.83333,"lat":61.5}},{"_id":3138127,"name":"Smestad","country":"NO","coord":{"lon":10.66667,"lat":59.933331}},{"_id":6693015,"name":"Meklenborg","country":"NO","coord":{"lon":10.65086,"lat":59.948761}},{"_id":6453312,"name":"Hammerfest","country":"NO","coord":{"lon":23.682949,"lat":70.662567}},{"_id":3151404,"name":"Hurum","country":"NO","coord":{"lon":10.45763,"lat":59.61401}},{"_id":3141631,"name":"Rød","country":"NO","coord":{"lon":10.58333,"lat":59.566669}},{"_id":3136944,"name":"Steinkjer","country":"NO","coord":{"lon":11.38505,"lat":64.193031}},{"_id":3136947,"name":"Steinkjer","country":"NO","coord":{"lon":11.49537,"lat":64.01487}},{"_id":6453388,"name":"Sarpsborg","country":"NO","coord":{"lon":11.11167,"lat":59.281479}},{"_id":3142657,"name":"Porsgrunn","country":"NO","coord":{"lon":9.6561,"lat":59.140541}},{"_id":3145614,"name":"Mo i Rana","country":"NO","coord":{"lon":14.14278,"lat":66.312782}},{"_id":6453373,"name":"Kongsberg","country":"NO","coord":{"lon":9.64653,"lat":59.665161}},{"_id":6453351,"name":"Hamar","country":"NO","coord":{"lon":11.0783,"lat":60.79451}},{"_id":3154209,"name":"Halden","country":"NO","coord":{"lon":11.38754,"lat":59.124779}},{"_id":3155573,"name":"Gjovik","country":"NO","coord":{"lon":10.69155,"lat":60.795738}},{"_id":6697345,"name":"Sandsli","country":"NO","coord":{"lon":5.28554,"lat":60.30323}},{"_id":6697344,"name":"Ytrebygda","country":"NO","coord":{"lon":5.28236,"lat":60.305038}},{"_id":3144096,"name":"Kingdom of Norway","country":"NO","coord":{"lon":10.0,"lat":62.0}},{"_id":3162354,"name":"Aust-Agder fylke","country":"NO","coord":{"lon":8.0,"lat":58.833328}},{"_id":6453399,"name":"Arendal","country":"NO","coord":{"lon":8.76501,"lat":58.460388}},{"_id":3162955,"name":"Arendal","country":"NO","coord":{"lon":8.77253,"lat":58.46151}},{"_id":3227747,"name":"Strømsbu","country":"NO","coord":{"lon":8.75083,"lat":58.45528}},{"_id":3143188,"name":"Østfold fylke","country":"NO","coord":{"lon":11.5,"lat":59.333328}},{"_id":6453384,"name":"Moss","country":"NO","coord":{"lon":10.65968,"lat":59.434361}},{"_id":3145375,"name":"Moss","country":"NO","coord":{"lon":10.65771,"lat":59.434029}},{"_id":3135516,"name":"Suldalsosen","country":"NO","coord":{"lon":6.5,"lat":59.5}},{"_id":3132285,"name":"Veka","country":"NO","coord":{"lon":6.53333,"lat":59.5}},{"_id":3134723,"name":"Telemark fylke","country":"NO","coord":{"lon":8.66667,"lat":59.5}},{"_id":6453365,"name":"Vinje","country":"NO","coord":{"lon":7.98896,"lat":59.569241}},{"_id":3163198,"name":"Amot","country":"NO","coord":{"lon":7.98774,"lat":59.571362}},{"_id":3159665,"name":"Buskerud fylke","country":"NO","coord":{"lon":9.2,"lat":60.416672}},{"_id":3144882,"name":"Nedre Eiker","country":"NO","coord":{"lon":10.00736,"lat":59.750229}},{"_id":3145757,"name":"Mjondalen","country":"NO","coord":{"lon":10.01891,"lat":59.746311}},{"_id":3147541,"name":"Lier","country":"NO","coord":{"lon":10.2459,"lat":59.786629}},{"_id":3158786,"name":"Egge","country":"NO","coord":{"lon":10.21667,"lat":59.816669}},{"_id":3151864,"name":"Hordaland Fylke","country":"NO","coord":{"lon":6.0,"lat":60.25}},{"_id":3133472,"name":"Tysnes","country":"NO","coord":{"lon":5.53129,"lat":60.04076}},{"_id":3133027,"name":"Våge","country":"NO","coord":{"lon":5.51778,"lat":60.04694}},{"_id":3159481,"name":"Dala","country":"NO","coord":{"lon":5.07583,"lat":60.286942}},{"_id":6453357,"name":"Hol","country":"NO","coord":{"lon":8.30194,"lat":60.61528}},{"_id":3157171,"name":"Flatåker","country":"NO","coord":{"lon":8.3,"lat":60.466671}},{"_id":3162639,"name":"Askøy","country":"NO","coord":{"lon":5.22599,"lat":60.409161}},{"_id":3149648,"name":"Kolavåg","country":"NO","coord":{"lon":5.12389,"lat":60.451672}},{"_id":3133311,"name":"Ulvik","country":"NO","coord":{"lon":6.91871,"lat":60.567188}},{"_id":3157520,"name":"Finse","country":"NO","coord":{"lon":7.5,"lat":60.599998}},{"_id":3138591,"name":"Skoro","country":"NO","coord":{"lon":8.01667,"lat":60.666672}},{"_id":3153403,"name":"Hedmark fylke","country":"NO","coord":{"lon":11.75,"lat":61.5}},{"_id":3141831,"name":"Ringsaker","country":"NO","coord":{"lon":10.9503,"lat":60.88216}},{"_id":3143625,"name":"Olestad","country":"NO","coord":{"lon":10.68333,"lat":61.116669}},{"_id":3143487,"name":"Oppland fylke","country":"NO","coord":{"lon":9.66667,"lat":61.166672}},{"_id":6453350,"name":"Lillehammer","country":"NO","coord":{"lon":10.46743,"lat":61.114639}},{"_id":3147474,"name":"Lillehammer","country":"NO","coord":{"lon":10.46628,"lat":61.115139}},{"_id":3145495,"name":"Møre og Romsdal fylke","country":"NO","coord":{"lon":7.83333,"lat":62.666672}},{"_id":3135381,"name":"Sunndal","country":"NO","coord":{"lon":8.56188,"lat":62.674641}},{"_id":3154972,"name":"Grødal","country":"NO","coord":{"lon":8.71667,"lat":62.650002}},{"_id":3145580,"name":"Molde","country":"NO","coord":{"lon":7.15912,"lat":62.737518}},{"_id":3144301,"name":"Nordland Fylke","country":"NO","coord":{"lon":14.37634,"lat":67.280388}},{"_id":6453324,"name":"Rana","country":"NO","coord":{"lon":14.13996,"lat":66.311218}},{"_id":3138292,"name":"Sletten","country":"NO","coord":{"lon":13.95,"lat":66.300003}},{"_id":3157780,"name":"Fauske","country":"NO","coord":{"lon":15.3941,"lat":67.259628}},{"_id":3157781,"name":"Fauske","country":"NO","coord":{"lon":15.39181,"lat":67.258827}},{"_id":3133897,"name":"Troms Fylke","country":"NO","coord":{"lon":19.66667,"lat":69.25}},{"_id":6453319,"name":"Harstad","country":"NO","coord":{"lon":16.529301,"lat":68.798958}},{"_id":3140471,"name":"Sama","country":"NO","coord":{"lon":16.51667,"lat":68.800003}},{"_id":3141101,"name":"Røykjenes","country":"NO","coord":{"lon":16.48917,"lat":68.832222}},{"_id":780166,"name":"Finnmark Fylke","country":"NO","coord":{"lon":25.0,"lat":70.0}},{"_id":779327,"name":"Kautokeino","country":"NO","coord":{"lon":23.04151,"lat":69.011513}},{"_id":779330,"name":"Kautokeino","country":"NO","coord":{"lon":23.041161,"lat":69.012466}},{"_id":780946,"name":"Alta","country":"NO","coord":{"lon":23.296341,"lat":69.976753}},{"_id":780604,"name":"Bossekop","country":"NO","coord":{"lon":23.259171,"lat":69.971939}},{"_id":6453323,"name":"Bodø","country":"NO","coord":{"lon":14.38319,"lat":67.283249}},{"_id":7647864,"name":"Greinveien","country":"NO","coord":{"lon":10.47466,"lat":59.290829}},{"_id":6453396,"name":"Sandefjord","country":"NO","coord":{"lon":10.21971,"lat":59.128811}},{"_id":6453394,"name":"Porsgrunn","country":"NO","coord":{"lon":9.6568,"lat":59.141899}},{"_id":3134070,"name":"Tranby","country":"NO","coord":{"lon":10.25,"lat":59.816669}},{"_id":3162320,"name":"Austevoll","country":"NO","coord":{"lon":5.22156,"lat":60.09486}},{"_id":3162771,"name":"Åsberg","country":"NO","coord":{"lon":8.43333,"lat":60.416672}},{"_id":3135605,"name":"Strusshamn","country":"NO","coord":{"lon":5.19083,"lat":60.404442}},{"_id":3137441,"name":"Sør-Odal","country":"NO","coord":{"lon":11.68246,"lat":60.254551}},{"_id":3159146,"name":"Doglo","country":"NO","coord":{"lon":11.03333,"lat":60.849998}},{"_id":3147714,"name":"Lesja","country":"NO","coord":{"lon":8.86262,"lat":62.117851}},{"_id":3162880,"name":"Årøy","country":"NO","coord":{"lon":7.26667,"lat":62.75}},{"_id":3133569,"name":"Tverrånes","country":"NO","coord":{"lon":14.16667,"lat":66.316673}},{"_id":3146478,"name":"Målselv","country":"NO","coord":{"lon":18.614981,"lat":69.123894}},{"_id":780543,"name":"Bukta","country":"NO","coord":{"lon":23.327499,"lat":69.976936}},{"_id":3152868,"name":"Herøya","country":"NO","coord":{"lon":9.63333,"lat":59.116669}},{"_id":3137941,"name":"Sola","country":"NO","coord":{"lon":5.64724,"lat":58.88805}},{"_id":3134865,"name":"Tananger","country":"NO","coord":{"lon":5.6,"lat":58.933331}},{"_id":3155644,"name":"Gjesdal","country":"NO","coord":{"lon":5.855,"lat":58.764778}},{"_id":3163379,"name":"Algard","country":"NO","coord":{"lon":5.85253,"lat":58.764172}},{"_id":3163480,"name":"Akershus fylke","country":"NO","coord":{"lon":11.16667,"lat":60.0}},{"_id":3162212,"name":"Bærum","country":"NO","coord":{"lon":10.52649,"lat":59.889961}},{"_id":3140128,"name":"Sandvika","country":"NO","coord":{"lon":10.52774,"lat":59.890732}},{"_id":3141104,"name":"Røyken","country":"NO","coord":{"lon":10.41321,"lat":59.740189}},{"_id":3162884,"name":"Aros","country":"NO","coord":{"lon":10.51361,"lat":59.70306}},{"_id":3162649,"name":"Askim","country":"NO","coord":{"lon":11.16084,"lat":59.584641}},{"_id":3162651,"name":"Askim","country":"NO","coord":{"lon":11.16286,"lat":59.58326}},{"_id":3158606,"name":"Eidsvoll","country":"NO","coord":{"lon":11.26119,"lat":60.32893}},{"_id":3159484,"name":"Dal","country":"NO","coord":{"lon":11.2,"lat":60.25}},{"_id":3139014,"name":"Skiptvet","country":"NO","coord":{"lon":11.16171,"lat":59.477509}},{"_id":3148297,"name":"Langli","country":"NO","coord":{"lon":11.13333,"lat":59.533329}},{"_id":3161901,"name":"Bekkjarvik","country":"NO","coord":{"lon":5.20028,"lat":60.002781}},{"_id":3154394,"name":"Hadsel","country":"NO","coord":{"lon":14.90835,"lat":68.563278}},{"_id":3132474,"name":"Vassvika","country":"NO","coord":{"lon":14.88333,"lat":68.5}},{"_id":3137400,"name":"Sør-Trøndelag Fylke","country":"NO","coord":{"lon":10.66667,"lat":63.0}},{"_id":3133517,"name":"Tydal","country":"NO","coord":{"lon":11.65038,"lat":63.044769}},{"_id":7626383,"name":"Stugudalen","country":"NO","coord":{"lon":11.89281,"lat":62.90799}},{"_id":3132015,"name":"Vestfold fylke","country":"NO","coord":{"lon":10.16667,"lat":59.25}},{"_id":6453386,"name":"Lardal","country":"NO","coord":{"lon":9.95918,"lat":59.402431}},{"_id":6545377,"name":"Heggelia","country":"NO","coord":{"lon":18.508869,"lat":69.04525}},{"_id":6453352,"name":"Vaksdal","country":"NO","coord":{"lon":5.82272,"lat":60.590302}},{"_id":3159438,"name":"Dale","country":"NO","coord":{"lon":5.81886,"lat":60.586391}},{"_id":3132064,"name":"Vest-Agder Fylke","country":"NO","coord":{"lon":7.16667,"lat":58.5}},{"_id":3132206,"name":"Vennesla","country":"NO","coord":{"lon":7.97596,"lat":58.342709}},{"_id":3132208,"name":"Vennesla","country":"NO","coord":{"lon":7.97413,"lat":58.26936}},{"_id":3154414,"name":"Hå","country":"NO","coord":{"lon":5.64497,"lat":58.6161}},{"_id":3145080,"name":"Naerbo","country":"NO","coord":{"lon":5.65,"lat":58.666672}},{"_id":3146469,"name":"Malvik","country":"NO","coord":{"lon":10.79382,"lat":63.410568}},{"_id":3140546,"name":"Saksvik","country":"NO","coord":{"lon":10.6,"lat":63.433331}},{"_id":3140043,"name":"Sauherad","country":"NO","coord":{"lon":9.2491,"lat":59.39642}},{"_id":3159442,"name":"Dale","country":"NO","coord":{"lon":9.33333,"lat":59.383331}},{"_id":6453405,"name":"Kristiansand","country":"NO","coord":{"lon":7.99687,"lat":58.14642}},{"_id":3131189,"name":"Ytre Skalevik","country":"NO","coord":{"lon":8.01667,"lat":58.083328}},{"_id":6453393,"name":"Sandnes","country":"NO","coord":{"lon":5.72855,"lat":58.847599}},{"_id":3156136,"name":"Ganddal","country":"NO","coord":{"lon":5.71667,"lat":58.816669}},{"_id":3230781,"name":"Hella","country":"NO","coord":{"lon":14.43333,"lat":67.199997}},{"_id":6453390,"name":"Larvik","country":"NO","coord":{"lon":10.02709,"lat":59.052292}},{"_id":3148044,"name":"Lauve","country":"NO","coord":{"lon":10.15,"lat":59.066669}},{"_id":3143242,"name":"Oslo Fylke","country":"NO","coord":{"lon":10.73364,"lat":59.911819}},{"_id":6453366,"name":"Oslo","country":"NO","coord":{"lon":10.73367,"lat":59.911831}},{"_id":3138360,"name":"Skytta","country":"NO","coord":{"lon":10.91667,"lat":60.0}},{"_id":3154802,"name":"Grorud","country":"NO","coord":{"lon":10.88333,"lat":59.950001}},{"_id":3143244,"name":"Oslo","country":"NO","coord":{"lon":10.74609,"lat":59.912731}},{"_id":6453364,"name":"Nes","country":"NO","coord":{"lon":11.4657,"lat":60.12252}},{"_id":6545362,"name":"Fjellfoten","country":"NO","coord":{"lon":11.47222,"lat":60.089668}},{"_id":6453363,"name":"Nore og Uvdal","country":"NO","coord":{"lon":8.94635,"lat":60.267059}},{"_id":3144171,"name":"Nørdstebø","country":"NO","coord":{"lon":8.5,"lat":60.316669}},{"_id":6453385,"name":"Våler","country":"NO","coord":{"lon":10.86551,"lat":59.488701}},{"_id":3144431,"name":"Nordby","country":"NO","coord":{"lon":11.1,"lat":59.433331}},{"_id":3157694,"name":"Fet","country":"NO","coord":{"lon":11.16778,"lat":59.922161}},{"_id":6545373,"name":"Tuen","country":"NO","coord":{"lon":11.1022,"lat":59.944309}},{"_id":3161733,"name":"Bergen","country":"NO","coord":{"lon":5.328,"lat":60.391998}},{"_id":3161732,"name":"Bergen","country":"NO","coord":{"lon":5.32415,"lat":60.39299}},{"_id":6453392,"name":"Fredrikstad","country":"NO","coord":{"lon":10.93787,"lat":59.21759}},{"_id":6453391,"name":"Stavanger","country":"NO","coord":{"lon":5.72856,"lat":58.96941}},{"_id":3136215,"name":"Storhaug","country":"NO","coord":{"lon":5.75,"lat":58.966671}},{"_id":3133881,"name":"Trondheim","country":"NO","coord":{"lon":10.39687,"lat":63.428108}},{"_id":3133880,"name":"Trondheim","country":"NO","coord":{"lon":10.39506,"lat":63.430489}},{"_id":3149318,"name":"Kristiansand","country":"NO","coord":{"lon":7.9956,"lat":58.146709}},{"_id":3158795,"name":"Eg","country":"NO","coord":{"lon":7.98157,"lat":58.164089}},{"_id":3160881,"name":"Bodo","country":"NO","coord":{"lon":14.40501,"lat":67.279999}},{"_id":3155423,"name":"Gokstad","country":"NO","coord":{"lon":10.23333,"lat":59.133331}},{"_id":6453389,"name":"Tønsberg","country":"NO","coord":{"lon":10.40939,"lat":59.271141}},{"_id":8128567,"name":"Eik","country":"NO","coord":{"lon":10.41916,"lat":59.290329}},{"_id":6453372,"name":"Drammen","country":"NO","coord":{"lon":10.20597,"lat":59.745361}},{"_id":3159016,"name":"Drammen","country":"NO","coord":{"lon":10.20449,"lat":59.743889}},{"_id":3148129,"name":"Larvik","country":"NO","coord":{"lon":10.03517,"lat":59.05328}},{"_id":6453321,"name":"Narvik","country":"NO","coord":{"lon":17.42775,"lat":68.438957}},{"_id":3143250,"name":"Oskarsborg","country":"NO","coord":{"lon":17.433331,"lat":68.433327}},{"_id":777554,"name":"Sør-Varanger","country":"NO","coord":{"lon":30.042641,"lat":69.728592}},{"_id":779303,"name":"Kirkenes","country":"NO","coord":{"lon":30.04578,"lat":69.727058}},{"_id":3134259,"name":"Torp","country":"NO","coord":{"lon":11.03333,"lat":59.25}},{"_id":6693020,"name":"Jarbakken","country":"NO","coord":{"lon":10.6553,"lat":59.953602}},{"_id":3152136,"name":"Holmenkollen","country":"NO","coord":{"lon":10.66824,"lat":59.961071}},{"_id":6453395,"name":"Halden","country":"NO","coord":{"lon":11.38709,"lat":59.122581}},{"_id":3137261,"name":"Sponvika","country":"NO","coord":{"lon":11.23333,"lat":59.099998}},{"_id":3140321,"name":"Sandnes","country":"NO","coord":{"lon":5.73521,"lat":58.85244}},{"_id":3142567,"name":"Råde","country":"NO","coord":{"lon":10.87135,"lat":59.35162}},{"_id":3134387,"name":"Tom","country":"NO","coord":{"lon":10.81667,"lat":59.316669}},{"_id":3161164,"name":"Bjorvik","country":"NO","coord":{"lon":18.933331,"lat":69.683327}},{"_id":3158002,"name":"Evenes","country":"NO","coord":{"lon":17.008881,"lat":68.523338}},{"_id":3158001,"name":"Evenesmarkja","country":"NO","coord":{"lon":16.75,"lat":68.48333}},{"_id":3155805,"name":"Giske","country":"NO","coord":{"lon":6.13472,"lat":62.500702}},{"_id":3141667,"name":"Roald","country":"NO","coord":{"lon":6.13333,"lat":62.583328}},{"_id":3150058,"name":"Kjevik","country":"NO","coord":{"lon":8.0825,"lat":58.206902}},{"_id":3144148,"name":"Nord-Trøndelag Fylke","country":"NO","coord":{"lon":12.0,"lat":64.416672}},{"_id":3136768,"name":"Stjørdal","country":"NO","coord":{"lon":11.0273,"lat":63.56699}},{"_id":3136765,"name":"Stjordalshalsen","country":"NO","coord":{"lon":10.92618,"lat":63.468102}},{"_id":3134260,"name":"Torp","country":"NO","coord":{"lon":10.2425,"lat":59.179722}},{"_id":3143410,"name":"Ørland","country":"NO","coord":{"lon":9.66633,"lat":63.685741}},{"_id":3159198,"name":"Djupdalen","country":"NO","coord":{"lon":9.58333,"lat":63.700001}},{"_id":6453314,"name":"Porsanger","country":"NO","coord":{"lon":24.955919,"lat":70.052139}},{"_id":779082,"name":"Lakselv","country":"NO","coord":{"lon":24.971821,"lat":70.051331}},{"_id":3133381,"name":"Ullensaker","country":"NO","coord":{"lon":11.17441,"lat":60.144009}},{"_id":3156087,"name":"Gardermoen","country":"NO","coord":{"lon":11.1,"lat":60.216671}},{"_id":3157913,"name":"Fagerlia","country":"NO","coord":{"lon":18.51667,"lat":69.066673}},{"_id":780238,"name":"Elvebakken","country":"NO","coord":{"lon":23.35,"lat":69.966667}},{"_id":779540,"name":"Høybukt","country":"NO","coord":{"lon":29.883329,"lat":69.716667}},{"_id":3152876,"name":"Hernes","country":"NO","coord":{"lon":14.36667,"lat":67.26667}},{"_id":3157043,"name":"Flesland","country":"NO","coord":{"lon":5.21121,"lat":60.296719}},{"_id":6453331,"name":"Kristiansund","country":"NO","coord":{"lon":7.73198,"lat":63.111519}},{"_id":3142061,"name":"Reinsvik","country":"NO","coord":{"lon":7.81667,"lat":63.099998}},{"_id":6453375,"name":"Karmøy","country":"NO","coord":{"lon":5.30529,"lat":59.280788}},{"_id":3131500,"name":"Visnes","country":"NO","coord":{"lon":5.22417,"lat":59.35556}},{"_id":3137942,"name":"Sola","country":"NO","coord":{"lon":5.65285,"lat":58.888538}},{"_id":3155826,"name":"Gimra","country":"NO","coord":{"lon":5.65,"lat":58.866669}},{"_id":6453315,"name":"Vadsø","country":"NO","coord":{"lon":29.74922,"lat":70.07412}},{"_id":779317,"name":"Kiby","country":"NO","coord":{"lon":29.866671,"lat":70.050003}},{"_id":3163293,"name":"Alstahaug","country":"NO","coord":{"lon":12.60211,"lat":66.019371}},{"_id":3137344,"name":"Søvik","country":"NO","coord":{"lon":12.46667,"lat":65.933327}},{"_id":6453313,"name":"Vardø","country":"NO","coord":{"lon":31.10866,"lat":70.370399}},{"_id":777221,"name":"Svartnes","country":"NO","coord":{"lon":31.033331,"lat":70.349998}},{"_id":778430,"name":"Nordreisa","country":"NO","coord":{"lon":21.02569,"lat":69.76825}},{"_id":777572,"name":"Sørkjosen","country":"NO","coord":{"lon":20.933331,"lat":69.800003}},{"_id":3160744,"name":"Bømlo","country":"NO","coord":{"lon":5.17624,"lat":59.793839}},{"_id":3156892,"name":"Foldrøyhamn","country":"NO","coord":{"lon":5.30167,"lat":59.797218}},{"_id":6453383,"name":"Skien","country":"NO","coord":{"lon":9.61052,"lat":59.207481}},{"_id":3157287,"name":"Fjere","country":"NO","coord":{"lon":9.56667,"lat":59.183331}},{"_id":3137974,"name":"Sogndal","country":"NO","coord":{"lon":7.10301,"lat":61.231441}},{"_id":3152189,"name":"Holm","country":"NO","coord":{"lon":7.16667,"lat":61.150002}},{"_id":3155473,"name":"Gloppen","country":"NO","coord":{"lon":6.21561,"lat":61.777279}},{"_id":3132174,"name":"Vereide","country":"NO","coord":{"lon":6.15,"lat":61.816669}},{"_id":3141198,"name":"Røst","country":"NO","coord":{"lon":12.11564,"lat":67.517273}},{"_id":3141214,"name":"Rost","country":"NO","coord":{"lon":12.1176,"lat":67.51754}},{"_id":6453339,"name":"Røros","country":"NO","coord":{"lon":11.3873,"lat":62.575619}},{"_id":3135469,"name":"Sundbakken","country":"NO","coord":{"lon":11.31667,"lat":62.583328}},{"_id":3131656,"name":"Vikna","country":"NO","coord":{"lon":11.24198,"lat":64.863617}},{"_id":3140840,"name":"Ryem","country":"NO","coord":{"lon":11.16667,"lat":64.849998}},{"_id":3141217,"name":"Røssvoll","country":"NO","coord":{"lon":14.33333,"lat":66.366669}},{"_id":3143333,"name":"Ørsta","country":"NO","coord":{"lon":6.13084,"lat":62.199371}},{"_id":3224678,"name":"Ytre Hovden","country":"NO","coord":{"lon":6.06667,"lat":62.183331}},{"_id":6453369,"name":"Notodden","country":"NO","coord":{"lon":9.26046,"lat":59.559921}},{"_id":3139818,"name":"Sem","country":"NO","coord":{"lon":9.21667,"lat":59.566669}},{"_id":6453328,"name":"Namsos","country":"NO","coord":{"lon":11.35767,"lat":64.438011}},{"_id":3151545,"name":"Høyknes","country":"NO","coord":{"lon":11.56667,"lat":64.466667}},{"_id":3156545,"name":"Framnes","country":"NO","coord":{"lon":17.383329,"lat":68.433327}},{"_id":3132346,"name":"Vefsn","country":"NO","coord":{"lon":13.20024,"lat":65.841087}},{"_id":3162498,"name":"Aufles","country":"NO","coord":{"lon":13.23333,"lat":65.783333}},{"_id":779933,"name":"Gamvik","country":"NO","coord":{"lon":27.85144,"lat":71.041069}},{"_id":778707,"name":"Mehamn","country":"NO","coord":{"lon":27.849171,"lat":71.035698}},{"_id":6453322,"name":"Vestvågøy","country":"NO","coord":{"lon":13.61119,"lat":68.1483}},{"_id":7626400,"name":"Leknes","country":"NO","coord":{"lon":13.61151,"lat":68.147461}},{"_id":6453403,"name":"Farsund","country":"NO","coord":{"lon":6.80403,"lat":58.095379}},{"_id":3160643,"name":"Borhaug","country":"NO","coord":{"lon":6.6,"lat":58.099998}},{"_id":778459,"name":"Nordkapp","country":"NO","coord":{"lon":25.97473,"lat":70.978081}},{"_id":824563,"name":"Nordmannset","country":"NO","coord":{"lon":25.98333,"lat":71.008331}},{"_id":779641,"name":"Hasvik","country":"NO","coord":{"lon":22.302719,"lat":70.591637}},{"_id":779642,"name":"Hasvik","country":"NO","coord":{"lon":22.15904,"lat":70.486801}},{"_id":3156987,"name":"Flora","country":"NO","coord":{"lon":5.03144,"lat":61.599941}},{"_id":3156980,"name":"Floro","country":"NO","coord":{"lon":5.0328,"lat":61.599571}},{"_id":3144466,"name":"Nord-Aurdal","country":"NO","coord":{"lon":9.23661,"lat":60.98531}},{"_id":3156083,"name":"Gardli","country":"NO","coord":{"lon":9.28333,"lat":60.98333}},{"_id":3135575,"name":"Stunes","country":"NO","coord":{"lon":16.65,"lat":68.466667}},{"_id":3140881,"name":"Rusta","country":"NO","coord":{"lon":18.51667,"lat":69.050003}},{"_id":780686,"name":"Berlevåg","country":"NO","coord":{"lon":29.0853,"lat":70.858093}},{"_id":780687,"name":"Berlevag","country":"NO","coord":{"lon":29.086361,"lat":70.85778}},{"_id":780714,"name":"Båtsfjord","country":"NO","coord":{"lon":29.721491,"lat":70.635063}},{"_id":777347,"name":"Straumen","country":"NO","coord":{"lon":29.683331,"lat":70.616669}},{"_id":3159955,"name":"Brønnøy","country":"NO","coord":{"lon":12.20626,"lat":65.467857}},{"_id":3159954,"name":"Bronnoysund","country":"NO","coord":{"lon":12.19973,"lat":65.462502}},{"_id":3155980,"name":"Gaular","country":"NO","coord":{"lon":5.79523,"lat":61.325642}},{"_id":3152562,"name":"Hjelmeland","country":"NO","coord":{"lon":5.73333,"lat":61.383331}},{"_id":6453318,"name":"Andøy","country":"NO","coord":{"lon":15.68506,"lat":69.202393}},{"_id":3163146,"name":"Andenes","country":"NO","coord":{"lon":16.11939,"lat":69.314278}},{"_id":3134955,"name":"Synes","country":"NO","coord":{"lon":6.06667,"lat":62.549999}},{"_id":3145014,"name":"Nannestad","country":"NO","coord":{"lon":11.012,"lat":60.217072}},{"_id":3156091,"name":"Garder","country":"NO","coord":{"lon":11.05,"lat":60.200001}},{"_id":3133895,"name":"Tromso","country":"NO","coord":{"lon":18.95508,"lat":69.648903}},{"_id":3134331,"name":"Tonsberg","country":"NO","coord":{"lon":10.40762,"lat":59.26754}},{"_id":3137115,"name":"Stavanger","country":"NO","coord":{"lon":5.73332,"lat":58.970051}},{"_id":3139075,"name":"Skien","country":"NO","coord":{"lon":9.60897,"lat":59.209621}},{"_id":3140084,"name":"Sarpsborg","country":"NO","coord":{"lon":11.10962,"lat":59.283909}},{"_id":3140390,"name":"Sandefjord","country":"NO","coord":{"lon":10.21665,"lat":59.13118}},{"_id":3149563,"name":"Kongsberg","country":"NO","coord":{"lon":9.65017,"lat":59.668579}},{"_id":3151770,"name":"Horten","country":"NO","coord":{"lon":10.48343,"lat":59.41721}},{"_id":3153623,"name":"Haugesund","country":"NO","coord":{"lon":5.268,"lat":59.41378}},{"_id":3153823,"name":"Harstad","country":"NO","coord":{"lon":16.541651,"lat":68.798332}},{"_id":3156529,"name":"Fredrikstad","country":"NO","coord":{"lon":10.9298,"lat":59.218102}},{"_id":3163392,"name":"Alesund","country":"NO","coord":{"lon":6.15492,"lat":62.472252}},{"_id":3336587,"name":"Askoy","country":"NO","coord":{"lon":5.18333,"lat":60.400002}},{"_id":3142849,"name":"Øyer","country":"NO","coord":{"lon":10.41297,"lat":61.26495}},{"_id":3134016,"name":"Tretten","country":"NO","coord":{"lon":10.30066,"lat":61.314232}},{"_id":779349,"name":"Karasjok","country":"NO","coord":{"lon":25.51885,"lat":69.472237}},{"_id":779350,"name":"Karasjok","country":"NO","coord":{"lon":25.511221,"lat":69.47187}},{"_id":777019,"name":"Vardo","country":"NO","coord":{"lon":31.110661,"lat":70.370483}},{"_id":777032,"name":"Varangerbotn","country":"NO","coord":{"lon":28.555981,"lat":70.172783}},{"_id":777073,"name":"Vadso","country":"NO","coord":{"lon":29.74872,"lat":70.074364}},{"_id":777381,"name":"Storslett","country":"NO","coord":{"lon":21.02466,"lat":69.76783}},{"_id":777682,"name":"Skjervoy","country":"NO","coord":{"lon":20.971411,"lat":70.031143}},{"_id":778346,"name":"Olderdalen","country":"NO","coord":{"lon":20.532721,"lat":69.604073}},{"_id":778362,"name":"Oksfjord","country":"NO","coord":{"lon":22.34786,"lat":70.239571}},{"_id":778829,"name":"Lyngseidet","country":"NO","coord":{"lon":20.21887,"lat":69.576286}},{"_id":779146,"name":"Kvalsund","country":"NO","coord":{"lon":23.97974,"lat":70.502708}},{"_id":779261,"name":"Kjollefjord","country":"NO","coord":{"lon":27.3465,"lat":70.94574}},{"_id":779554,"name":"Honningsvag","country":"NO","coord":{"lon":25.970369,"lat":70.982094}},{"_id":779622,"name":"Havoysund","country":"NO","coord":{"lon":24.66217,"lat":70.996338}},{"_id":780524,"name":"Burfjord","country":"NO","coord":{"lon":22.05205,"lat":69.938042}},{"_id":780643,"name":"Bjornevatn","country":"NO","coord":{"lon":29.98472,"lat":69.667221}},{"_id":780717,"name":"Batsfjord","country":"NO","coord":{"lon":29.718479,"lat":70.634453}},{"_id":847633,"name":"Alta","country":"NO","coord":{"lon":23.27165,"lat":69.968872}},{"_id":847634,"name":"Rypefjord","country":"NO","coord":{"lon":23.66667,"lat":70.633331}},{"_id":3131178,"name":"Ytre Strai","country":"NO","coord":{"lon":7.9,"lat":58.200001}},{"_id":3131246,"name":"Ytre Arna","country":"NO","coord":{"lon":5.43333,"lat":60.466671}},{"_id":3131329,"name":"Vossevangen","country":"NO","coord":{"lon":6.42286,"lat":60.622959}},{"_id":3131449,"name":"Volda","country":"NO","coord":{"lon":6.07408,"lat":62.147621}},{"_id":3131538,"name":"Vinstra","country":"NO","coord":{"lon":9.75232,"lat":61.59515}},{"_id":3131653,"name":"Vikoyri","country":"NO","coord":{"lon":6.5797,"lat":61.08794}},{"_id":3131683,"name":"Vikesa","country":"NO","coord":{"lon":6.09133,"lat":58.637589}},{"_id":3131684,"name":"Vikersund","country":"NO","coord":{"lon":9.99501,"lat":59.965919}},{"_id":3131781,"name":"Vik","country":"NO","coord":{"lon":12.16734,"lat":65.312538}},{"_id":3131824,"name":"Vigrestad","country":"NO","coord":{"lon":5.7,"lat":58.566669}},{"_id":3131848,"name":"Vigeland","country":"NO","coord":{"lon":7.30497,"lat":58.08437}},{"_id":3131901,"name":"Vevelstad","country":"NO","coord":{"lon":12.43706,"lat":65.6978}},{"_id":3132051,"name":"Vestbygd","country":"NO","coord":{"lon":6.58333,"lat":58.099998}},{"_id":3132058,"name":"Vestby","country":"NO","coord":{"lon":10.74668,"lat":59.602371}},{"_id":3132176,"name":"Verdal","country":"NO","coord":{"lon":11.4817,"lat":63.79332}},{"_id":3132428,"name":"Vatne","country":"NO","coord":{"lon":6.65,"lat":62.566669}},{"_id":3132644,"name":"Varhaug","country":"NO","coord":{"lon":5.64571,"lat":58.614712}},{"_id":3132720,"name":"Vanse","country":"NO","coord":{"lon":6.7,"lat":58.116669}},{"_id":3132735,"name":"Vangsvika","country":"NO","coord":{"lon":17.734159,"lat":69.17057}},{"_id":3132852,"name":"Valle","country":"NO","coord":{"lon":7.53559,"lat":59.212589}},{"_id":3132864,"name":"Valldal","country":"NO","coord":{"lon":7.26374,"lat":62.297821}},{"_id":3132893,"name":"Valer","country":"NO","coord":{"lon":11.83314,"lat":60.678452}},{"_id":3133053,"name":"Vagamo","country":"NO","coord":{"lon":9.09671,"lat":61.87505}},{"_id":3133145,"name":"Utsira","country":"NO","coord":{"lon":4.8862,"lat":59.305698}},{"_id":3133314,"name":"Ulvik","country":"NO","coord":{"lon":6.91701,"lat":60.571171}},{"_id":3133349,"name":"Ulsteinvik","country":"NO","coord":{"lon":5.84869,"lat":62.34317}},{"_id":3133402,"name":"Ulefoss","country":"NO","coord":{"lon":9.26459,"lat":59.283821}},{"_id":3133425,"name":"Uggdal","country":"NO","coord":{"lon":5.52876,"lat":60.004021}},{"_id":3133448,"name":"Tysvaer","country":"NO","coord":{"lon":5.5,"lat":59.333328}},{"_id":3133464,"name":"Tysse","country":"NO","coord":{"lon":5.75952,"lat":60.374039}},{"_id":3133498,"name":"Tynset","country":"NO","coord":{"lon":10.78241,"lat":62.27594}},{"_id":3133663,"name":"Tveit","country":"NO","coord":{"lon":8.12199,"lat":58.233662}},{"_id":3133681,"name":"Tvedestrand","country":"NO","coord":{"lon":8.93147,"lat":58.622028}},{"_id":3133819,"name":"Innbygda","country":"NO","coord":{"lon":12.26374,"lat":61.314838}},{"_id":3133983,"name":"Trofors","country":"NO","coord":{"lon":13.40631,"lat":65.533348}},{"_id":3134011,"name":"Treungen","country":"NO","coord":{"lon":8.52375,"lat":59.021542}},{"_id":3134327,"name":"Tonstad","country":"NO","coord":{"lon":6.71694,"lat":58.662628}},{"_id":3134349,"name":"Tomter","country":"NO","coord":{"lon":11.0,"lat":59.650002}},{"_id":3134357,"name":"Tomra","country":"NO","coord":{"lon":6.93333,"lat":62.583328}},{"_id":3134404,"name":"Tolga","country":"NO","coord":{"lon":10.99883,"lat":62.408981}},{"_id":3134429,"name":"Tofte","country":"NO","coord":{"lon":10.56138,"lat":59.542751}},{"_id":3134521,"name":"Tjome","country":"NO","coord":{"lon":10.3933,"lat":59.110901}},{"_id":3134552,"name":"Tjeldsto","country":"NO","coord":{"lon":4.84421,"lat":60.59861}},{"_id":3134599,"name":"Tingvatn","country":"NO","coord":{"lon":7.2197,"lat":58.375702}},{"_id":3134658,"name":"Terrak","country":"NO","coord":{"lon":12.37148,"lat":65.086998}},{"_id":3134776,"name":"Tau","country":"NO","coord":{"lon":5.9,"lat":59.066669}},{"_id":3134827,"name":"Tangvall","country":"NO","coord":{"lon":7.81455,"lat":58.09692}},{"_id":3134993,"name":"Syfteland","country":"NO","coord":{"lon":5.44833,"lat":60.237499}},{"_id":3135020,"name":"Svolvaer","country":"NO","coord":{"lon":14.56834,"lat":68.234169}},{"_id":3135124,"name":"Svelvik","country":"NO","coord":{"lon":10.40872,"lat":59.613701}},{"_id":3135132,"name":"Svelgen","country":"NO","coord":{"lon":5.29548,"lat":61.76852}},{"_id":3135137,"name":"Sveio","country":"NO","coord":{"lon":5.35178,"lat":59.541901}},{"_id":3135377,"name":"Sunndalsora","country":"NO","coord":{"lon":8.55153,"lat":62.675449}},{"_id":3135601,"name":"Stryn","country":"NO","coord":{"lon":6.72264,"lat":61.90448}},{"_id":3135726,"name":"Straumen","country":"NO","coord":{"lon":15.60493,"lat":67.347687}},{"_id":3135728,"name":"Straumen","country":"NO","coord":{"lon":11.29989,"lat":63.870861}},{"_id":3135739,"name":"Straume","country":"NO","coord":{"lon":14.47205,"lat":68.688797}},{"_id":3135813,"name":"Stranda","country":"NO","coord":{"lon":6.93582,"lat":62.309639}},{"_id":3136023,"name":"Storsteinnes","country":"NO","coord":{"lon":19.234369,"lat":69.240807}},{"_id":3136618,"name":"Storebo","country":"NO","coord":{"lon":5.22705,"lat":60.094849}},{"_id":3136690,"name":"Stokmarknes","country":"NO","coord":{"lon":14.91075,"lat":68.564621}},{"_id":3136725,"name":"Stokke","country":"NO","coord":{"lon":10.30033,"lat":59.223579}},{"_id":3136903,"name":"Steinshamn","country":"NO","coord":{"lon":6.46975,"lat":62.783272}},{"_id":3137091,"name":"Stavern","country":"NO","coord":{"lon":10.03333,"lat":59.0}},{"_id":3137169,"name":"Stange","country":"NO","coord":{"lon":11.19417,"lat":60.718029}},{"_id":3137245,"name":"Spydeberg","country":"NO","coord":{"lon":11.08559,"lat":59.617088}},{"_id":3137304,"name":"Spetalen","country":"NO","coord":{"lon":11.9,"lat":60.183331}},{"_id":3137390,"name":"Sorumsand","country":"NO","coord":{"lon":11.23981,"lat":59.985088}},{"_id":3137405,"name":"Sortland","country":"NO","coord":{"lon":15.41618,"lat":68.694939}},{"_id":3137469,"name":"Sorland","country":"NO","coord":{"lon":12.69343,"lat":67.666962}},{"_id":3137971,"name":"Sogne","country":"NO","coord":{"lon":7.81667,"lat":58.083328}},{"_id":3137973,"name":"Sogndalsfjora","country":"NO","coord":{"lon":7.10178,"lat":61.22575}},{"_id":3138076,"name":"Snasa","country":"NO","coord":{"lon":12.37779,"lat":64.245697}},{"_id":3138304,"name":"Slemmestad","country":"NO","coord":{"lon":10.49883,"lat":59.780361}},{"_id":3138423,"name":"Skui","country":"NO","coord":{"lon":10.4475,"lat":59.92746}},{"_id":3138429,"name":"Skudeneshavn","country":"NO","coord":{"lon":5.25687,"lat":59.14856}},{"_id":3138479,"name":"Skreia","country":"NO","coord":{"lon":10.93333,"lat":60.650002}},{"_id":3138532,"name":"Skotterud","country":"NO","coord":{"lon":12.12825,"lat":59.982811}},{"_id":3138624,"name":"Skoppum","country":"NO","coord":{"lon":10.41667,"lat":59.383331}},{"_id":3138701,"name":"Skogn","country":"NO","coord":{"lon":11.2,"lat":63.700001}},{"_id":3138713,"name":"Skoger","country":"NO","coord":{"lon":10.23333,"lat":59.666672}},{"_id":3138747,"name":"Skodje","country":"NO","coord":{"lon":6.70343,"lat":62.50206}},{"_id":3138955,"name":"Skjeberg","country":"NO","coord":{"lon":11.2,"lat":59.23333}},{"_id":3138976,"name":"Skjaerhalden","country":"NO","coord":{"lon":11.03685,"lat":59.025261}},{"_id":3139081,"name":"Ski","country":"NO","coord":{"lon":10.83576,"lat":59.71949}},{"_id":3139148,"name":"Skaun","country":"NO","coord":{"lon":10.06667,"lat":63.25}},{"_id":3139244,"name":"Skarnes","country":"NO","coord":{"lon":11.67974,"lat":60.252838}},{"_id":3139431,"name":"Skaland","country":"NO","coord":{"lon":17.298321,"lat":69.444557}},{"_id":3139516,"name":"Sjovegan","country":"NO","coord":{"lon":17.847441,"lat":68.87262}},{"_id":3139530,"name":"Skjonhaug","country":"NO","coord":{"lon":11.31591,"lat":59.64069}},{"_id":3139557,"name":"Sjoholt","country":"NO","coord":{"lon":6.81062,"lat":62.483711}},{"_id":3139597,"name":"Sistranda","country":"NO","coord":{"lon":8.83402,"lat":63.725552}},{"_id":3139676,"name":"Siljan","country":"NO","coord":{"lon":9.71,"lat":59.288429}},{"_id":3139765,"name":"Setermoen","country":"NO","coord":{"lon":18.34857,"lat":68.860992}},{"_id":3139819,"name":"Sem","country":"NO","coord":{"lon":10.33333,"lat":59.283329}},{"_id":3139826,"name":"Selvik","country":"NO","coord":{"lon":10.25833,"lat":59.56889}},{"_id":3139894,"name":"Seljord","country":"NO","coord":{"lon":8.63403,"lat":59.489399}},{"_id":3139914,"name":"Selje","country":"NO","coord":{"lon":5.35096,"lat":62.04591}},{"_id":3140056,"name":"Sauda","country":"NO","coord":{"lon":6.35415,"lat":59.650589}},{"_id":3140301,"name":"Sandnessjoen","country":"NO","coord":{"lon":12.63158,"lat":66.02166}},{"_id":3140396,"name":"Sande","country":"NO","coord":{"lon":5.79773,"lat":61.325111}},{"_id":3140398,"name":"Sande","country":"NO","coord":{"lon":10.20809,"lat":59.586788}},{"_id":3140431,"name":"Sandane","country":"NO","coord":{"lon":6.21496,"lat":61.77277}},{"_id":3140452,"name":"Sand","country":"NO","coord":{"lon":11.5403,"lat":60.3922}},{"_id":3140573,"name":"Sagvag","country":"NO","coord":{"lon":5.39611,"lat":59.77861}},{"_id":3140636,"name":"Saetre","country":"NO","coord":{"lon":10.52472,"lat":59.681671}},{"_id":3140825,"name":"Rygge","country":"NO","coord":{"lon":10.75142,"lat":59.381729}},{"_id":3141032,"name":"Rubbestadneset","country":"NO","coord":{"lon":5.26806,"lat":59.81472}},{"_id":3141061,"name":"Royrvik","country":"NO","coord":{"lon":13.56219,"lat":64.887329}},{"_id":3141107,"name":"Royken","country":"NO","coord":{"lon":10.39361,"lat":59.747501}},{"_id":3141156,"name":"Rotnes","country":"NO","coord":{"lon":10.86135,"lat":60.057072}},{"_id":3141292,"name":"Rosendal","country":"NO","coord":{"lon":6.01348,"lat":59.986691}},{"_id":3141310,"name":"Rorvik","country":"NO","coord":{"lon":11.23734,"lat":64.862083}},{"_id":3141332,"name":"Roros","country":"NO","coord":{"lon":11.3842,"lat":62.57468}},{"_id":3141469,"name":"Rollag","country":"NO","coord":{"lon":9.29644,"lat":59.98431}},{"_id":3141548,"name":"Rognan","country":"NO","coord":{"lon":15.38778,"lat":67.095284}},{"_id":3141671,"name":"Roa","country":"NO","coord":{"lon":10.61585,"lat":60.290932}},{"_id":3141682,"name":"Rjukan","country":"NO","coord":{"lon":8.59411,"lat":59.87891}},{"_id":3141747,"name":"Risor","country":"NO","coord":{"lon":9.23422,"lat":58.72057}},{"_id":3141850,"name":"Ringebu","country":"NO","coord":{"lon":10.16667,"lat":61.51667}},{"_id":3141866,"name":"Rindal","country":"NO","coord":{"lon":9.21239,"lat":63.056499}},{"_id":3141982,"name":"Rena","country":"NO","coord":{"lon":11.36409,"lat":61.134838}},{"_id":3142060,"name":"Reinsvoll","country":"NO","coord":{"lon":10.61667,"lat":60.683331}},{"_id":3142127,"name":"Reine","country":"NO","coord":{"lon":13.08955,"lat":67.932487}},{"_id":3142228,"name":"Raufoss","country":"NO","coord":{"lon":10.61718,"lat":60.726379}},{"_id":3142371,"name":"Ranemsletta","country":"NO","coord":{"lon":11.94912,"lat":64.494469}},{"_id":3142396,"name":"Randaberg","country":"NO","coord":{"lon":5.61871,"lat":58.99955}},{"_id":3142502,"name":"Ramberg","country":"NO","coord":{"lon":13.23177,"lat":68.08902}},{"_id":3142520,"name":"Rakkestad","country":"NO","coord":{"lon":11.34535,"lat":59.425129}},{"_id":3142539,"name":"Raholt","country":"NO","coord":{"lon":11.18333,"lat":60.26667}},{"_id":3142623,"name":"Prestfoss","country":"NO","coord":{"lon":9.63022,"lat":60.042229}},{"_id":3142626,"name":"Prestestranda","country":"NO","coord":{"lon":9.05866,"lat":59.097729}},{"_id":3142754,"name":"Oystese","country":"NO","coord":{"lon":6.19251,"lat":60.388248}},{"_id":3143034,"name":"Ovre Ardal","country":"NO","coord":{"lon":7.8,"lat":61.316669}},{"_id":3143120,"name":"Otta","country":"NO","coord":{"lon":9.53529,"lat":61.771198}},{"_id":3143237,"name":"Osoyro","country":"NO","coord":{"lon":5.4638,"lat":60.183849}},{"_id":3143303,"name":"Os","country":"NO","coord":{"lon":11.22326,"lat":62.496471}},{"_id":3143368,"name":"Ornes","country":"NO","coord":{"lon":13.7078,"lat":66.868896}},{"_id":3143423,"name":"Orkanger","country":"NO","coord":{"lon":9.85352,"lat":63.312229}},{"_id":3143427,"name":"Orje","country":"NO","coord":{"lon":11.66016,"lat":59.480228}},{"_id":3143513,"name":"Oppdal","country":"NO","coord":{"lon":9.6912,"lat":62.594311}},{"_id":3143628,"name":"Olen","country":"NO","coord":{"lon":5.80799,"lat":59.60437}},{"_id":3143830,"name":"Odda","country":"NO","coord":{"lon":6.54565,"lat":60.069118}},{"_id":3144075,"name":"Notodden","country":"NO","coord":{"lon":9.25853,"lat":59.559361}},{"_id":3144110,"name":"Norheimsund","country":"NO","coord":{"lon":6.14562,"lat":60.370892}},{"_id":3144113,"name":"Noresund","country":"NO","coord":{"lon":9.62312,"lat":60.180321}},{"_id":3144369,"name":"Nordfjordeid","country":"NO","coord":{"lon":5.99154,"lat":61.906261}},{"_id":3144534,"name":"Nodeland","country":"NO","coord":{"lon":7.83576,"lat":58.15517}},{"_id":3144661,"name":"Nesna","country":"NO","coord":{"lon":13.02133,"lat":66.196716}},{"_id":3144733,"name":"Nesbyen","country":"NO","coord":{"lon":9.10274,"lat":60.568089}},{"_id":3144953,"name":"Naustdal","country":"NO","coord":{"lon":5.71675,"lat":61.508961}},{"_id":3144987,"name":"Narvik","country":"NO","coord":{"lon":17.4272,"lat":68.438377}},{"_id":3145021,"name":"Namsskogan","country":"NO","coord":{"lon":13.15954,"lat":64.928864}},{"_id":3145023,"name":"Namsos","country":"NO","coord":{"lon":11.49572,"lat":64.46624}},{"_id":3145094,"name":"Mysen","country":"NO","coord":{"lon":11.32578,"lat":59.553539}},{"_id":3145148,"name":"Myre","country":"NO","coord":{"lon":15.94917,"lat":69.103607}},{"_id":3145171,"name":"Myra","country":"NO","coord":{"lon":8.86,"lat":58.746658}},{"_id":3145357,"name":"Mosterhamn","country":"NO","coord":{"lon":5.38333,"lat":59.700001}},{"_id":3145386,"name":"Mosjoen","country":"NO","coord":{"lon":13.19076,"lat":65.835991}},{"_id":3145573,"name":"Moldjord","country":"NO","coord":{"lon":14.5743,"lat":67.006012}},{"_id":3145589,"name":"Moland","country":"NO","coord":{"lon":8.0895,"lat":59.186501}},{"_id":3145617,"name":"Moi","country":"NO","coord":{"lon":6.55184,"lat":58.456741}},{"_id":3145649,"name":"Moen","country":"NO","coord":{"lon":18.612261,"lat":69.130432}},{"_id":3145689,"name":"Moelv","country":"NO","coord":{"lon":10.7,"lat":60.933331}},{"_id":3145716,"name":"Mo","country":"NO","coord":{"lon":5.80575,"lat":60.81625}},{"_id":3145922,"name":"Midsund","country":"NO","coord":{"lon":6.67498,"lat":62.672779}},{"_id":3146023,"name":"Meraker","country":"NO","coord":{"lon":11.74298,"lat":63.414059}},{"_id":3146049,"name":"Melsomvik","country":"NO","coord":{"lon":10.34472,"lat":59.223888}},{"_id":3146125,"name":"Melhus","country":"NO","coord":{"lon":10.27806,"lat":63.285549}},{"_id":3146160,"name":"Melbu","country":"NO","coord":{"lon":14.82972,"lat":68.50444}},{"_id":3146270,"name":"Maura","country":"NO","coord":{"lon":11.01667,"lat":60.25}},{"_id":3146315,"name":"Masfjorden","country":"NO","coord":{"lon":5.30418,"lat":60.79887}},{"_id":3146451,"name":"Manger","country":"NO","coord":{"lon":5.04136,"lat":60.641449}},{"_id":3146463,"name":"Mandal","country":"NO","coord":{"lon":7.45342,"lat":58.027401}},{"_id":3146470,"name":"Malvik","country":"NO","coord":{"lon":10.68333,"lat":63.433331}},{"_id":3146487,"name":"Maloy","country":"NO","coord":{"lon":5.11362,"lat":61.935349}},{"_id":3146508,"name":"Malm","country":"NO","coord":{"lon":11.21716,"lat":64.072144}},{"_id":3146631,"name":"Lysaker","country":"NO","coord":{"lon":10.63545,"lat":59.909939}},{"_id":3146684,"name":"Lyngdal","country":"NO","coord":{"lon":7.07002,"lat":58.1376}},{"_id":3146811,"name":"Lunde","country":"NO","coord":{"lon":9.13333,"lat":59.316669}},{"_id":3146831,"name":"Lundamo","country":"NO","coord":{"lon":10.3,"lat":63.133331}},{"_id":3146897,"name":"Loten","country":"NO","coord":{"lon":11.33756,"lat":60.81712}},{"_id":3146942,"name":"Lopsmarka","country":"NO","coord":{"lon":14.44934,"lat":67.313431}},{"_id":3146978,"name":"Lonevag","country":"NO","coord":{"lon":5.49365,"lat":60.526192}},{"_id":3147026,"name":"Lom","country":"NO","coord":{"lon":8.55,"lat":61.833328}},{"_id":3147102,"name":"Lodingen","country":"NO","coord":{"lon":15.99512,"lat":68.413986}},{"_id":3147104,"name":"Loding","country":"NO","coord":{"lon":14.75,"lat":67.300003}},{"_id":3147441,"name":"Lindas","country":"NO","coord":{"lon":5.16,"lat":60.73806}},{"_id":3147465,"name":"Lillestrom","country":"NO","coord":{"lon":11.04918,"lat":59.955971}},{"_id":3147467,"name":"Lillesand","country":"NO","coord":{"lon":8.3778,"lat":58.248791}},{"_id":3147498,"name":"Liknes","country":"NO","coord":{"lon":6.95837,"lat":58.319191000000004}},{"_id":3147698,"name":"Levanger","country":"NO","coord":{"lon":11.29963,"lat":63.746441}},{"_id":3147720,"name":"Lervik","country":"NO","coord":{"lon":10.75,"lat":59.26667}},{"_id":3147747,"name":"Lensvik","country":"NO","coord":{"lon":9.80611,"lat":63.513889}},{"_id":3147763,"name":"Lena","country":"NO","coord":{"lon":10.81325,"lat":60.674671}},{"_id":3147769,"name":"Leland","country":"NO","coord":{"lon":12.94584,"lat":66.063812}},{"_id":3147822,"name":"Leirvik","country":"NO","coord":{"lon":5.50051,"lat":59.77977}},{"_id":3147854,"name":"Leirsund","country":"NO","coord":{"lon":11.1,"lat":60.0}},{"_id":3148002,"name":"Lauvsnes","country":"NO","coord":{"lon":10.89396,"lat":64.50061}},{"_id":3148133,"name":"Larsnes","country":"NO","coord":{"lon":5.57729,"lat":62.20282}},{"_id":3148138,"name":"Larkollen","country":"NO","coord":{"lon":10.66556,"lat":59.333889}},{"_id":3148346,"name":"Langevag","country":"NO","coord":{"lon":6.18915,"lat":62.43745}},{"_id":3148354,"name":"Langesund","country":"NO","coord":{"lon":9.74876,"lat":59.00071}},{"_id":3148569,"name":"Laerdalsoyri","country":"NO","coord":{"lon":7.48158,"lat":61.098049}},{"_id":3148602,"name":"Kyrksaeterora","country":"NO","coord":{"lon":9.08909,"lat":63.290569}},{"_id":3148726,"name":"Kviteseid","country":"NO","coord":{"lon":8.49267,"lat":59.402229}},{"_id":3149239,"name":"Krokstadora","country":"NO","coord":{"lon":9.50062,"lat":63.40099}},{"_id":3149412,"name":"Kragero","country":"NO","coord":{"lon":9.41494,"lat":58.869301}},{"_id":3149492,"name":"Korgen","country":"NO","coord":{"lon":13.81531,"lat":66.077133}},{"_id":3149510,"name":"Koppang","country":"NO","coord":{"lon":11.05548,"lat":61.570648}},{"_id":3149512,"name":"Kopervik","country":"NO","coord":{"lon":5.30669,"lat":59.283539}},{"_id":3149525,"name":"Konsmo","country":"NO","coord":{"lon":7.35598,"lat":58.28529}},{"_id":3149533,"name":"Kongsvinger","country":"NO","coord":{"lon":11.99772,"lat":60.190491}},{"_id":3149577,"name":"Kolvereid","country":"NO","coord":{"lon":11.60465,"lat":64.865494}},{"_id":3149640,"name":"Kolbotn","country":"NO","coord":{"lon":10.80389,"lat":59.810558}},{"_id":3149720,"name":"Knarrviki","country":"NO","coord":{"lon":5.28833,"lat":60.542221}},{"_id":3149726,"name":"Knappstad","country":"NO","coord":{"lon":11.05,"lat":59.633331}},{"_id":3149727,"name":"Knappskog","country":"NO","coord":{"lon":5.05583,"lat":60.381939}},{"_id":3149813,"name":"Klofta","country":"NO","coord":{"lon":11.15,"lat":60.066669}},{"_id":3149864,"name":"Kleppesto","country":"NO","coord":{"lon":5.2276,"lat":60.40844}},{"_id":3150002,"name":"Kjopsvik","country":"NO","coord":{"lon":16.374161,"lat":68.096962}},{"_id":3150261,"name":"Kirkenaer","country":"NO","coord":{"lon":12.05821,"lat":60.456429}},{"_id":3150437,"name":"Karlshus","country":"NO","coord":{"lon":10.87226,"lat":59.351952}},{"_id":3150639,"name":"Kabelvag","country":"NO","coord":{"lon":14.48167,"lat":68.211388}},{"_id":3150699,"name":"Judaberg","country":"NO","coord":{"lon":5.87315,"lat":59.165852}},{"_id":3150742,"name":"Jorpeland","country":"NO","coord":{"lon":6.04078,"lat":59.022511}},{"_id":3150805,"name":"Jondal","country":"NO","coord":{"lon":6.25229,"lat":60.275612}},{"_id":3150842,"name":"Jevnaker","country":"NO","coord":{"lon":10.38503,"lat":60.241428}},{"_id":3150851,"name":"Jessheim","country":"NO","coord":{"lon":11.17515,"lat":60.14151}},{"_id":3150911,"name":"Jaren","country":"NO","coord":{"lon":10.56155,"lat":60.392731}},{"_id":3151001,"name":"Isdalssto","country":"NO","coord":{"lon":5.26942,"lat":60.555191}},{"_id":3151056,"name":"Inndyr","country":"NO","coord":{"lon":14.02757,"lat":67.033798}},{"_id":3151265,"name":"Hyllestad","country":"NO","coord":{"lon":5.29603,"lat":61.171089}},{"_id":3151272,"name":"Hylkje","country":"NO","coord":{"lon":5.35444,"lat":60.510281}},{"_id":3151288,"name":"Hvittingfoss","country":"NO","coord":{"lon":10.01667,"lat":59.48333}},{"_id":3151452,"name":"Hundorp","country":"NO","coord":{"lon":9.94069,"lat":61.555229}},{"_id":3151574,"name":"Hoyanger","country":"NO","coord":{"lon":6.07494,"lat":61.22036}},{"_id":3151676,"name":"Hovden","country":"NO","coord":{"lon":7.35676,"lat":59.560268}},{"_id":3151719,"name":"Hov","country":"NO","coord":{"lon":10.35193,"lat":60.6987}},{"_id":3151882,"name":"Hopen","country":"NO","coord":{"lon":8.0139,"lat":63.46344}},{"_id":3151917,"name":"Honefoss","country":"NO","coord":{"lon":10.25647,"lat":60.168041}},{"_id":3151942,"name":"Hommelvik","country":"NO","coord":{"lon":10.79424,"lat":63.410831}},{"_id":3152132,"name":"Holmestrand","country":"NO","coord":{"lon":10.31761,"lat":59.48761}},{"_id":3152308,"name":"Hol","country":"NO","coord":{"lon":16.392179,"lat":68.549019}},{"_id":3152327,"name":"Hokksund","country":"NO","coord":{"lon":9.90987,"lat":59.770771}},{"_id":3152548,"name":"Hjelset","country":"NO","coord":{"lon":7.48333,"lat":62.783329}},{"_id":3152565,"name":"Hjelmeland","country":"NO","coord":{"lon":6.18333,"lat":59.23333}},{"_id":3152862,"name":"Herre","country":"NO","coord":{"lon":9.56667,"lat":59.099998}},{"_id":3152884,"name":"Hermansverk","country":"NO","coord":{"lon":6.85016,"lat":61.184608}},{"_id":3152989,"name":"Hemsedal","country":"NO","coord":{"lon":8.55337,"lat":60.86293}},{"_id":3152995,"name":"Hemnesberget","country":"NO","coord":{"lon":13.63333,"lat":66.23333}},{"_id":3153364,"name":"Heggenes","country":"NO","coord":{"lon":9.06942,"lat":61.143829}},{"_id":3153517,"name":"Hauknes","country":"NO","coord":{"lon":14.06667,"lat":66.283333}},{"_id":3153694,"name":"Hauge","country":"NO","coord":{"lon":6.28121,"lat":58.343609}},{"_id":3153861,"name":"Hareid","country":"NO","coord":{"lon":6.02634,"lat":62.371361}},{"_id":3153869,"name":"Hardbakke","country":"NO","coord":{"lon":4.83716,"lat":61.07111}},{"_id":3153910,"name":"Hansnes","country":"NO","coord":{"lon":19.61862,"lat":69.962372}},{"_id":3154000,"name":"Hamnvik","country":"NO","coord":{"lon":17.17457,"lat":68.778313}},{"_id":3154321,"name":"Hagavik","country":"NO","coord":{"lon":5.43333,"lat":60.183331}},{"_id":3154441,"name":"Gvarv","country":"NO","coord":{"lon":9.1737,"lat":59.387459}},{"_id":3154539,"name":"Gullhaug","country":"NO","coord":{"lon":10.25,"lat":59.5}},{"_id":3154639,"name":"Gryllefjord","country":"NO","coord":{"lon":17.052839,"lat":69.363037}},{"_id":3154704,"name":"Grua","country":"NO","coord":{"lon":10.66667,"lat":60.26667}},{"_id":3154907,"name":"Grong","country":"NO","coord":{"lon":12.31491,"lat":64.465431}},{"_id":3155041,"name":"Grimstad","country":"NO","coord":{"lon":8.59343,"lat":58.3405}},{"_id":3155152,"name":"Gravdal","country":"NO","coord":{"lon":13.50306,"lat":68.121391}},{"_id":3155247,"name":"Granvin","country":"NO","coord":{"lon":6.7194,"lat":60.524078}},{"_id":3155422,"name":"Gol","country":"NO","coord":{"lon":8.94572,"lat":60.701401}},{"_id":3155487,"name":"Glomfjord","country":"NO","coord":{"lon":13.96667,"lat":66.816673}},{"_id":3155536,"name":"Gladstad","country":"NO","coord":{"lon":11.96137,"lat":65.677322}},{"_id":3155567,"name":"Justvik","country":"NO","coord":{"lon":8.03333,"lat":58.200001}},{"_id":3155676,"name":"Gjerstad","country":"NO","coord":{"lon":9.01861,"lat":58.880829}},{"_id":3155710,"name":"Gjerdrum","country":"NO","coord":{"lon":11.1,"lat":60.083328}},{"_id":3155913,"name":"Geilo","country":"NO","coord":{"lon":8.20765,"lat":60.53331}},{"_id":3156470,"name":"Frogner","country":"NO","coord":{"lon":11.1,"lat":60.01667}},{"_id":3156521,"name":"Frekhaug","country":"NO","coord":{"lon":5.24351,"lat":60.51392}},{"_id":3156642,"name":"Fossby","country":"NO","coord":{"lon":11.69928,"lat":59.222179}},{"_id":3156680,"name":"Fosnavag","country":"NO","coord":{"lon":5.63396,"lat":62.341942}},{"_id":3156804,"name":"Forde","country":"NO","coord":{"lon":5.85717,"lat":61.452171}},{"_id":3156868,"name":"Folldal","country":"NO","coord":{"lon":9.9968,"lat":62.132462}},{"_id":3157090,"name":"Flekkefjord","country":"NO","coord":{"lon":6.66069,"lat":58.29705}},{"_id":3157162,"name":"Flateby","country":"NO","coord":{"lon":11.16667,"lat":59.833328}},{"_id":3157238,"name":"Fla","country":"NO","coord":{"lon":9.46197,"lat":60.43021}},{"_id":3157436,"name":"Fitjar","country":"NO","coord":{"lon":5.3192,"lat":59.918449}},{"_id":3157549,"name":"Finnsnes","country":"NO","coord":{"lon":17.98114,"lat":69.229591}},{"_id":3157656,"name":"Fillan","country":"NO","coord":{"lon":8.96961,"lat":63.60638}},{"_id":3157679,"name":"Fevik","country":"NO","coord":{"lon":8.67658,"lat":58.379379}},{"_id":3157686,"name":"Fetsund","country":"NO","coord":{"lon":11.16247,"lat":59.928982}},{"_id":3157766,"name":"Fedje","country":"NO","coord":{"lon":4.71485,"lat":60.7789}},{"_id":3157799,"name":"Farsund","country":"NO","coord":{"lon":6.80468,"lat":58.094791}},{"_id":3157889,"name":"Fagerstrand","country":"NO","coord":{"lon":10.59306,"lat":59.734718}},{"_id":3157897,"name":"Fagernes","country":"NO","coord":{"lon":9.23236,"lat":60.98584}},{"_id":3157977,"name":"Evjen","country":"NO","coord":{"lon":13.73333,"lat":68.26667}},{"_id":3157982,"name":"Evje","country":"NO","coord":{"lon":7.80861,"lat":58.585209}},{"_id":3157994,"name":"Evenskjer","country":"NO","coord":{"lon":16.57546,"lat":68.584908}},{"_id":3158015,"name":"Etnesjoen","country":"NO","coord":{"lon":5.93264,"lat":59.664768}},{"_id":3158046,"name":"Espeland","country":"NO","coord":{"lon":5.46667,"lat":60.383331}},{"_id":3158300,"name":"Elverum","country":"NO","coord":{"lon":11.56231,"lat":60.881908}},{"_id":3158444,"name":"Eivinvik","country":"NO","coord":{"lon":5.07362,"lat":60.98138}},{"_id":3158558,"name":"Eikelandsosen","country":"NO","coord":{"lon":5.74602,"lat":60.243019}},{"_id":3158578,"name":"Eike","country":"NO","coord":{"lon":5.36389,"lat":59.398331}},{"_id":3158608,"name":"Eidsvoll","country":"NO","coord":{"lon":11.26161,"lat":60.33046}},{"_id":3158615,"name":"Eidsvag","country":"NO","coord":{"lon":8.06681,"lat":62.776699}},{"_id":3158668,"name":"Eidfjord","country":"NO","coord":{"lon":7.07193,"lat":60.467499}},{"_id":3158697,"name":"Eide","country":"NO","coord":{"lon":7.44669,"lat":62.917351}},{"_id":3158792,"name":"Egersund","country":"NO","coord":{"lon":5.9997,"lat":58.451328}},{"_id":3158960,"name":"Drobak","country":"NO","coord":{"lon":10.62975,"lat":59.66333}},{"_id":3159049,"name":"Dovre","country":"NO","coord":{"lon":9.25399,"lat":61.98439}},{"_id":3159107,"name":"Dombas","country":"NO","coord":{"lon":9.12346,"lat":62.069649}},{"_id":3159143,"name":"Dokka","country":"NO","coord":{"lon":10.0618,"lat":60.840012}},{"_id":3159400,"name":"Dalen","country":"NO","coord":{"lon":8.01168,"lat":59.44474}},{"_id":3159433,"name":"Dale","country":"NO","coord":{"lon":5.39809,"lat":61.36311}},{"_id":3159582,"name":"Bygland","country":"NO","coord":{"lon":7.79616,"lat":58.828499}},{"_id":3159822,"name":"Bryne","country":"NO","coord":{"lon":5.64766,"lat":58.735359}},{"_id":3159894,"name":"Brumunddal","country":"NO","coord":{"lon":10.93948,"lat":60.880951}},{"_id":3159905,"name":"Bruflat","country":"NO","coord":{"lon":9.64143,"lat":60.88781}},{"_id":3160082,"name":"Svortland","country":"NO","coord":{"lon":5.1853,"lat":59.794289}},{"_id":3160100,"name":"Brekstad","country":"NO","coord":{"lon":9.66541,"lat":63.68697}},{"_id":3160310,"name":"Brattvag","country":"NO","coord":{"lon":6.44339,"lat":62.600151}},{"_id":3160491,"name":"Botngard","country":"NO","coord":{"lon":9.81113,"lat":63.76532}},{"_id":3160630,"name":"Borkenes","country":"NO","coord":{"lon":16.17391,"lat":68.773956}},{"_id":3160846,"name":"Bogen","country":"NO","coord":{"lon":16.9928,"lat":68.526466}},{"_id":3160911,"name":"Bo","country":"NO","coord":{"lon":9.0693,"lat":59.412991}},{"_id":3161059,"name":"Blakstad","country":"NO","coord":{"lon":10.4645,"lat":59.819099}},{"_id":3161346,"name":"Bjorkelangen","country":"NO","coord":{"lon":11.56942,"lat":59.884781}},{"_id":3161456,"name":"Bjorkvang","country":"NO","coord":{"lon":17.51889,"lat":68.559723}},{"_id":3161532,"name":"Birkeland","country":"NO","coord":{"lon":8.23229,"lat":58.33091}},{"_id":3161622,"name":"Berkak","country":"NO","coord":{"lon":10.01177,"lat":62.824959}},{"_id":3161724,"name":"Berger","country":"NO","coord":{"lon":10.37139,"lat":59.544998}},{"_id":3161969,"name":"Batnfjordsora","country":"NO","coord":{"lon":7.6818,"lat":62.892712}},{"_id":3162032,"name":"Barkaker","country":"NO","coord":{"lon":10.38333,"lat":59.316669}},{"_id":3162108,"name":"Ballangen","country":"NO","coord":{"lon":16.83145,"lat":68.342827}},{"_id":3162116,"name":"Balestrand","country":"NO","coord":{"lon":6.5334,"lat":61.207569}},{"_id":3162199,"name":"Bagn","country":"NO","coord":{"lon":9.55207,"lat":60.822491}},{"_id":3162272,"name":"Austrheim","country":"NO","coord":{"lon":4.9323,"lat":60.777401}},{"_id":3162385,"name":"Aurskog","country":"NO","coord":{"lon":11.43333,"lat":59.916672}},{"_id":3162412,"name":"Aure","country":"NO","coord":{"lon":8.53133,"lat":63.267792}},{"_id":3162475,"name":"Auli","country":"NO","coord":{"lon":11.36046,"lat":60.0345}},{"_id":3162657,"name":"Asker","country":"NO","coord":{"lon":10.43721,"lat":59.833328}},{"_id":3162668,"name":"Ask","country":"NO","coord":{"lon":11.03452,"lat":60.071659}},{"_id":3162682,"name":"Asgardstrand","country":"NO","coord":{"lon":10.4675,"lat":59.348888}},{"_id":3162797,"name":"As","country":"NO","coord":{"lon":10.79465,"lat":59.664719}},{"_id":3162841,"name":"Arstein","country":"NO","coord":{"lon":17.54224,"lat":68.690331}},{"_id":3162903,"name":"Arnes","country":"NO","coord":{"lon":10.22601,"lat":63.96114}},{"_id":3162906,"name":"Arnes","country":"NO","coord":{"lon":11.46634,"lat":60.121052}},{"_id":3162924,"name":"Indre Arna","country":"NO","coord":{"lon":5.47639,"lat":60.424721}},{"_id":3162970,"name":"Ardalstangen","country":"NO","coord":{"lon":7.69834,"lat":61.23711}},{"_id":3163079,"name":"Aneby","country":"NO","coord":{"lon":10.86667,"lat":60.083328}},{"_id":3163155,"name":"Andalsnes","country":"NO","coord":{"lon":7.68709,"lat":62.56749}},{"_id":3163215,"name":"Amli","country":"NO","coord":{"lon":8.48651,"lat":58.768452}},{"_id":3163269,"name":"Alvdal","country":"NO","coord":{"lon":10.63073,"lat":62.107658}},{"_id":3163394,"name":"Alen","country":"NO","coord":{"lon":11.3013,"lat":62.84185}},{"_id":3163410,"name":"Al","country":"NO","coord":{"lon":8.56279,"lat":60.628208}},{"_id":3163443,"name":"Akrehamn","country":"NO","coord":{"lon":5.18333,"lat":59.26667}},{"_id":3163506,"name":"Agotnes","country":"NO","coord":{"lon":5.01889,"lat":60.406109}},{"_id":3163608,"name":"As","country":"NO","coord":{"lon":10.2,"lat":63.966671}},{"_id":3205608,"name":"Vormedal","country":"NO","coord":{"lon":5.31889,"lat":59.355}},{"_id":3207861,"name":"Tingvoll","country":"NO","coord":{"lon":8.20526,"lat":62.913181}},{"_id":3227582,"name":"Hommersak","country":"NO","coord":{"lon":5.85111,"lat":58.931671}},{"_id":3227904,"name":"Vikevag","country":"NO","coord":{"lon":5.69694,"lat":59.09758}},{"_id":3229577,"name":"Aroysund","country":"NO","coord":{"lon":10.455,"lat":59.180561}},{"_id":3232860,"name":"Myre","country":"NO","coord":{"lon":15.07161,"lat":68.915207}},{"_id":3336585,"name":"Nesoddtangen","country":"NO","coord":{"lon":10.6594,"lat":59.865528}},{"_id":3336588,"name":"Orsta","country":"NO","coord":{"lon":6.12722,"lat":62.2029}},{"_id":3336590,"name":"Ryggebyen","country":"NO","coord":{"lon":10.75,"lat":59.375}},{"_id":3336591,"name":"Vedavagen","country":"NO","coord":{"lon":5.23333,"lat":59.291672}},{"_id":3345453,"name":"Vestnes","country":"NO","coord":{"lon":7.08838,"lat":62.626438}},{"_id":6545367,"name":"Neskollen","country":"NO","coord":{"lon":11.33926,"lat":60.12159}},{"_id":6639661,"name":"Kinsarvik","country":"NO","coord":{"lon":6.72247,"lat":60.375679}},{"_id":6693002,"name":"Sjolyststranda","country":"NO","coord":{"lon":10.68017,"lat":59.921051}},{"_id":6695932,"name":"Skei","country":"NO","coord":{"lon":6.48164,"lat":61.571941}},{"_id":6951004,"name":"Stjordal","country":"NO","coord":{"lon":10.91776,"lat":63.468029}},{"_id":7280466,"name":"Frosta","country":"NO","coord":{"lon":10.7423,"lat":63.5891}},{"_id":7288345,"name":"Sogndal","country":"NO","coord":{"lon":7.10026,"lat":61.228291}},{"_id":7626135,"name":"Romskog","country":"NO","coord":{"lon":11.8112,"lat":59.749699}},{"_id":7626136,"name":"Meieribyen","country":"NO","coord":{"lon":11.16083,"lat":59.474529}},{"_id":7626137,"name":"Kirkebygda","country":"NO","coord":{"lon":10.87423,"lat":59.49099}},{"_id":7626138,"name":"Elvestad","country":"NO","coord":{"lon":10.9508,"lat":59.624008}},{"_id":7626251,"name":"Forsand","country":"NO","coord":{"lon":6.1048,"lat":58.903301}},{"_id":7626323,"name":"Fjerdingby","country":"NO","coord":{"lon":11.06527,"lat":59.926262}},{"_id":7626324,"name":"Kirkebygda","country":"NO","coord":{"lon":11.14492,"lat":59.764519}},{"_id":7626325,"name":"Kjenn","country":"NO","coord":{"lon":10.95373,"lat":59.930981}},{"_id":7626326,"name":"Teigebyen","country":"NO","coord":{"lon":11.01867,"lat":60.22155}},{"_id":7626327,"name":"Hurdal","country":"NO","coord":{"lon":11.06707,"lat":60.435181}},{"_id":7626328,"name":"Flisa","country":"NO","coord":{"lon":12.01543,"lat":60.609219}},{"_id":7626329,"name":"Bergset","country":"NO","coord":{"lon":11.07799,"lat":61.889259}},{"_id":7626330,"name":"Engerdal","country":"NO","coord":{"lon":11.95985,"lat":61.75832}},{"_id":7626331,"name":"Lesja","country":"NO","coord":{"lon":8.86424,"lat":62.11837}},{"_id":7626332,"name":"Bismo","country":"NO","coord":{"lon":8.26914,"lat":61.883869}},{"_id":7626333,"name":"Fossbergom","country":"NO","coord":{"lon":8.56842,"lat":61.83773}},{"_id":7626334,"name":"Valebrua","country":"NO","coord":{"lon":10.13889,"lat":61.529652}},{"_id":7626335,"name":"Segalstad bru","country":"NO","coord":{"lon":10.22255,"lat":61.228191}},{"_id":7626336,"name":"Slidre","country":"NO","coord":{"lon":8.98141,"lat":61.08802}},{"_id":7626337,"name":"Vang","country":"NO","coord":{"lon":8.5729,"lat":61.12529}},{"_id":7626338,"name":"Vik","country":"NO","coord":{"lon":10.28116,"lat":60.077339}},{"_id":7626339,"name":"Troim","country":"NO","coord":{"lon":8.56537,"lat":60.861141}},{"_id":7626340,"name":"Hol","country":"NO","coord":{"lon":8.29398,"lat":60.615108}},{"_id":7626341,"name":"Lierbyen","country":"NO","coord":{"lon":10.24561,"lat":59.7873}},{"_id":7626342,"name":"Lampeland","country":"NO","coord":{"lon":9.57912,"lat":59.834862}},{"_id":7626343,"name":"Rodberg","country":"NO","coord":{"lon":8.94721,"lat":60.26722}},{"_id":7626344,"name":"Hof","country":"NO","coord":{"lon":10.09032,"lat":59.530128}},{"_id":7626345,"name":"Revetal","country":"NO","coord":{"lon":10.26308,"lat":59.372398}},{"_id":7626346,"name":"Andebu","country":"NO","coord":{"lon":10.17653,"lat":59.30592}},{"_id":7626347,"name":"Borgheim","country":"NO","coord":{"lon":10.40785,"lat":59.227161}},{"_id":7626348,"name":"Svarstad","country":"NO","coord":{"lon":9.96985,"lat":59.398998}},{"_id":7626349,"name":"Sauland","country":"NO","coord":{"lon":8.93755,"lat":59.6161}},{"_id":7626350,"name":"Blakstad","country":"NO","coord":{"lon":8.64648,"lat":58.504601}},{"_id":7626351,"name":"Birketveit","country":"NO","coord":{"lon":7.91692,"lat":58.459091}},{"_id":7626352,"name":"Helland","country":"NO","coord":{"lon":7.52513,"lat":58.188751}},{"_id":7626353,"name":"Kyrkjebygda","country":"NO","coord":{"lon":7.4139100000000004,"lat":58.615231}},{"_id":7626354,"name":"Kleppe","country":"NO","coord":{"lon":5.63329,"lat":58.773029}},{"_id":7626355,"name":"Hjelmelandsvagen","country":"NO","coord":{"lon":6.17752,"lat":59.234699}},{"_id":7626356,"name":"Sand","country":"NO","coord":{"lon":6.25353,"lat":59.485321}},{"_id":7626357,"name":"Ystabohamn","country":"NO","coord":{"lon":5.40249,"lat":59.062271}},{"_id":7626358,"name":"Bokn","country":"NO","coord":{"lon":5.43524,"lat":59.230621}},{"_id":7626359,"name":"Aksdal","country":"NO","coord":{"lon":5.44553,"lat":59.42408}},{"_id":7626360,"name":"Skogsvagen","country":"NO","coord":{"lon":5.10161,"lat":60.255119}},{"_id":7626361,"name":"Straume","country":"NO","coord":{"lon":5.12415,"lat":60.357101}},{"_id":7626362,"name":"Aurlandsvangen","country":"NO","coord":{"lon":7.18977,"lat":60.908138}},{"_id":7626363,"name":"Gaupne","country":"NO","coord":{"lon":7.28559,"lat":61.40831}},{"_id":7626364,"name":"Askvoll","country":"NO","coord":{"lon":5.0704,"lat":61.346298}},{"_id":7626365,"name":"Hornindal","country":"NO","coord":{"lon":6.52249,"lat":61.96925}},{"_id":7626366,"name":"Fiska","country":"NO","coord":{"lon":5.55788,"lat":62.10059}},{"_id":7626367,"name":"Stordal","country":"NO","coord":{"lon":6.98629,"lat":62.38203}},{"_id":7626368,"name":"Sykkylven","country":"NO","coord":{"lon":6.5875,"lat":62.395939}},{"_id":7626369,"name":"Valderoy","country":"NO","coord":{"lon":6.13472,"lat":62.500702}},{"_id":7626370,"name":"Falkhytta","country":"NO","coord":{"lon":6.88722,"lat":62.805}},{"_id":7626371,"name":"Elnesvagen","country":"NO","coord":{"lon":7.14064,"lat":62.854408}},{"_id":7626372,"name":"Bruhagen","country":"NO","coord":{"lon":7.63204,"lat":63.05172}},{"_id":7626373,"name":"Surnadal","country":"NO","coord":{"lon":8.72472,"lat":62.973969}},{"_id":7626374,"name":"Liaboen","country":"NO","coord":{"lon":8.31587,"lat":63.12249}},{"_id":7626375,"name":"Rissa","country":"NO","coord":{"lon":9.95989,"lat":63.583679}},{"_id":7626376,"name":"Roan","country":"NO","coord":{"lon":10.22898,"lat":64.172691}},{"_id":7626377,"name":"Steinsdalen","country":"NO","coord":{"lon":10.51284,"lat":64.298752}},{"_id":7626378,"name":"Meldal","country":"NO","coord":{"lon":9.71337,"lat":63.047211}},{"_id":7626379,"name":"Storen","country":"NO","coord":{"lon":10.28501,"lat":63.039101}},{"_id":7626380,"name":"Borsa","country":"NO","coord":{"lon":10.0692,"lat":63.326721}},{"_id":7626381,"name":"Klaebu","country":"NO","coord":{"lon":10.48261,"lat":63.297619}},{"_id":7626382,"name":"Mebonden","country":"NO","coord":{"lon":11.03128,"lat":63.229069}},{"_id":7626384,"name":"Leksvik","country":"NO","coord":{"lon":10.6266,"lat":63.672482}},{"_id":7626385,"name":"Mosvik","country":"NO","coord":{"lon":11.00581,"lat":63.817699}},{"_id":7626386,"name":"Namdalseid","country":"NO","coord":{"lon":11.22139,"lat":64.222427}},{"_id":7626387,"name":"Nordli","country":"NO","coord":{"lon":13.59249,"lat":64.464127}},{"_id":7626388,"name":"Hoylandet","country":"NO","coord":{"lon":12.30206,"lat":64.628868}},{"_id":7626389,"name":"Joa","country":"NO","coord":{"lon":11.26535,"lat":64.659103}},{"_id":7626390,"name":"Leka","country":"NO","coord":{"lon":11.70513,"lat":65.092438}},{"_id":7626391,"name":"Silvalen","country":"NO","coord":{"lon":12.28916,"lat":65.984268}},{"_id":7626393,"name":"Hattfjelldal","country":"NO","coord":{"lon":13.98422,"lat":65.597954}},{"_id":7626394,"name":"Solfjellsjyen","country":"NO","coord":{"lon":12.49046,"lat":66.107986}},{"_id":7626395,"name":"Luroy","country":"NO","coord":{"lon":12.84248,"lat":66.418869}},{"_id":7626396,"name":"Husoya","country":"NO","coord":{"lon":12.09645,"lat":66.501587}},{"_id":7626397,"name":"Vagaholmen","country":"NO","coord":{"lon":13.28711,"lat":66.713669}},{"_id":7626398,"name":"Leinesfjorden","country":"NO","coord":{"lon":15.01545,"lat":67.775482}},{"_id":7626399,"name":"Oppeide","country":"NO","coord":{"lon":15.60314,"lat":68.085243}},{"_id":7626401,"name":"Bjarkoy","country":"NO","coord":{"lon":16.563919,"lat":68.999939}},{"_id":7626402,"name":"Tennevoll","country":"NO","coord":{"lon":17.80621,"lat":68.747101}},{"_id":7626403,"name":"Sorreisa","country":"NO","coord":{"lon":18.15292,"lat":69.145271}},{"_id":7626404,"name":"Brostadbotn","country":"NO","coord":{"lon":17.694889,"lat":69.08873}},{"_id":7626405,"name":"Hatteng","country":"NO","coord":{"lon":19.95944,"lat":69.270721}},{"_id":7626406,"name":"Breivikbotn","country":"NO","coord":{"lon":22.284861,"lat":70.588707}},{"_id":7626407,"name":"Tana bru","country":"NO","coord":{"lon":28.19039,"lat":70.199089}}]}
