{"countryCode":"PE","countryName":"Peru","countryFilePath":"PE.json","countryCityList":[{"_id":3691094,"name":"Uchiza","country":"PE","coord":{"lon":-76.463333,"lat":-8.45917}},{"_id":3692667,"name":"Zana","country":"PE","coord":{"lon":-79.584167,"lat":-6.92222}},{"_id":3693057,"name":"Querecotillo","country":"PE","coord":{"lon":-80.645561,"lat":-4.83778}},{"_id":3693645,"name":"Picsi","country":"PE","coord":{"lon":-79.769722,"lat":-6.71778}},{"_id":3694112,"name":"Paita","country":"PE","coord":{"lon":-81.114441,"lat":-5.08917}},{"_id":3695754,"name":"Lambayeque","country":"PE","coord":{"lon":-79.906113,"lat":-6.70111}},{"_id":3698390,"name":"Chepen","country":"PE","coord":{"lon":-79.449997,"lat":-7.21667}},{"_id":3925476,"name":"Yunguyo","country":"PE","coord":{"lon":-69.083328,"lat":-16.25}},{"_id":3927942,"name":"Tambopata","country":"PE","coord":{"lon":-69.183327,"lat":-12.73333}},{"_id":3935572,"name":"Mala","country":"PE","coord":{"lon":-76.630829,"lat":-12.65806}},{"_id":3946985,"name":"Ayaviri","country":"PE","coord":{"lon":-70.58889,"lat":-14.88639}},{"_id":3691474,"name":"Tarapoto","country":"PE","coord":{"lon":-76.365562,"lat":-6.50139}},{"_id":3926282,"name":"Ventanilla","country":"PE","coord":{"lon":-77.118332,"lat":-11.87528}},{"_id":3928245,"name":"Surco","country":"PE","coord":{"lon":-77.01667,"lat":-12.15}},{"_id":3945612,"name":"Carabayllo","country":"PE","coord":{"lon":-77.037781,"lat":-11.85333}},{"_id":3947437,"name":"Aplao","country":"PE","coord":{"lon":-72.493889,"lat":-16.07583}},{"_id":3930835,"name":"Quillabamba","country":"PE","coord":{"lon":-72.783333,"lat":-12.81667}},{"_id":3696372,"name":"Huari","country":"PE","coord":{"lon":-77.23333,"lat":-9.33333}},{"_id":3944665,"name":"Chaclacayo","country":"PE","coord":{"lon":-76.767502,"lat":-11.98278}},{"_id":3931251,"name":"Punta Hermosa","country":"PE","coord":{"lon":-76.816673,"lat":-12.33333}},{"_id":3693461,"name":"Pomalca","country":"PE","coord":{"lon":-79.777222,"lat":-6.7675}},{"_id":3928547,"name":"Socabaya","country":"PE","coord":{"lon":-71.52758,"lat":-16.470249}},{"_id":3696448,"name":"Huanchaco","country":"PE","coord":{"lon":-79.116669,"lat":-8.08333}},{"_id":3929520,"name":"San Juan","country":"PE","coord":{"lon":-75.162216,"lat":-15.36528}},{"_id":3930769,"name":"Quince Mil","country":"PE","coord":{"lon":-70.754013,"lat":-13.23092}},{"_id":6559994,"name":"Buenos Aires","country":"PE","coord":{"lon":-78.497498,"lat":-9.12417}},{"_id":3934707,"name":"Mollendo","country":"PE","coord":{"lon":-72.014717,"lat":-17.02306}},{"_id":3930975,"name":"Quepacc","country":"PE","coord":{"lon":-73.241943,"lat":-15.45861}},{"_id":3947018,"name":"Departamento de Ayacucho","country":"PE","coord":{"lon":-74.0,"lat":-14.0}},{"_id":3936542,"name":"Layo","country":"PE","coord":{"lon":-74.566673,"lat":-14.48333}},{"_id":3929792,"name":"San Borja","country":"PE","coord":{"lon":-77.01107,"lat":-12.09841}},{"_id":3937485,"name":"Departamento de Junín","country":"PE","coord":{"lon":-75.0,"lat":-11.5}},{"_id":3944223,"name":"Chaucancha","country":"PE","coord":{"lon":-75.116669,"lat":-12.08333}},{"_id":3693528,"name":"Piura","country":"PE","coord":{"lon":-80.633331,"lat":-5.2}},{"_id":3694119,"name":"Paijan","country":"PE","coord":{"lon":-79.302223,"lat":-7.73333}},{"_id":3694178,"name":"Pacasmayo","country":"PE","coord":{"lon":-79.571388,"lat":-7.40056}},{"_id":3694666,"name":"Monsefu","country":"PE","coord":{"lon":-79.872223,"lat":-6.87806}},{"_id":3694725,"name":"Moche","country":"PE","coord":{"lon":-79.009171,"lat":-8.17111}},{"_id":3694939,"name":"Marcavelica","country":"PE","coord":{"lon":-80.705276,"lat":-4.87778}},{"_id":3695617,"name":"Laredo","country":"PE","coord":{"lon":-78.960197,"lat":-8.08965}},{"_id":3696150,"name":"Jaen","country":"PE","coord":{"lon":-78.804718,"lat":-5.70806}},{"_id":3696417,"name":"Huanuco","country":"PE","coord":{"lon":-76.241531,"lat":-9.9329}},{"_id":3698304,"name":"Chimbote","country":"PE","coord":{"lon":-78.578331,"lat":-9.08528}},{"_id":3698540,"name":"Chachapoyas","country":"PE","coord":{"lon":-77.869034,"lat":-6.23169}},{"_id":3698658,"name":"Catacaos","country":"PE","coord":{"lon":-80.683327,"lat":-5.26667}},{"_id":3699364,"name":"Bellavista","country":"PE","coord":{"lon":-76.591103,"lat":-7.05614}},{"_id":3814568,"name":"La Breita","country":"PE","coord":{"lon":-80.887497,"lat":-4.26083}},{"_id":3818398,"name":"Zarumilla","country":"PE","coord":{"lon":-80.273064,"lat":-3.50306}},{"_id":3928924,"name":"Satipo","country":"PE","coord":{"lon":-74.638611,"lat":-11.25222}},{"_id":3928993,"name":"San Vicente de Canete","country":"PE","coord":{"lon":-76.383522,"lat":-13.07512}},{"_id":3929768,"name":"San Clemente","country":"PE","coord":{"lon":-76.150002,"lat":-13.66667}},{"_id":3934239,"name":"Nuevo Imperial","country":"PE","coord":{"lon":-76.317192,"lat":-13.07541}},{"_id":3937486,"name":"Junin","country":"PE","coord":{"lon":-75.993057,"lat":-11.15889}},{"_id":3937733,"name":"Jauja","country":"PE","coord":{"lon":-75.496559,"lat":-11.77584}},{"_id":3938396,"name":"Imperial","country":"PE","coord":{"lon":-76.352692,"lat":-13.05927}},{"_id":3939023,"name":"Huaura","country":"PE","coord":{"lon":-77.599442,"lat":-11.07}},{"_id":3939168,"name":"Huarmey","country":"PE","coord":{"lon":-78.152222,"lat":-10.06806}},{"_id":3943789,"name":"Chincha Alta","country":"PE","coord":{"lon":-76.132347,"lat":-13.40985}},{"_id":3932834,"name":"Departamento de Pasco","country":"PE","coord":{"lon":-75.25,"lat":-10.5}},{"_id":3944399,"name":"Chancay","country":"PE","coord":{"lon":-77.26722,"lat":-11.57139}},{"_id":3944797,"name":"Cerro de Pasco","country":"PE","coord":{"lon":-76.26667,"lat":-10.68333}},{"_id":3945985,"name":"Camana","country":"PE","coord":{"lon":-72.711113,"lat":-16.62278}},{"_id":7626291,"name":"La Rinconada","country":"PE","coord":{"lon":-69.446381,"lat":-14.63126}},{"_id":3932488,"name":"Republic of Peru","country":"PE","coord":{"lon":-76.0,"lat":-10.0}},{"_id":3934607,"name":"Departamento de Moquegua","country":"PE","coord":{"lon":-70.919922,"lat":-16.83662}},{"_id":3947254,"name":"Asana","country":"PE","coord":{"lon":-70.520561,"lat":-17.06361}},{"_id":3947319,"name":"Departamento de Arequipa","country":"PE","coord":{"lon":-72.25,"lat":-16.0}},{"_id":3690875,"name":"Viru","country":"PE","coord":{"lon":-78.75,"lat":-8.41667}},{"_id":3691324,"name":"Tocache Nuevo","country":"PE","coord":{"lon":-76.512497,"lat":-8.18417}},{"_id":3692073,"name":"Santiago de Cao","country":"PE","coord":{"lon":-79.239166,"lat":-7.95889}},{"_id":3693584,"name":"Pimentel","country":"PE","coord":{"lon":-79.934174,"lat":-6.83667}},{"_id":3695466,"name":"La Union","country":"PE","coord":{"lon":-80.75,"lat":-5.4}},{"_id":3695675,"name":"La Peca","country":"PE","coord":{"lon":-78.434998,"lat":-5.61111}},{"_id":3698194,"name":"Chocope","country":"PE","coord":{"lon":-79.221672,"lat":-7.79139}},{"_id":3925863,"name":"Yanacancha","country":"PE","coord":{"lon":-76.645561,"lat":-10.24111}},{"_id":3928679,"name":"Sicuani","country":"PE","coord":{"lon":-71.226112,"lat":-14.26944}},{"_id":3929295,"name":"Santa Ana","country":"PE","coord":{"lon":-72.716667,"lat":-12.86667}},{"_id":3935288,"name":"Minas de Marcona","country":"PE","coord":{"lon":-75.110283,"lat":-15.21194}},{"_id":3939761,"name":"Hualmay","country":"PE","coord":{"lon":-77.613892,"lat":-11.09639}},{"_id":3944179,"name":"Chaupimarca","country":"PE","coord":{"lon":-76.533333,"lat":-10.43333}},{"_id":3699674,"name":"Departamento de Ancash","country":"PE","coord":{"lon":-77.75,"lat":-9.5}},{"_id":6664186,"name":"Ereza","country":"PE","coord":{"lon":-77.488129,"lat":-10.40653}},{"_id":3936452,"name":"Región de Lima","country":"PE","coord":{"lon":-76.638893,"lat":-12.00389}},{"_id":3936456,"name":"Lima","country":"PE","coord":{"lon":-77.028236,"lat":-12.04318}},{"_id":3930376,"name":"Rímac","country":"PE","coord":{"lon":-77.050003,"lat":-12.05}},{"_id":3947322,"name":"Arequipa","country":"PE","coord":{"lon":-71.535004,"lat":-16.39889}},{"_id":3946080,"name":"Provincia Constitucional del Callao","country":"PE","coord":{"lon":-77.150002,"lat":-12.06667}},{"_id":3946083,"name":"Callao","country":"PE","coord":{"lon":-77.150002,"lat":-12.06667}},{"_id":3693525,"name":"Departamento de Piura","country":"PE","coord":{"lon":-80.333328,"lat":-5.0}},{"_id":3691674,"name":"Sullana","country":"PE","coord":{"lon":-80.68528,"lat":-4.90389}},{"_id":3696378,"name":"Huaraz","country":"PE","coord":{"lon":-77.533333,"lat":-9.53333}},{"_id":3695781,"name":"Departamento de La Libertad","country":"PE","coord":{"lon":-78.5,"lat":-8.0}},{"_id":3691174,"name":"Provincia de Trujillo","country":"PE","coord":{"lon":-78.916672,"lat":-8.08333}},{"_id":3691175,"name":"Trujillo","country":"PE","coord":{"lon":-79.029984,"lat":-8.11599}},{"_id":3699087,"name":"Departamento de Cajamarca","country":"PE","coord":{"lon":-78.833328,"lat":-6.25}},{"_id":3699088,"name":"Cajamarca","country":"PE","coord":{"lon":-78.500267,"lat":-7.16378}},{"_id":3698671,"name":"Castilla","country":"PE","coord":{"lon":-80.633331,"lat":-5.2}},{"_id":3931275,"name":"Departamento de Puno","country":"PE","coord":{"lon":-70.0,"lat":-15.0}},{"_id":3931276,"name":"Puno","country":"PE","coord":{"lon":-70.033333,"lat":-15.83333}},{"_id":3928127,"name":"Departamento de Tacna","country":"PE","coord":{"lon":-70.333328,"lat":-17.66667}},{"_id":3928128,"name":"Tacna","country":"PE","coord":{"lon":-70.248329,"lat":-18.00556}},{"_id":3691099,"name":"Departamento de Ucayali","country":"PE","coord":{"lon":-73.5,"lat":-9.0}},{"_id":3693345,"name":"Pucallpa","country":"PE","coord":{"lon":-74.553871,"lat":-8.37915}},{"_id":3696416,"name":"Departamento de Huánuco","country":"PE","coord":{"lon":-75.833328,"lat":-9.5}},{"_id":6670303,"name":"Mitopampa","country":"PE","coord":{"lon":-76.225632,"lat":-9.91387}},{"_id":3939467,"name":"Departamento de Huancavelica","country":"PE","coord":{"lon":-75.0,"lat":-13.0}},{"_id":3932835,"name":"Pasco","country":"PE","coord":{"lon":-74.783333,"lat":-12.86667}},{"_id":3695238,"name":"Departamento de Loreto","country":"PE","coord":{"lon":-75.0,"lat":-5.0}},{"_id":3696183,"name":"Iquitos","country":"PE","coord":{"lon":-73.247223,"lat":-3.74806}},{"_id":3947019,"name":"Ayacucho","country":"PE","coord":{"lon":-74.223892,"lat":-13.15833}},{"_id":3941583,"name":"Departamento de Cusco","country":"PE","coord":{"lon":-72.5,"lat":-12.5}},{"_id":3941584,"name":"Cusco","country":"PE","coord":{"lon":-71.978058,"lat":-13.51833}},{"_id":3937513,"name":"Juliaca","country":"PE","coord":{"lon":-70.133331,"lat":-15.5}},{"_id":3939470,"name":"Huancavelica","country":"PE","coord":{"lon":-74.98333,"lat":-12.76667}},{"_id":3939459,"name":"Huancayo","country":"PE","coord":{"lon":-75.23333,"lat":-12.06667}},{"_id":3695753,"name":"Departamento de Lambayeque","country":"PE","coord":{"lon":-80.0,"lat":-6.33333}},{"_id":3698350,"name":"Chiclayo","country":"PE","coord":{"lon":-79.841667,"lat":-6.77361}},{"_id":3699502,"name":"Ayabaca","country":"PE","coord":{"lon":-79.714912,"lat":-4.63983}},{"_id":3940002,"name":"Huacho","country":"PE","coord":{"lon":-77.605003,"lat":-11.10667}},{"_id":3938526,"name":"Departamento de Ica","country":"PE","coord":{"lon":-75.499718,"lat":-14.3325}},{"_id":3932145,"name":"Pisco","country":"PE","coord":{"lon":-76.216667,"lat":-13.7}},{"_id":3934608,"name":"Moquegua","country":"PE","coord":{"lon":-70.93528,"lat":-17.19556}},{"_id":3692385,"name":"Departamento de San Martín","country":"PE","coord":{"lon":-76.833328,"lat":-7.0}},{"_id":7543962,"name":"Limón","country":"PE","coord":{"lon":-76.545113,"lat":-7.05513}},{"_id":6659400,"name":"San Jorge","country":"PE","coord":{"lon":-75.976357,"lat":-9.28093}},{"_id":3939285,"name":"Huaral","country":"PE","coord":{"lon":-77.207779,"lat":-11.495}},{"_id":3691146,"name":"Departamento de Tumbes","country":"PE","coord":{"lon":-80.5,"lat":-3.83333}},{"_id":3691148,"name":"Tumbes","country":"PE","coord":{"lon":-80.441391,"lat":-3.56667}},{"_id":3691582,"name":"Talara","country":"PE","coord":{"lon":-81.271942,"lat":-4.57722}},{"_id":3947421,"name":"Departamento de Apurímac","country":"PE","coord":{"lon":-73.0,"lat":-14.0}},{"_id":3947740,"name":"Andahuaylas","country":"PE","coord":{"lon":-73.387222,"lat":-13.65556}},{"_id":3694564,"name":"Moyobamba","country":"PE","coord":{"lon":-76.966667,"lat":-6.05}},{"_id":3699699,"name":"Departamento de Amazonas","country":"PE","coord":{"lon":-78.0,"lat":-5.0}},{"_id":6383146,"name":"Asentamiento Humano Pedro Alva Castro","country":"PE","coord":{"lon":-77.856392,"lat":-6.21389}},{"_id":6380123,"name":"Shingal","country":"PE","coord":{"lon":-77.804718,"lat":-9.06139}},{"_id":3936952,"name":"La Oroya","country":"PE","coord":{"lon":-75.899353,"lat":-11.51893}},{"_id":3947956,"name":"Ambo","country":"PE","coord":{"lon":-76.20472,"lat":-10.13083}},{"_id":3927758,"name":"Tarma","country":"PE","coord":{"lon":-75.690826,"lat":-11.41972}},{"_id":3697193,"name":"El Socorro","country":"PE","coord":{"lon":-78.75,"lat":-8.41667}},{"_id":6380215,"name":"Aura","country":"PE","coord":{"lon":-77.732224,"lat":-9.15333}},{"_id":3692464,"name":"San Jose de Sisa","country":"PE","coord":{"lon":-76.69146,"lat":-6.61674}},{"_id":3692029,"name":"Saposoa","country":"PE","coord":{"lon":-76.771584,"lat":-6.93395}},{"_id":3691530,"name":"Tambo Grande","country":"PE","coord":{"lon":-80.344719,"lat":-4.92694}},{"_id":6303009,"name":"Bajo Timarini","country":"PE","coord":{"lon":-74.679169,"lat":-11.26028}},{"_id":7544153,"name":"Juanjuiycillo","country":"PE","coord":{"lon":-76.735741,"lat":-7.18756}},{"_id":3938527,"name":"Ica","country":"PE","coord":{"lon":-75.730827,"lat":-14.06528}},{"_id":6254790,"name":"El Cortijo","country":"PE","coord":{"lon":-77.274437,"lat":-11.55611}},{"_id":6671321,"name":"Bellavista","country":"PE","coord":{"lon":-75.506729,"lat":-11.80312}},{"_id":6559781,"name":"El Carmen","country":"PE","coord":{"lon":-78.315002,"lat":-9.47056}},{"_id":3698608,"name":"Celendin","country":"PE","coord":{"lon":-78.151672,"lat":-6.87028}},{"_id":3695757,"name":"Lamas","country":"PE","coord":{"lon":-76.533333,"lat":-6.41667}},{"_id":3698141,"name":"Chota","country":"PE","coord":{"lon":-78.650002,"lat":-6.55}},{"_id":3928317,"name":"Sullaca","country":"PE","coord":{"lon":-74.716667,"lat":-13.0}},{"_id":3948642,"name":"Abancay","country":"PE","coord":{"lon":-72.881393,"lat":-13.63389}},{"_id":3938415,"name":"Ilo","country":"PE","coord":{"lon":-71.337502,"lat":-17.639441}},{"_id":3929188,"name":"Santa Lucia","country":"PE","coord":{"lon":-70.605278,"lat":-15.7}},{"_id":3943423,"name":"Chosica","country":"PE","coord":{"lon":-76.709442,"lat":-11.94306}},{"_id":3694212,"name":"Otuzco","country":"PE","coord":{"lon":-78.583328,"lat":-7.9}},{"_id":3925989,"name":"Vista Alegre","country":"PE","coord":{"lon":-77.0,"lat":-12.15}},{"_id":3935619,"name":"Departamento de Madre de Dios","country":"PE","coord":{"lon":-70.25,"lat":-12.0}},{"_id":3931470,"name":"Puerto Maldonado","country":"PE","coord":{"lon":-69.183327,"lat":-12.6}},{"_id":3698176,"name":"Chongoyape","country":"PE","coord":{"lon":-79.389168,"lat":-6.64056}},{"_id":3930842,"name":"Quilipe","country":"PE","coord":{"lon":-78.166672,"lat":-10.06667}},{"_id":3694197,"name":"Oyotun","country":"PE","coord":{"lon":-79.303612,"lat":-6.85194}},{"_id":3947338,"name":"Arenal","country":"PE","coord":{"lon":-77.099998,"lat":-11.83333}},{"_id":6254739,"name":"Los Ángeles","country":"PE","coord":{"lon":-77.116943,"lat":-11.83444}},{"_id":3933185,"name":"Pampas","country":"PE","coord":{"lon":-74.900002,"lat":-12.4}},{"_id":3698105,"name":"Chulucanas","country":"PE","coord":{"lon":-80.162498,"lat":-5.0925}},{"_id":3936996,"name":"Lampa","country":"PE","coord":{"lon":-70.366669,"lat":-15.35}},{"_id":3933345,"name":"Palpa","country":"PE","coord":{"lon":-75.185562,"lat":-14.53361}},{"_id":3932589,"name":"Pedregal","country":"PE","coord":{"lon":-76.130333,"lat":-13.4511}},{"_id":3928274,"name":"Supe","country":"PE","coord":{"lon":-77.73333,"lat":-10.8}},{"_id":3948917,"name":"Santo Tomas","country":"PE","coord":{"lon":-72.084167,"lat":-14.44556}},{"_id":3696509,"name":"Huamachuco","country":"PE","coord":{"lon":-78.066673,"lat":-7.8}},{"_id":3938451,"name":"Ilave","country":"PE","coord":{"lon":-69.666672,"lat":-16.08333}},{"_id":3690654,"name":"Yurimaguas","country":"PE","coord":{"lon":-76.083328,"lat":-5.9}},{"_id":3946820,"name":"Barranca","country":"PE","coord":{"lon":-77.76667,"lat":-10.75}},{"_id":3935206,"name":"Matamula","country":"PE","coord":{"lon":-70.550003,"lat":-17.85}},{"_id":3939386,"name":"Huanta","country":"PE","coord":{"lon":-74.25,"lat":-12.93333}},{"_id":3934586,"name":"Morococha","country":"PE","coord":{"lon":-76.141113,"lat":-11.59972}},{"_id":3695117,"name":"Lurifico","country":"PE","coord":{"lon":-79.449997,"lat":-7.21667}},{"_id":3929528,"name":"San Juan","country":"PE","coord":{"lon":-75.949997,"lat":-13.41667}},{"_id":3691150,"name":"Tumán","country":"PE","coord":{"lon":-79.700562,"lat":-6.74778}},{"_id":3936947,"name":"La Palma","country":"PE","coord":{"lon":-77.01667,"lat":-12.11667}},{"_id":3928231,"name":"Surquillo","country":"PE","coord":{"lon":-77.033333,"lat":-12.11667}},{"_id":6254818,"name":"Cerro Trinchera","country":"PE","coord":{"lon":-77.163612,"lat":-11.52}},{"_id":3929631,"name":"San Isidro","country":"PE","coord":{"lon":-77.050003,"lat":-12.11667}},{"_id":3692310,"name":"San Pedro de Lloc","country":"PE","coord":{"lon":-79.505829,"lat":-7.43278}},{"_id":3694603,"name":"Morales","country":"PE","coord":{"lon":-76.466667,"lat":-6.46667}},{"_id":3941417,"name":"El Agustino","country":"PE","coord":{"lon":-77.01667,"lat":-12.06667}},{"_id":3935720,"name":"Lurín","country":"PE","coord":{"lon":-76.866669,"lat":-12.28333}},{"_id":3930743,"name":"Quinta Wisse","country":"PE","coord":{"lon":-77.033333,"lat":-11.98333}},{"_id":6667456,"name":"San Martín","country":"PE","coord":{"lon":-76.40271,"lat":-13.0733}},{"_id":3936719,"name":"Las Palmas","country":"PE","coord":{"lon":-77.01667,"lat":-12.16667}},{"_id":3946818,"name":"Barranco","country":"PE","coord":{"lon":-77.018623,"lat":-12.14297}},{"_id":3929279,"name":"Santa Anita","country":"PE","coord":{"lon":-76.966667,"lat":-12.03333}},{"_id":3935155,"name":"Matucana","country":"PE","coord":{"lon":-76.400002,"lat":-11.85}},{"_id":3943186,"name":"Chupaca","country":"PE","coord":{"lon":-75.283333,"lat":-12.06667}},{"_id":3938310,"name":"Infantas","country":"PE","coord":{"lon":-77.066673,"lat":-11.95}},{"_id":3936438,"name":"Limatambo","country":"PE","coord":{"lon":-77.033333,"lat":-12.1}},{"_id":3936428,"name":"Lince","country":"PE","coord":{"lon":-77.050003,"lat":-12.1}},{"_id":3696847,"name":"Guadalupe","country":"PE","coord":{"lon":-79.48333,"lat":-7.25}},{"_id":3933733,"name":"Pachacamac","country":"PE","coord":{"lon":-76.883331,"lat":-12.23333}},{"_id":3933105,"name":"Pangaravi","country":"PE","coord":{"lon":-74.949997,"lat":-14.83333}},{"_id":3935382,"name":"Maranga","country":"PE","coord":{"lon":-77.099998,"lat":-12.08333}},{"_id":3935608,"name":"Magdalena Nueva","country":"PE","coord":{"lon":-77.083328,"lat":-12.1}},{"_id":3932166,"name":"Pisac","country":"PE","coord":{"lon":-71.846672,"lat":-13.4225}},{"_id":3933132,"name":"Pancha Paula","country":"PE","coord":{"lon":-77.083328,"lat":-11.86667}},{"_id":3691954,"name":"Sechura","country":"PE","coord":{"lon":-80.82222,"lat":-5.55694}},{"_id":3698743,"name":"Cartavio","country":"PE","coord":{"lon":-79.222778,"lat":-7.89167}},{"_id":3697033,"name":"Ferrenafe","country":"PE","coord":{"lon":-79.788887,"lat":-6.63889}},{"_id":3699484,"name":"Bagua Grande","country":"PE","coord":{"lon":-78.441109,"lat":-5.75611}},{"_id":3699831,"name":"Aguaytía","country":"PE","coord":{"lon":-75.509239,"lat":-9.03741}},{"_id":3695000,"name":"Mancora","country":"PE","coord":{"lon":-81.047501,"lat":-4.10778}},{"_id":3933024,"name":"Paramonga","country":"PE","coord":{"lon":-77.833328,"lat":-10.66667}},{"_id":3697990,"name":"Coishco","country":"PE","coord":{"lon":-78.615562,"lat":-9.02306}},{"_id":6672528,"name":"Sangapilla","country":"PE","coord":{"lon":-76.104523,"lat":-8.9492}},{"_id":3942527,"name":"Concordia","country":"PE","coord":{"lon":-70.316673,"lat":-18.299999}},{"_id":3747803,"name":"Villa Aeronautica","country":"PE","coord":{"lon":-81.256668,"lat":-4.57917}},{"_id":3695539,"name":"Las Monteros","country":"PE","coord":{"lon":-80.616669,"lat":-5.21667}},{"_id":6400502,"name":"Ciudad de Dios","country":"PE","coord":{"lon":-70.279167,"lat":-18.06889}},{"_id":3964722,"name":"La Palmilla","country":"PE","coord":{"lon":-76.224998,"lat":-13.75556}},{"_id":3949222,"name":"Los Blancos","country":"PE","coord":{"lon":-71.59417,"lat":-16.33}},{"_id":3827832,"name":"Rumo Cocha","country":"PE","coord":{"lon":-73.311943,"lat":-3.77917}},{"_id":6670027,"name":"Huacho","country":"PE","coord":{"lon":-76.197067,"lat":-9.87216}},{"_id":3695370,"name":"Limón","country":"PE","coord":{"lon":-76.150002,"lat":-5.88333}},{"_id":3818373,"name":"Primavera","country":"PE","coord":{"lon":-80.389717,"lat":-3.5375}},{"_id":3692255,"name":"Santa Barbara","country":"PE","coord":{"lon":-78.5,"lat":-7.13333}},{"_id":3926433,"name":"Urubambilla","country":"PE","coord":{"lon":-70.150002,"lat":-15.48333}},{"_id":6674742,"name":"Atucpuquio","country":"PE","coord":{"lon":-75.480179,"lat":-11.79071}},{"_id":3696057,"name":"Juanjui","country":"PE","coord":{"lon":-76.731354,"lat":-7.17785}},{"_id":3692863,"name":"Rioja","country":"PE","coord":{"lon":-77.165001,"lat":-6.05861}},{"_id":3946656,"name":"Bocanegra","country":"PE","coord":{"lon":-77.116669,"lat":-12.01667}},{"_id":6380342,"name":"Quebrada","country":"PE","coord":{"lon":-77.60083,"lat":-9.35111}},{"_id":6308319,"name":"Chuñuna Pampa","country":"PE","coord":{"lon":-73.353607,"lat":-13.70472}},{"_id":3929494,"name":"San Juan Bautista","country":"PE","coord":{"lon":-74.208611,"lat":-13.165}},{"_id":3695731,"name":"La Mona","country":"PE","coord":{"lon":-79.82222,"lat":-6.78639}},{"_id":3691348,"name":"Tingo Maria","country":"PE","coord":{"lon":-76.008759,"lat":-9.28951}},{"_id":6198999,"name":"Urbanización José C. C. Maritegui","country":"PE","coord":{"lon":-78.517776,"lat":-9.13194}},{"_id":3733378,"name":"San Martín de Porres","country":"PE","coord":{"lon":-74.573334,"lat":-8.39306}},{"_id":6267363,"name":"Puerto Motilones","country":"PE","coord":{"lon":-76.98056,"lat":-5.99778}},{"_id":3934356,"name":"Nazca","country":"PE","coord":{"lon":-74.949997,"lat":-14.83333}},{"_id":3690608,"name":"Zorritos","country":"PE","coord":{"lon":-80.678192,"lat":-3.68046}},{"_id":3690673,"name":"Yungay","country":"PE","coord":{"lon":-77.743607,"lat":-9.13833}},{"_id":3690733,"name":"Yauya","country":"PE","coord":{"lon":-77.300003,"lat":-8.98333}},{"_id":3690935,"name":"Vice","country":"PE","coord":{"lon":-80.783333,"lat":-5.41667}},{"_id":3691161,"name":"Tucume","country":"PE","coord":{"lon":-79.85833,"lat":-6.51}},{"_id":3691638,"name":"Tabalosos","country":"PE","coord":{"lon":-76.683327,"lat":-6.35}},{"_id":3691712,"name":"Soritor","country":"PE","coord":{"lon":-77.103889,"lat":-6.13917}},{"_id":3692020,"name":"Saquena","country":"PE","coord":{"lon":-73.51667,"lat":-4.66667}},{"_id":3692072,"name":"Santiago de Chuco","country":"PE","coord":{"lon":-78.183327,"lat":-8.15}},{"_id":3692116,"name":"Santa Rosa","country":"PE","coord":{"lon":-79.833328,"lat":-6.76667}},{"_id":3692482,"name":"San Jose","country":"PE","coord":{"lon":-79.82917,"lat":-6.7425}},{"_id":3692529,"name":"San Ignacio","country":"PE","coord":{"lon":-79.001389,"lat":-5.14583}},{"_id":3692727,"name":"Salitral","country":"PE","coord":{"lon":-80.681107,"lat":-4.85722}},{"_id":3692729,"name":"Salinera Colan","country":"PE","coord":{"lon":-81.066673,"lat":-5.03333}},{"_id":3692747,"name":"Salaverry","country":"PE","coord":{"lon":-78.966667,"lat":-8.23333}},{"_id":3692900,"name":"Reque","country":"PE","coord":{"lon":-79.81778,"lat":-6.86556}},{"_id":3692953,"name":"Ramon Castilla","country":"PE","coord":{"lon":-69.959442,"lat":-4.25694}},{"_id":3692994,"name":"Quiruvilca","country":"PE","coord":{"lon":-78.199997,"lat":-7.96667}},{"_id":3693191,"name":"Puerto Santa","country":"PE","coord":{"lon":-78.645561,"lat":-8.99056}},{"_id":3693302,"name":"Pueblo Nuevo","country":"PE","coord":{"lon":-79.515282,"lat":-7.18806}},{"_id":3693305,"name":"Pueblo Nuevo","country":"PE","coord":{"lon":-79.883331,"lat":-5.71667}},{"_id":3693468,"name":"Pomabamba","country":"PE","coord":{"lon":-77.466667,"lat":-8.83333}},{"_id":3693646,"name":"Picota","country":"PE","coord":{"lon":-76.330368,"lat":-6.91969}},{"_id":3694183,"name":"Pacanga","country":"PE","coord":{"lon":-79.5,"lat":-7.16667}},{"_id":3694256,"name":"Olmos","country":"PE","coord":{"lon":-79.745277,"lat":-5.98472}},{"_id":3694569,"name":"Motupe","country":"PE","coord":{"lon":-79.714172,"lat":-6.15194}},{"_id":3694582,"name":"Morropon","country":"PE","coord":{"lon":-79.968887,"lat":-5.18222}},{"_id":3694586,"name":"Morrope","country":"PE","coord":{"lon":-80.011108,"lat":-6.54167}},{"_id":3694720,"name":"Mochumi","country":"PE","coord":{"lon":-79.86306,"lat":-6.54694}},{"_id":3695320,"name":"Llata","country":"PE","coord":{"lon":-76.783333,"lat":-9.41667}},{"_id":3695465,"name":"La Union","country":"PE","coord":{"lon":-76.801804,"lat":-9.82907}},{"_id":3695552,"name":"Las Lomas","country":"PE","coord":{"lon":-80.246674,"lat":-4.65333}},{"_id":3695829,"name":"La Huaca","country":"PE","coord":{"lon":-80.959999,"lat":-4.91167}},{"_id":3695844,"name":"Lagunas","country":"PE","coord":{"lon":-75.675278,"lat":-5.22694}},{"_id":3696096,"name":"Jepelacio","country":"PE","coord":{"lon":-76.949997,"lat":-6.11667}},{"_id":3696104,"name":"Jayanca","country":"PE","coord":{"lon":-79.821938,"lat":-6.39083}},{"_id":3696267,"name":"Huicungo","country":"PE","coord":{"lon":-76.800003,"lat":-7.28333}},{"_id":3696466,"name":"Huancabamba","country":"PE","coord":{"lon":-79.450562,"lat":-5.23861}},{"_id":3697083,"name":"Eten","country":"PE","coord":{"lon":-79.864166,"lat":-6.90806}},{"_id":3697441,"name":"El Alto","country":"PE","coord":{"lon":-81.214722,"lat":-4.27139}},{"_id":3697838,"name":"Contamana","country":"PE","coord":{"lon":-75.01667,"lat":-7.33333}},{"_id":3698359,"name":"Chicama","country":"PE","coord":{"lon":-79.146942,"lat":-7.84472}},{"_id":3698414,"name":"Chazuta","country":"PE","coord":{"lon":-76.136673,"lat":-6.57417}},{"_id":3698705,"name":"Cascas","country":"PE","coord":{"lon":-78.816673,"lat":-7.48333}},{"_id":3698814,"name":"Carhuaz","country":"PE","coord":{"lon":-77.644722,"lat":-9.28194}},{"_id":3698841,"name":"Caras","country":"PE","coord":{"lon":-77.811394,"lat":-9.04667}},{"_id":3699078,"name":"Cajaruro","country":"PE","coord":{"lon":-78.42556,"lat":-5.73639}},{"_id":3699095,"name":"Cajabamba","country":"PE","coord":{"lon":-78.050003,"lat":-7.61667}},{"_id":3699223,"name":"Buenos Aires","country":"PE","coord":{"lon":-79.964172,"lat":-5.26083}},{"_id":3699350,"name":"Bernal","country":"PE","coord":{"lon":-80.75,"lat":-5.45}},{"_id":3699366,"name":"Bellavista","country":"PE","coord":{"lon":-78.677223,"lat":-5.66417}},{"_id":3699427,"name":"Barranca","country":"PE","coord":{"lon":-76.699997,"lat":-4.83333}},{"_id":3699456,"name":"Bambamarca","country":"PE","coord":{"lon":-78.533333,"lat":-6.68333}},{"_id":3699544,"name":"Ascope","country":"PE","coord":{"lon":-79.10778,"lat":-7.71444}},{"_id":3699832,"name":"Aguas Verdes","country":"PE","coord":{"lon":-80.245003,"lat":-3.48139}},{"_id":3733380,"name":"Campoverde","country":"PE","coord":{"lon":-74.805832,"lat":-8.47528}},{"_id":3814639,"name":"Papayal","country":"PE","coord":{"lon":-80.736107,"lat":-4.07611}},{"_id":3925467,"name":"Yura","country":"PE","coord":{"lon":-71.679688,"lat":-16.25223}},{"_id":3925749,"name":"Yanaoca","country":"PE","coord":{"lon":-71.431671,"lat":-14.21806}},{"_id":3925809,"name":"Yanahuanca","country":"PE","coord":{"lon":-76.498611,"lat":-10.51667}},{"_id":3925955,"name":"Vizcachane","country":"PE","coord":{"lon":-71.201111,"lat":-15.80861}},{"_id":3926119,"name":"Villa Tupac Amaru","country":"PE","coord":{"lon":-76.150002,"lat":-13.7}},{"_id":3926120,"name":"Villa Rica","country":"PE","coord":{"lon":-75.269722,"lat":-10.73944}},{"_id":3926328,"name":"Vegueta","country":"PE","coord":{"lon":-77.643059,"lat":-11.02306}},{"_id":3926438,"name":"Urubamba","country":"PE","coord":{"lon":-72.115829,"lat":-13.30472}},{"_id":3926462,"name":"Urcos","country":"PE","coord":{"lon":-71.62278,"lat":-13.68611}},{"_id":3926776,"name":"Tungasuca","country":"PE","coord":{"lon":-71.476669,"lat":-14.16389}},{"_id":3927023,"name":"Totoral","country":"PE","coord":{"lon":-70.364998,"lat":-17.405279}},{"_id":3927158,"name":"Torata","country":"PE","coord":{"lon":-70.84333,"lat":-17.076941}},{"_id":3927420,"name":"Tinyahuarco","country":"PE","coord":{"lon":-76.300003,"lat":-10.75}},{"_id":3927441,"name":"Tinta","country":"PE","coord":{"lon":-71.406937,"lat":-14.145}},{"_id":3927774,"name":"Tarata","country":"PE","coord":{"lon":-70.032784,"lat":-17.47444}},{"_id":3927803,"name":"Taquile","country":"PE","coord":{"lon":-69.683327,"lat":-15.76667}},{"_id":3927995,"name":"Tambo","country":"PE","coord":{"lon":-73.916672,"lat":-14.8}},{"_id":3928043,"name":"Talavera","country":"PE","coord":{"lon":-73.429169,"lat":-13.65306}},{"_id":3928365,"name":"Subtanjalla","country":"PE","coord":{"lon":-75.758057,"lat":-14.01889}},{"_id":3928691,"name":"Sicaya","country":"PE","coord":{"lon":-75.283333,"lat":-12.03333}},{"_id":3928867,"name":"Sayan","country":"PE","coord":{"lon":-77.193329,"lat":-11.13611}},{"_id":3929051,"name":"Santiago","country":"PE","coord":{"lon":-75.714172,"lat":-14.18861}},{"_id":3929172,"name":"Santa Maria","country":"PE","coord":{"lon":-76.900002,"lat":-12.0}},{"_id":3929213,"name":"Santa Eulalia","country":"PE","coord":{"lon":-76.683327,"lat":-11.85}},{"_id":3929314,"name":"San Ramon","country":"PE","coord":{"lon":-75.353058,"lat":-11.12139}},{"_id":3929335,"name":"San Pedro de Cajas","country":"PE","coord":{"lon":-75.861671,"lat":-11.25111}},{"_id":3929375,"name":"San Pablo","country":"PE","coord":{"lon":-71.315559,"lat":-14.20278}},{"_id":3929389,"name":"San Miguel de Cauri","country":"PE","coord":{"lon":-76.583328,"lat":-10.1}},{"_id":3929403,"name":"San Miguel","country":"PE","coord":{"lon":-73.980827,"lat":-13.0125}},{"_id":3929438,"name":"San Luis","country":"PE","coord":{"lon":-77.0,"lat":-12.06667}},{"_id":3929493,"name":"San Juan Bautista","country":"PE","coord":{"lon":-75.735832,"lat":-14.01083}},{"_id":3929607,"name":"San Jeronimo","country":"PE","coord":{"lon":-73.364998,"lat":-13.65028}},{"_id":3929611,"name":"San Jeronimo","country":"PE","coord":{"lon":-75.282928,"lat":-11.94717}},{"_id":3929805,"name":"San Bartolo","country":"PE","coord":{"lon":-76.783333,"lat":-12.38333}},{"_id":3929888,"name":"San Agustin","country":"PE","coord":{"lon":-75.245277,"lat":-11.99219}},{"_id":3930348,"name":"Rio Grande","country":"PE","coord":{"lon":-75.201393,"lat":-14.51972}},{"_id":3930382,"name":"Ricardo Palma","country":"PE","coord":{"lon":-76.666389,"lat":-11.91806}},{"_id":3930817,"name":"Quilmana","country":"PE","coord":{"lon":-76.383331,"lat":-12.95}},{"_id":3930871,"name":"Quilahuani","country":"PE","coord":{"lon":-70.258057,"lat":-17.31778}},{"_id":3931137,"name":"Putina","country":"PE","coord":{"lon":-69.433327,"lat":-15.46667}},{"_id":3931223,"name":"Puquio","country":"PE","coord":{"lon":-74.133331,"lat":-14.7}},{"_id":3931255,"name":"Punta de Bombon","country":"PE","coord":{"lon":-71.79306,"lat":-17.171671}},{"_id":3931427,"name":"Pujocucho","country":"PE","coord":{"lon":-70.352219,"lat":-17.15778}},{"_id":3931453,"name":"Puerto Supe","country":"PE","coord":{"lon":-77.75,"lat":-10.81667}},{"_id":3931656,"name":"Pucara","country":"PE","coord":{"lon":-71.460564,"lat":-15.98028}},{"_id":3932282,"name":"Pilcomay","country":"PE","coord":{"lon":-75.26667,"lat":-12.05}},{"_id":3932502,"name":"Perene","country":"PE","coord":{"lon":-75.226112,"lat":-10.94917}},{"_id":3932687,"name":"Pativilca","country":"PE","coord":{"lon":-77.783333,"lat":-10.7}},{"_id":3933058,"name":"Paracas","country":"PE","coord":{"lon":-76.26667,"lat":-13.86667}},{"_id":3933104,"name":"Pangoa","country":"PE","coord":{"lon":-73.0,"lat":-12.11667}},{"_id":3933218,"name":"Pampamarca","country":"PE","coord":{"lon":-71.459442,"lat":-14.14639}},{"_id":3933659,"name":"Pacocha","country":"PE","coord":{"lon":-71.333328,"lat":-17.58333}},{"_id":3933867,"name":"Oyon","country":"PE","coord":{"lon":-76.773064,"lat":-10.66806}},{"_id":3933874,"name":"Oxapampa","country":"PE","coord":{"lon":-75.401672,"lat":-10.5775}},{"_id":3933956,"name":"Oropesa","country":"PE","coord":{"lon":-71.771942,"lat":-13.59278}},{"_id":3933981,"name":"Orcotuna","country":"PE","coord":{"lon":-75.333328,"lat":-11.96667}},{"_id":3933986,"name":"Orcopampa","country":"PE","coord":{"lon":-72.341667,"lat":-15.26611}},{"_id":3934055,"name":"Ollantaytambo","country":"PE","coord":{"lon":-72.263062,"lat":-13.25722}},{"_id":3934233,"name":"Nunoa","country":"PE","coord":{"lon":-70.641113,"lat":-14.48}},{"_id":3934290,"name":"Nicolas de Pierola","country":"PE","coord":{"lon":-76.699997,"lat":-11.95}},{"_id":3935102,"name":"Mazamari","country":"PE","coord":{"lon":-74.53083,"lat":-11.32583}},{"_id":3935379,"name":"Marangani","country":"PE","coord":{"lon":-71.16861,"lat":-14.35778}},{"_id":3935624,"name":"Macusani","country":"PE","coord":{"lon":-70.433327,"lat":-14.08333}},{"_id":3935969,"name":"Los Aquijes","country":"PE","coord":{"lon":-75.690826,"lat":-14.09667}},{"_id":3936088,"name":"Lluta","country":"PE","coord":{"lon":-72.014168,"lat":-16.014721}},{"_id":3936541,"name":"Layo","country":"PE","coord":{"lon":-71.154999,"lat":-14.49361}},{"_id":3936963,"name":"Langui","country":"PE","coord":{"lon":-71.273064,"lat":-14.43194}},{"_id":3937516,"name":"Juli","country":"PE","coord":{"lon":-69.449997,"lat":-16.216669}},{"_id":3937765,"name":"Jatun Orcochiri","country":"PE","coord":{"lon":-71.346672,"lat":-15.75}},{"_id":3938324,"name":"Independencia","country":"PE","coord":{"lon":-77.04583,"lat":-11.99}},{"_id":3938455,"name":"Ilabaya","country":"PE","coord":{"lon":-70.513329,"lat":-17.42083}},{"_id":3938531,"name":"Iberia","country":"PE","coord":{"lon":-69.583328,"lat":-11.35}},{"_id":3938819,"name":"Huayucachi","country":"PE","coord":{"lon":-75.23333,"lat":-12.13333}},{"_id":3939123,"name":"Huasahuasi","country":"PE","coord":{"lon":-75.616669,"lat":-11.31667}},{"_id":3939531,"name":"Hacienda Huancane","country":"PE","coord":{"lon":-70.885559,"lat":-15.82222}},{"_id":3941492,"name":"Desaguadero","country":"PE","coord":{"lon":-69.041672,"lat":-16.565559}},{"_id":3942259,"name":"Coracora","country":"PE","coord":{"lon":-73.783333,"lat":-15.03333}},{"_id":3942548,"name":"Concepcion","country":"PE","coord":{"lon":-75.311729,"lat":-11.91811}},{"_id":3942593,"name":"Combapata","country":"PE","coord":{"lon":-71.429443,"lat":-14.10111}},{"_id":3942957,"name":"Cocachacra","country":"PE","coord":{"lon":-71.7575,"lat":-17.088329}},{"_id":3943626,"name":"Chivay","country":"PE","coord":{"lon":-71.601112,"lat":-15.63833}},{"_id":3943699,"name":"Chipispaya","country":"PE","coord":{"lon":-70.21611,"lat":-17.497219}},{"_id":3943957,"name":"Chilca","country":"PE","coord":{"lon":-76.737221,"lat":-12.52111}},{"_id":3944134,"name":"Checca","country":"PE","coord":{"lon":-71.39389,"lat":-14.47278}},{"_id":3944138,"name":"Checacupe","country":"PE","coord":{"lon":-71.452782,"lat":-14.02694}},{"_id":3945466,"name":"Carhuamayo","country":"PE","coord":{"lon":-76.033333,"lat":-10.91667}},{"_id":3945808,"name":"Candarave","country":"PE","coord":{"lon":-70.249443,"lat":-17.26778}},{"_id":3946147,"name":"Caleta de Carquin","country":"PE","coord":{"lon":-77.626671,"lat":-11.0925}},{"_id":3946177,"name":"Calca","country":"PE","coord":{"lon":-71.949997,"lat":-13.33333}},{"_id":3946937,"name":"Azangaro","country":"PE","coord":{"lon":-70.216667,"lat":-14.91667}},{"_id":3946962,"name":"Ayna","country":"PE","coord":{"lon":-73.916672,"lat":-12.65}},{"_id":3947110,"name":"Atuncolla","country":"PE","coord":{"lon":-70.150002,"lat":-15.68333}},{"_id":3947634,"name":"Anta","country":"PE","coord":{"lon":-72.148331,"lat":-13.47056}},{"_id":3948448,"name":"Acolla","country":"PE","coord":{"lon":-75.546341,"lat":-11.73193}},{"_id":3948613,"name":"Acari","country":"PE","coord":{"lon":-74.615829,"lat":-15.43111}},{"_id":3948689,"name":"Mosoc Llacta","country":"PE","coord":{"lon":-71.472778,"lat":-14.12}},{"_id":3951506,"name":"Huarancante","country":"PE","coord":{"lon":-71.459717,"lat":-15.76806}},{"_id":3951550,"name":"Ccolo","country":"PE","coord":{"lon":-71.491669,"lat":-15.50583}},{"_id":3951691,"name":"Huarichancara","country":"PE","coord":{"lon":-71.061111,"lat":-15.63972}},{"_id":3951757,"name":"Llongasora","country":"PE","coord":{"lon":-71.299721,"lat":-15.63917}},{"_id":3951767,"name":"Jayune","country":"PE","coord":{"lon":-71.303062,"lat":-15.56333}},{"_id":3952372,"name":"Chuquitira","country":"PE","coord":{"lon":-70.044998,"lat":-17.287781}},{"_id":3952849,"name":"Callanca","country":"PE","coord":{"lon":-71.140282,"lat":-14.17944}},{"_id":3952867,"name":"Cullcuyre","country":"PE","coord":{"lon":-71.332497,"lat":-14.09333}},{"_id":3953301,"name":"Cahuanuyo","country":"PE","coord":{"lon":-71.469437,"lat":-14.34111}},{"_id":3953343,"name":"Ccaquiracunca","country":"PE","coord":{"lon":-71.44944,"lat":-14.27861}},{"_id":3953385,"name":"Chignayhua","country":"PE","coord":{"lon":-71.44194,"lat":-14.24306}},{"_id":3953594,"name":"Ccuntuma","country":"PE","coord":{"lon":-71.41111,"lat":-14.12611}},{"_id":3953687,"name":"Lima Pampa","country":"PE","coord":{"lon":-71.337219,"lat":-14.08861}},{"_id":3953711,"name":"Jayobamba","country":"PE","coord":{"lon":-71.338608,"lat":-14.09417}},{"_id":3953732,"name":"Queromarca","country":"PE","coord":{"lon":-71.384438,"lat":-14.1825}},{"_id":3953762,"name":"Qquea","country":"PE","coord":{"lon":-71.385834,"lat":-14.05417}},{"_id":3953918,"name":"Conchopata","country":"PE","coord":{"lon":-71.198059,"lat":-14.47111}},{"_id":3954288,"name":"Mosoc Cancha","country":"PE","coord":{"lon":-71.072502,"lat":-14.28444}},{"_id":3954291,"name":"Huayna Alcalde","country":"PE","coord":{"lon":-71.081673,"lat":-14.26528}},{"_id":7535952,"name":"San Pedro De Cachora","country":"PE","coord":{"lon":-72.883331,"lat":-13.63333}},{"_id":3927548,"name":"Tierra Amarilla","country":"PE","coord":{"lon":-76.433327,"lat":-12.13333}},{"_id":3946931,"name":"Aznapuquio","country":"PE","coord":{"lon":-77.066673,"lat":-11.98333}},{"_id":3934385,"name":"Naranjal","country":"PE","coord":{"lon":-77.062218,"lat":-11.97278}}]}
