{"countryCode":"PF","countryName":"French Polynesia","countryFilePath":"PF.json","countryCityList":[{"_id":4034561,"name":"Faaa","country":"PF","coord":{"lon":-149.600006,"lat":-17.549999}},{"_id":4033936,"name":"Papeete","country":"PF","coord":{"lon":-149.566666,"lat":-17.533331}},{"_id":4033683,"name":"Sainte Amélie","country":"PF","coord":{"lon":-149.566666,"lat":-17.533331}},{"_id":4034636,"name":"Arue","country":"PF","coord":{"lon":-149.5,"lat":-17.51667}},{"_id":4033779,"name":"Punaauia","country":"PF","coord":{"lon":-149.600006,"lat":-17.633329}},{"_id":4034005,"name":"Paea","country":"PF","coord":{"lon":-149.583328,"lat":-17.683331}},{"_id":4033951,"name":"Papao","country":"PF","coord":{"lon":-149.550003,"lat":-17.75}},{"_id":4020109,"name":"Atuona","country":"PF","coord":{"lon":-139.033325,"lat":-9.8}},{"_id":6620522,"name":"Faa'a","country":"PF","coord":{"lon":-149.605988,"lat":-17.557631}},{"_id":4030656,"name":"Polynésie Française","country":"PF","coord":{"lon":-140.0,"lat":-15.0}},{"_id":4033205,"name":"Uturoa","country":"PF","coord":{"lon":-151.433334,"lat":-16.73333}},{"_id":4034036,"name":"Otepa","country":"PF","coord":{"lon":-140.899994,"lat":-18.116671}},{"_id":4034551,"name":"Faanui","country":"PF","coord":{"lon":-151.75,"lat":-16.48333}},{"_id":4034684,"name":"Anua","country":"PF","coord":{"lon":-149.5,"lat":-23.383329}},{"_id":4030556,"name":"Rikitea","country":"PF","coord":{"lon":-134.969177,"lat":-23.120279}},{"_id":4033077,"name":"Vaitape","country":"PF","coord":{"lon":-151.75,"lat":-16.51667}},{"_id":4033094,"name":"Vairao","country":"PF","coord":{"lon":-149.283325,"lat":-17.783331}},{"_id":4033295,"name":"Tohautu","country":"PF","coord":{"lon":-149.316666,"lat":-17.75}},{"_id":4033356,"name":"Tiarei","country":"PF","coord":{"lon":-149.333328,"lat":-17.533331}},{"_id":4033375,"name":"Tevaitoa","country":"PF","coord":{"lon":-151.5,"lat":-16.783331}},{"_id":4033514,"name":"Teavaro","country":"PF","coord":{"lon":-149.766663,"lat":-17.5}},{"_id":4033543,"name":"Teahupoo","country":"PF","coord":{"lon":-149.266663,"lat":-17.83333}},{"_id":4033557,"name":"Tautira","country":"PF","coord":{"lon":-149.149994,"lat":-17.73333}},{"_id":4033566,"name":"Taunoa","country":"PF","coord":{"lon":-149.350006,"lat":-17.75}},{"_id":4033792,"name":"Pueu","country":"PF","coord":{"lon":-149.216675,"lat":-17.73333}},{"_id":4033838,"name":"Pirae","country":"PF","coord":{"lon":-149.533325,"lat":-17.51667}},{"_id":4033910,"name":"Papetoai","country":"PF","coord":{"lon":-149.87291,"lat":-17.49613}},{"_id":4033958,"name":"Paopao","country":"PF","coord":{"lon":-149.816666,"lat":-17.5}},{"_id":4034022,"name":"Otutara","country":"PF","coord":{"lon":-149.416672,"lat":-17.76667}},{"_id":4034188,"name":"Moerai","country":"PF","coord":{"lon":-151.333328,"lat":-22.433331}},{"_id":4034307,"name":"Mahina","country":"PF","coord":{"lon":-149.488983,"lat":-17.506479}},{"_id":4034402,"name":"Hitiaa","country":"PF","coord":{"lon":-149.300003,"lat":-17.6}},{"_id":4034438,"name":"Haapiti","country":"PF","coord":{"lon":-149.866669,"lat":-17.566669}},{"_id":4034451,"name":"Fitii","country":"PF","coord":{"lon":-151.033325,"lat":-16.73333}},{"_id":4034496,"name":"Fare","country":"PF","coord":{"lon":-151.016663,"lat":-16.700001}},{"_id":4034548,"name":"Faaone","country":"PF","coord":{"lon":-149.300003,"lat":-17.66667}},{"_id":4034688,"name":"Anau","country":"PF","coord":{"lon":-151.733337,"lat":-16.51667}},{"_id":4034741,"name":"Afareaitu","country":"PF","coord":{"lon":-149.783325,"lat":-17.549999}},{"_id":4034745,"name":"Afaahiti","country":"PF","coord":{"lon":-149.283325,"lat":-17.75}}]}
