{"countryCode":"PL","countryName":"Poland","countryFilePath":"PL.json","countryCityList":[{"_id":798544,"name":"Republic of Poland","country":"PL","coord":{"lon":20.0,"lat":52.0}},{"_id":3094325,"name":"Kuchary","country":"PL","coord":{"lon":19.383329,"lat":52.150002}},{"_id":3082707,"name":"Walbrzych","country":"PL","coord":{"lon":16.284321,"lat":50.771412}},{"_id":3091150,"name":"Naklo nad Notecia","country":"PL","coord":{"lon":17.60181,"lat":53.142139}},{"_id":7530966,"name":"Włocławek","country":"PL","coord":{"lon":19.060829,"lat":52.665379}},{"_id":7531696,"name":"Świdwin","country":"PL","coord":{"lon":15.7973,"lat":53.7742}},{"_id":7530961,"name":"Jastrzębie-Zdrój","country":"PL","coord":{"lon":18.600531,"lat":49.960629}},{"_id":7532652,"name":"Bełchatów","country":"PL","coord":{"lon":19.3626,"lat":51.3545}},{"_id":7532438,"name":"Świętochłowice","country":"PL","coord":{"lon":18.9102,"lat":50.297901}},{"_id":7530929,"name":"Powiat sierpecki","country":"PL","coord":{"lon":19.71216,"lat":52.83353}},{"_id":7531863,"name":"Jastrzębie-Zdrój","country":"PL","coord":{"lon":18.6005,"lat":49.960602}},{"_id":7531533,"name":"Gostynin","country":"PL","coord":{"lon":19.46258,"lat":52.42424}},{"_id":3090990,"name":"Niegowonice","country":"PL","coord":{"lon":19.42263,"lat":50.389091}},{"_id":3090285,"name":"Ogrodzieniec","country":"PL","coord":{"lon":19.519871,"lat":50.451771}},{"_id":3093768,"name":"Lazy","country":"PL","coord":{"lon":19.39465,"lat":50.427689}},{"_id":3081368,"name":"Wroclaw","country":"PL","coord":{"lon":17.033331,"lat":51.099998}},{"_id":3337493,"name":"Województwo Łódzkie","country":"PL","coord":{"lon":19.5,"lat":51.5}},{"_id":758116,"name":"Stopnica","country":"PL","coord":{"lon":20.937799,"lat":50.440182}},{"_id":764758,"name":"Mikułowice","country":"PL","coord":{"lon":20.06139,"lat":51.351639}},{"_id":7532212,"name":"Radom","country":"PL","coord":{"lon":21.156099,"lat":51.417198}},{"_id":7530747,"name":"Powiat kozienicki","country":"PL","coord":{"lon":21.4958,"lat":51.639462}},{"_id":759245,"name":"Sierzchów","country":"PL","coord":{"lon":21.119061,"lat":51.986809}},{"_id":7531413,"name":"Jakubów","country":"PL","coord":{"lon":21.681141,"lat":52.23954}},{"_id":3337499,"name":"Województwo Zachodniopomorskie","country":"PL","coord":{"lon":15.5,"lat":53.5}},{"_id":766023,"name":"Łomżyca","country":"PL","coord":{"lon":22.03982,"lat":53.17382}},{"_id":7530931,"name":"Powiat chojnicki","country":"PL","coord":{"lon":17.718821,"lat":53.800991}},{"_id":764312,"name":"Mragowo","country":"PL","coord":{"lon":21.305071,"lat":53.864368}},{"_id":7533313,"name":"Lewin Brzeski","country":"PL","coord":{"lon":17.630301,"lat":50.754501}},{"_id":3084052,"name":"Swierczewo","country":"PL","coord":{"lon":16.883329,"lat":52.366669}},{"_id":759083,"name":"Skopanie","country":"PL","coord":{"lon":21.57295,"lat":50.481899}},{"_id":3088161,"name":"Prabuty","country":"PL","coord":{"lon":19.205469,"lat":53.755001}},{"_id":7530821,"name":"Powiat kłodzki","country":"PL","coord":{"lon":16.611851,"lat":50.388821}},{"_id":7532745,"name":"Przasnysz","country":"PL","coord":{"lon":20.885,"lat":53.018398}},{"_id":3093826,"name":"Łasztownia","country":"PL","coord":{"lon":14.56667,"lat":53.416672}},{"_id":3080902,"name":"Zagórzynek","country":"PL","coord":{"lon":18.082081,"lat":51.74049}},{"_id":766573,"name":"Lednica Niemiecka","country":"PL","coord":{"lon":20.066669,"lat":49.98333}},{"_id":6690165,"name":"Powiat wadowicki","country":"PL","coord":{"lon":19.48374,"lat":49.89032}},{"_id":7531689,"name":"Piątnica","country":"PL","coord":{"lon":22.150299,"lat":53.215801}},{"_id":7532503,"name":"Tarnobrzeg","country":"PL","coord":{"lon":21.681601,"lat":50.573639}},{"_id":7532344,"name":"Żory","country":"PL","coord":{"lon":18.689199,"lat":50.038898}},{"_id":7532893,"name":"Pyskowice","country":"PL","coord":{"lon":18.6007,"lat":50.391499}},{"_id":7533463,"name":"Trzebiatów","country":"PL","coord":{"lon":15.2825,"lat":54.055698}},{"_id":3101425,"name":"Ciechocino","country":"PL","coord":{"lon":18.35445,"lat":54.612179}},{"_id":7530890,"name":"Powiat płocki","country":"PL","coord":{"lon":19.7857,"lat":52.554649}},{"_id":7530898,"name":"Powiat przeworski","country":"PL","coord":{"lon":22.536819,"lat":50.08913}},{"_id":7532267,"name":"Bielawa","country":"PL","coord":{"lon":16.6028,"lat":50.6754}},{"_id":7533405,"name":"Żarów","country":"PL","coord":{"lon":16.4932,"lat":50.942799}},{"_id":7532312,"name":"Trzebownisko","country":"PL","coord":{"lon":22.0774,"lat":50.124001}},{"_id":7533336,"name":"Tyszowce","country":"PL","coord":{"lon":23.723499,"lat":50.624599}},{"_id":7532210,"name":"Puławy","country":"PL","coord":{"lon":21.9772,"lat":51.426498}},{"_id":7532192,"name":"Zamość","country":"PL","coord":{"lon":23.248501,"lat":50.721298}},{"_id":6690166,"name":"Powiat wielicki","country":"PL","coord":{"lon":20.054939,"lat":49.985699}},{"_id":7533001,"name":"Wieliczka","country":"PL","coord":{"lon":20.046,"lat":49.987801}},{"_id":7532300,"name":"Starachowice","country":"PL","coord":{"lon":21.0716,"lat":51.0383}},{"_id":7533534,"name":"Sokółka","country":"PL","coord":{"lon":23.5026,"lat":53.406799}},{"_id":7532815,"name":"Siedlce","country":"PL","coord":{"lon":22.2757,"lat":52.161701}},{"_id":7532279,"name":"Piastów","country":"PL","coord":{"lon":20.8463,"lat":52.185501}},{"_id":762381,"name":"Piastow","country":"PL","coord":{"lon":20.83952,"lat":52.184349}},{"_id":7531013,"name":"Powiat olecki","country":"PL","coord":{"lon":22.41695,"lat":54.051289}},{"_id":7530865,"name":"Powiat łukowski","country":"PL","coord":{"lon":22.240351,"lat":51.853649}},{"_id":7533497,"name":"Łomianki","country":"PL","coord":{"lon":20.8939,"lat":52.333199}},{"_id":7533052,"name":"Łęczna","country":"PL","coord":{"lon":22.885099,"lat":51.302502}},{"_id":7533050,"name":"Łapy","country":"PL","coord":{"lon":22.8771,"lat":52.993698}},{"_id":7530741,"name":"Powiat kraśnicki","country":"PL","coord":{"lon":22.14576,"lat":50.915352}},{"_id":7532072,"name":"Kraśnik","country":"PL","coord":{"lon":22.213301,"lat":50.943401}},{"_id":7533415,"name":"Konstancin-Jeziorna","country":"PL","coord":{"lon":21.1056,"lat":52.083801}},{"_id":6695624,"name":"Warszawa","country":"PL","coord":{"lon":21.04191,"lat":52.23547}},{"_id":7530738,"name":"Powiat hrubieszowski","country":"PL","coord":{"lon":23.86307,"lat":50.70776}},{"_id":773357,"name":"Deblin","country":"PL","coord":{"lon":21.848289,"lat":51.55912}},{"_id":7530729,"name":"Chełm","country":"PL","coord":{"lon":23.48971,"lat":51.135578}},{"_id":7531906,"name":"Zawiercie","country":"PL","coord":{"lon":19.4704,"lat":50.505798}},{"_id":3081046,"name":"Zabkowice Slaskie","country":"PL","coord":{"lon":16.812389,"lat":50.589691}},{"_id":7530984,"name":"Tychy","country":"PL","coord":{"lon":19.0084,"lat":50.126499}},{"_id":7532522,"name":"Tychy","country":"PL","coord":{"lon":19.008301,"lat":50.1264}},{"_id":7531734,"name":"Turek","country":"PL","coord":{"lon":18.511499,"lat":52.016102}},{"_id":7530954,"name":"Powiat czarnkowsko-trzcianecki","country":"PL","coord":{"lon":16.346729,"lat":52.928848}},{"_id":7533143,"name":"Trzcianka","country":"PL","coord":{"lon":16.446501,"lat":53.042599}},{"_id":3084085,"name":"Swidwin","country":"PL","coord":{"lon":15.77671,"lat":53.774639}},{"_id":7531589,"name":"Starogard Gdański","country":"PL","coord":{"lon":18.526449,"lat":53.965469}},{"_id":3084826,"name":"Starogard Gdanski","country":"PL","coord":{"lon":18.526381,"lat":53.963959}},{"_id":7531080,"name":"Powiat śremski","country":"PL","coord":{"lon":17.058531,"lat":52.061489}},{"_id":3085056,"name":"Srem","country":"PL","coord":{"lon":17.015079,"lat":52.08868}},{"_id":3085807,"name":"Skawina","country":"PL","coord":{"lon":19.82869,"lat":49.975239}},{"_id":7531338,"name":"Sierpc","country":"PL","coord":{"lon":19.665211,"lat":52.85323}},{"_id":3085941,"name":"Sierpc","country":"PL","coord":{"lon":19.66913,"lat":52.8568}},{"_id":7530985,"name":"Siemianowice Śląskie","country":"PL","coord":{"lon":19.023199,"lat":50.312309}},{"_id":7531569,"name":"Siemianowice Śląskie","country":"PL","coord":{"lon":19.023199,"lat":50.312309}},{"_id":7531610,"name":"Rypin","country":"PL","coord":{"lon":19.40885,"lat":53.066212}},{"_id":3086511,"name":"Rypin","country":"PL","coord":{"lon":19.40941,"lat":53.066029}},{"_id":7530790,"name":"Rybnik","country":"PL","coord":{"lon":18.549259,"lat":50.110821}},{"_id":7531758,"name":"Rybnik","country":"PL","coord":{"lon":18.5492,"lat":50.110802}},{"_id":7531588,"name":"Ruda Śląska","country":"PL","coord":{"lon":18.874241,"lat":50.270061}},{"_id":3087281,"name":"Reda","country":"PL","coord":{"lon":18.34717,"lat":54.605282}},{"_id":7531844,"name":"Radzionków","country":"PL","coord":{"lon":18.900999,"lat":50.4016}},{"_id":3087418,"name":"Radzionkow","country":"PL","coord":{"lon":18.902321,"lat":50.400261}},{"_id":7531104,"name":"Radlin","country":"PL","coord":{"lon":18.466009,"lat":50.04118}},{"_id":7533171,"name":"Pleszew","country":"PL","coord":{"lon":17.7864,"lat":51.894001}},{"_id":7533061,"name":"Nowy Tomyśl","country":"PL","coord":{"lon":16.133101,"lat":52.3111}},{"_id":3090452,"name":"Nowy Tomysl","country":"PL","coord":{"lon":16.128441,"lat":52.3195}},{"_id":7532873,"name":"Myszków","country":"PL","coord":{"lon":19.3274,"lat":50.564602}},{"_id":3094788,"name":"Krapkowice","country":"PL","coord":{"lon":17.965389,"lat":50.475151}},{"_id":7532538,"name":"Koszalin","country":"PL","coord":{"lon":16.2166,"lat":54.2071}},{"_id":7532028,"name":"Kościan","country":"PL","coord":{"lon":16.649401,"lat":52.083401}},{"_id":7533189,"name":"Kluczbork","country":"PL","coord":{"lon":18.2204,"lat":50.974499}},{"_id":3096003,"name":"Kluczbork","country":"PL","coord":{"lon":18.218161,"lat":50.972809}},{"_id":3097271,"name":"Jelcz","country":"PL","coord":{"lon":17.32095,"lat":51.021019}},{"_id":7533024,"name":"Jarocin","country":"PL","coord":{"lon":17.5075,"lat":51.961498}},{"_id":3097528,"name":"Jarocin","country":"PL","coord":{"lon":17.50256,"lat":51.97266}},{"_id":3098201,"name":"Gryfice","country":"PL","coord":{"lon":15.20027,"lat":53.9165}},{"_id":3098619,"name":"Gostynin","country":"PL","coord":{"lon":19.461941,"lat":52.429379}},{"_id":7531632,"name":"Gniezno","country":"PL","coord":{"lon":17.603279,"lat":52.524921}},{"_id":3099169,"name":"Glucholazy","country":"PL","coord":{"lon":17.383551,"lat":50.315048}},{"_id":3099180,"name":"Glowno","country":"PL","coord":{"lon":19.715651,"lat":51.96463}},{"_id":7530814,"name":"Bydgoszcz","country":"PL","coord":{"lon":18.0383,"lat":53.12973}},{"_id":7531378,"name":"Bydgoszcz","country":"PL","coord":{"lon":18.0383,"lat":53.12973}},{"_id":3099654,"name":"Fordon","country":"PL","coord":{"lon":18.170361,"lat":53.148209}},{"_id":3100974,"name":"Czerwionka-Leszczyny","country":"PL","coord":{"lon":18.67762,"lat":50.15007}},{"_id":7531551,"name":"Czeladź","country":"PL","coord":{"lon":19.08231,"lat":50.319191000000004}},{"_id":3103709,"name":"Belchatow","country":"PL","coord":{"lon":19.35671,"lat":51.368832}},{"_id":763310,"name":"Olchowce","country":"PL","coord":{"lon":22.233049,"lat":49.55315}},{"_id":7531037,"name":"Powiat buski","country":"PL","coord":{"lon":20.87624,"lat":50.45583}},{"_id":7531876,"name":"Stopnica","country":"PL","coord":{"lon":20.922899,"lat":50.458302}},{"_id":3090046,"name":"Opole-Szczepanowice","country":"PL","coord":{"lon":17.929741,"lat":50.671188}},{"_id":760155,"name":"Ruda","country":"PL","coord":{"lon":22.383101,"lat":50.695148}},{"_id":776174,"name":"Biała Poduchowna","country":"PL","coord":{"lon":22.425329,"lat":50.712849}},{"_id":771210,"name":"Gutwin","country":"PL","coord":{"lon":21.400961,"lat":50.96685}},{"_id":7530982,"name":"Radom","country":"PL","coord":{"lon":21.15613,"lat":51.41724}},{"_id":3086247,"name":"Sarnówka","country":"PL","coord":{"lon":16.908091,"lat":51.631901}},{"_id":755270,"name":"Wola Karczewska","country":"PL","coord":{"lon":21.39344,"lat":52.126572}},{"_id":7530877,"name":"Powiat miński","country":"PL","coord":{"lon":21.608931,"lat":52.184292}},{"_id":759065,"name":"Skorupy","country":"PL","coord":{"lon":23.180019,"lat":53.135239}},{"_id":3089822,"name":"Osowa Góra","country":"PL","coord":{"lon":17.912189,"lat":53.155331}},{"_id":3337496,"name":"Województwo Pomorskie","country":"PL","coord":{"lon":18.0,"lat":54.25}},{"_id":766303,"name":"Likusy","country":"PL","coord":{"lon":20.4345,"lat":53.795681}},{"_id":7531072,"name":"Powiat mrągowski","country":"PL","coord":{"lon":21.397579,"lat":53.810631}},{"_id":7531477,"name":"Mrągowo","country":"PL","coord":{"lon":21.29887,"lat":53.8685}},{"_id":7532643,"name":"Luboń","country":"PL","coord":{"lon":16.8729,"lat":52.3367}},{"_id":767369,"name":"Krynica-Wieś","country":"PL","coord":{"lon":20.9555,"lat":49.410259}},{"_id":767234,"name":"Krzywe","country":"PL","coord":{"lon":22.201139,"lat":49.65715}},{"_id":7533532,"name":"Prabuty","country":"PL","coord":{"lon":19.2145,"lat":53.7495}},{"_id":7531693,"name":"Kłodzko","country":"PL","coord":{"lon":16.649,"lat":50.433701}},{"_id":3081203,"name":"Wymyślanka","country":"PL","coord":{"lon":18.9,"lat":50.166672}},{"_id":7530839,"name":"Tarnobrzeg","country":"PL","coord":{"lon":21.69874,"lat":50.583851}},{"_id":7530953,"name":"Żory","country":"PL","coord":{"lon":18.6884,"lat":50.03896}},{"_id":7531247,"name":"Przeworsk","country":"PL","coord":{"lon":22.50116,"lat":50.05452}},{"_id":3081069,"name":"Zabełków","country":"PL","coord":{"lon":18.314381,"lat":49.941551}},{"_id":3082359,"name":"Wiechowice","country":"PL","coord":{"lon":17.86652,"lat":49.982578}},{"_id":7530730,"name":"Zamość","country":"PL","coord":{"lon":23.24852,"lat":50.721401}},{"_id":7533365,"name":"Wołomin","country":"PL","coord":{"lon":21.2362,"lat":52.342602}},{"_id":7530871,"name":"Powiat świdnicki","country":"PL","coord":{"lon":22.85397,"lat":51.124699}},{"_id":7531487,"name":"Świdnik","country":"PL","coord":{"lon":22.68494,"lat":51.216709}},{"_id":7532739,"name":"Skarżysko-Kamienna","country":"PL","coord":{"lon":20.8752,"lat":51.122898}},{"_id":7532294,"name":"Siemiatycze","country":"PL","coord":{"lon":22.875099,"lat":52.420502}},{"_id":7530940,"name":"Siedlce","country":"PL","coord":{"lon":22.275749,"lat":52.161751}},{"_id":7531704,"name":"Pruszków","country":"PL","coord":{"lon":20.798599,"lat":52.172001}},{"_id":7532584,"name":"Otwock","country":"PL","coord":{"lon":21.289301,"lat":52.116001}},{"_id":7533381,"name":"Olecko","country":"PL","coord":{"lon":22.4981,"lat":54.036098}},{"_id":7533317,"name":"Nisko","country":"PL","coord":{"lon":22.129,"lat":50.503201}},{"_id":7531822,"name":"Milanówek","country":"PL","coord":{"lon":20.6703,"lat":52.124802}},{"_id":7531123,"name":"Lubartów","country":"PL","coord":{"lon":22.605869,"lat":51.458408}},{"_id":7530773,"name":"Łomża","country":"PL","coord":{"lon":22.05888,"lat":53.182671}},{"_id":7531442,"name":"Łomża","country":"PL","coord":{"lon":22.05888,"lat":53.182671}},{"_id":7531029,"name":"Powiat warszawski zachodni","country":"PL","coord":{"lon":20.619129,"lat":52.268379}},{"_id":7531926,"name":"Warszawa","country":"PL","coord":{"lon":21.061399,"lat":52.233101}},{"_id":7533507,"name":"Grodzisk Mazowiecki","country":"PL","coord":{"lon":20.6332,"lat":52.105202}},{"_id":7531646,"name":"Ełk","country":"PL","coord":{"lon":22.3598,"lat":53.823898}},{"_id":7532275,"name":"Dęblin","country":"PL","coord":{"lon":21.8743,"lat":51.567299}},{"_id":7532583,"name":"Biłgoraj","country":"PL","coord":{"lon":22.711599,"lat":50.539001}},{"_id":7532895,"name":"Żywiec","country":"PL","coord":{"lon":19.2097,"lat":49.706299}},{"_id":7532319,"name":"Złotów","country":"PL","coord":{"lon":17.066299,"lat":53.374001}},{"_id":3080071,"name":"Zlotow","country":"PL","coord":{"lon":17.040819,"lat":53.363461}},{"_id":7532956,"name":"Włocławek","country":"PL","coord":{"lon":19.060801,"lat":52.665298}},{"_id":7532411,"name":"Wągrowiec","country":"PL","coord":{"lon":17.1978,"lat":52.812199}},{"_id":7531004,"name":"Powiat turecki","country":"PL","coord":{"lon":18.49301,"lat":51.995811}},{"_id":7530992,"name":"Świętochłowice","country":"PL","coord":{"lon":18.910219,"lat":50.297958}},{"_id":7533428,"name":"Świebodzin","country":"PL","coord":{"lon":15.5311,"lat":52.244202}},{"_id":3084062,"name":"Swiebodzin","country":"PL","coord":{"lon":15.53355,"lat":52.247509}},{"_id":7531011,"name":"Powiat świdwiński","country":"PL","coord":{"lon":15.89859,"lat":53.807579}},{"_id":7533378,"name":"Śrem","country":"PL","coord":{"lon":17.0187,"lat":52.0867}},{"_id":7533539,"name":"Skawina","country":"PL","coord":{"lon":19.825001,"lat":49.973301}},{"_id":7530915,"name":"Powiat rypiński","country":"PL","coord":{"lon":19.40975,"lat":53.066132}},{"_id":7530951,"name":"Ruda Śląska","country":"PL","coord":{"lon":18.874241,"lat":50.270061}},{"_id":7531598,"name":"Reda","country":"PL","coord":{"lon":18.348881,"lat":54.608559}},{"_id":7530844,"name":"Powiat policki","country":"PL","coord":{"lon":14.45104,"lat":53.531139}},{"_id":7533330,"name":"Police","country":"PL","coord":{"lon":14.5792,"lat":53.567699}},{"_id":7531521,"name":"Oświęcim","country":"PL","coord":{"lon":19.256121,"lat":50.033649}},{"_id":3090433,"name":"Nysa Zamlynie","country":"PL","coord":{"lon":17.31308,"lat":50.4575}},{"_id":7531586,"name":"Mysłowice","country":"PL","coord":{"lon":19.153879,"lat":50.209621}},{"_id":7531571,"name":"Mikołów","country":"PL","coord":{"lon":18.861891,"lat":50.196091}},{"_id":7533483,"name":"Międzyrzecz","country":"PL","coord":{"lon":15.5914,"lat":52.448299}},{"_id":7531264,"name":"Malbork","country":"PL","coord":{"lon":19.04435,"lat":54.028461}},{"_id":7532231,"name":"Łęczyca","country":"PL","coord":{"lon":19.198999,"lat":52.054298}},{"_id":7533311,"name":"Krapkowice","country":"PL","coord":{"lon":17.957399,"lat":50.478401}},{"_id":7530983,"name":"Koszalin","country":"PL","coord":{"lon":16.21661,"lat":54.207191}},{"_id":7531076,"name":"Powiat kościański","country":"PL","coord":{"lon":16.715139,"lat":52.066158}},{"_id":7531410,"name":"Koło","country":"PL","coord":{"lon":18.63546,"lat":52.19838}},{"_id":7530761,"name":"Powiat kluczborski","country":"PL","coord":{"lon":18.15258,"lat":50.98576}},{"_id":7530863,"name":"Kalisz","country":"PL","coord":{"lon":18.076059,"lat":51.74725}},{"_id":7531679,"name":"Kalisz","country":"PL","coord":{"lon":18.076,"lat":51.7472}},{"_id":3096880,"name":"Kalisz","country":"PL","coord":{"lon":18.091021,"lat":51.761089}},{"_id":7531075,"name":"Powiat jarociński","country":"PL","coord":{"lon":17.454969,"lat":52.00901}},{"_id":7532114,"name":"Gubin","country":"PL","coord":{"lon":14.749,"lat":51.957199}},{"_id":7530928,"name":"Powiat gostyniński","country":"PL","coord":{"lon":19.62187,"lat":52.389881}},{"_id":7532986,"name":"Głuchołazy","country":"PL","coord":{"lon":17.368401,"lat":50.313702}},{"_id":7532274,"name":"Głowno","country":"PL","coord":{"lon":19.714001,"lat":51.962002}},{"_id":7533185,"name":"Czerwionka-Leszczyny","country":"PL","coord":{"lon":18.678471,"lat":50.150341}},{"_id":7531638,"name":"Chodzież","country":"PL","coord":{"lon":16.915701,"lat":52.9949}},{"_id":7530986,"name":"Bytom","country":"PL","coord":{"lon":18.876301,"lat":50.365211}},{"_id":7532536,"name":"Bytom","country":"PL","coord":{"lon":18.876301,"lat":50.3652}},{"_id":7532249,"name":"Brzeg","country":"PL","coord":{"lon":17.462799,"lat":50.858898}},{"_id":3102459,"name":"Brzeg","country":"PL","coord":{"lon":17.4674,"lat":50.86079}},{"_id":7533560,"name":"Aleksandrów Łódzki","country":"PL","coord":{"lon":19.303801,"lat":51.816002}},{"_id":7532997,"name":"Jelcz-Laskowice","country":"PL","coord":{"lon":17.33,"lat":51.0327}},{"_id":7303641,"name":"Jelcz Laskowice","country":"PL","coord":{"lon":17.31649,"lat":51.021339}},{"_id":3080925,"name":"Zagorze","country":"PL","coord":{"lon":19.40357,"lat":50.09449}},{"_id":3080929,"name":"Zagorow","country":"PL","coord":{"lon":17.895611,"lat":52.16835}},{"_id":858788,"name":"Województwo Podkarpackie","country":"PL","coord":{"lon":22.0,"lat":50.0}},{"_id":7530770,"name":"Powiat jasielski","country":"PL","coord":{"lon":21.446369,"lat":49.642632}},{"_id":7531301,"name":"Nowy Żmigród","country":"PL","coord":{"lon":21.527929,"lat":49.600689}},{"_id":763519,"name":"Nowy Zmigrod","country":"PL","coord":{"lon":21.52376,"lat":49.603531}},{"_id":858786,"name":"Województwo Małopolskie","country":"PL","coord":{"lon":20.5,"lat":49.75}},{"_id":6690157,"name":"Powiat nowosądecki","country":"PL","coord":{"lon":20.69824,"lat":49.63467}},{"_id":7532585,"name":"Nowy Sącz","country":"PL","coord":{"lon":20.7066,"lat":49.610199}},{"_id":763534,"name":"Nowy Sacz","country":"PL","coord":{"lon":20.69705,"lat":49.621769}},{"_id":769117,"name":"Klęczany","country":"PL","coord":{"lon":20.632231,"lat":49.662941000000004}},{"_id":7532613,"name":"Jasło","country":"PL","coord":{"lon":21.471701,"lat":49.747002}},{"_id":770293,"name":"Jaslo","country":"PL","coord":{"lon":21.472521,"lat":49.74506}},{"_id":7530769,"name":"Powiat dębicki","country":"PL","coord":{"lon":21.353979,"lat":49.999229}},{"_id":7531275,"name":"Dębica","country":"PL","coord":{"lon":21.4158,"lat":50.045952}},{"_id":773380,"name":"Debica","country":"PL","coord":{"lon":21.411409,"lat":50.05146}},{"_id":761968,"name":"Pobitno","country":"PL","coord":{"lon":22.028191,"lat":50.04628}},{"_id":3100883,"name":"Dąbie","country":"PL","coord":{"lon":19.98333,"lat":50.066669}},{"_id":3337497,"name":"Województwo Śląskie","country":"PL","coord":{"lon":19.0,"lat":50.25}},{"_id":3079920,"name":"Zwierzyniec","country":"PL","coord":{"lon":19.0042,"lat":50.13707}},{"_id":3337492,"name":"Województwo Dolnośląskie","country":"PL","coord":{"lon":16.5,"lat":51.0}},{"_id":3092005,"name":"Międzgórze","country":"PL","coord":{"lon":16.76531,"lat":50.228981}},{"_id":7530895,"name":"Powiat leżajski","country":"PL","coord":{"lon":22.43828,"lat":50.261589}},{"_id":7532578,"name":"Leżajsk","country":"PL","coord":{"lon":22.4186,"lat":50.265499}},{"_id":766332,"name":"Lezajsk","country":"PL","coord":{"lon":22.419319,"lat":50.262569}},{"_id":7531035,"name":"Powiat zawierciański","country":"PL","coord":{"lon":19.611919,"lat":50.542252}},{"_id":7533249,"name":"Łazy","country":"PL","coord":{"lon":19.392,"lat":50.425201}},{"_id":858790,"name":"Województwo Świętokrzyskie","country":"PL","coord":{"lon":20.75,"lat":50.75}},{"_id":7531041,"name":"Powiat staszowski","country":"PL","coord":{"lon":21.19594,"lat":50.517368}},{"_id":7533517,"name":"Staszów","country":"PL","coord":{"lon":21.190701,"lat":50.562}},{"_id":758252,"name":"Staszow","country":"PL","coord":{"lon":21.16593,"lat":50.563068}},{"_id":7530899,"name":"Powiat stalowowolski","country":"PL","coord":{"lon":22.052031,"lat":50.59103}},{"_id":7531427,"name":"Stalowa Wola","country":"PL","coord":{"lon":22.01749,"lat":50.56649}},{"_id":758445,"name":"Stalowa Wola","country":"PL","coord":{"lon":22.053341,"lat":50.582859}},{"_id":3090289,"name":"Ogorzelnik","country":"PL","coord":{"lon":19.508631,"lat":50.623798}},{"_id":3337495,"name":"Województwo Opolskie","country":"PL","coord":{"lon":18.0,"lat":50.5}},{"_id":858785,"name":"Województwo Lubelskie","country":"PL","coord":{"lon":23.0,"lat":51.0}},{"_id":7530816,"name":"Powiat jeleniogórski","country":"PL","coord":{"lon":15.66408,"lat":50.874561}},{"_id":7532480,"name":"Karpacz","country":"PL","coord":{"lon":15.7442,"lat":50.763802}},{"_id":3096576,"name":"Karpacz","country":"PL","coord":{"lon":15.75594,"lat":50.776691}},{"_id":3086212,"name":"Ściegny","country":"PL","coord":{"lon":15.77878,"lat":50.788738}},{"_id":7530837,"name":"Powiat strzeliński","country":"PL","coord":{"lon":17.106291,"lat":50.76688}},{"_id":7531988,"name":"Borów","country":"PL","coord":{"lon":17.0065,"lat":50.857399}},{"_id":3083956,"name":"Świnobród","country":"PL","coord":{"lon":17.059879,"lat":50.84996}},{"_id":769250,"name":"Kielce","country":"PL","coord":{"lon":20.62752,"lat":50.870331}},{"_id":7530829,"name":"Powiat ostrowiecki","country":"PL","coord":{"lon":21.407391,"lat":50.942322}},{"_id":7531229,"name":"Bałtów","country":"PL","coord":{"lon":21.5411,"lat":51.018021}},{"_id":776454,"name":"Baltow","country":"PL","coord":{"lon":21.54385,"lat":51.018452}},{"_id":7530997,"name":"Powiat skarżyski","country":"PL","coord":{"lon":20.79228,"lat":51.06496}},{"_id":7533074,"name":"Suchedniów","country":"PL","coord":{"lon":20.831699,"lat":51.051601}},{"_id":757886,"name":"Suchedniow","country":"PL","coord":{"lon":20.82922,"lat":51.04776}},{"_id":3091752,"name":"Miłostów","country":"PL","coord":{"lon":17.16667,"lat":51.166672}},{"_id":3081366,"name":"Wrocław Pracze","country":"PL","coord":{"lon":16.91667,"lat":51.166672}},{"_id":3088156,"name":"Pracze Odrzańskie","country":"PL","coord":{"lon":16.90534,"lat":51.174049}},{"_id":858787,"name":"Województwo Mazowieckie","country":"PL","coord":{"lon":21.0,"lat":52.25}},{"_id":761556,"name":"Pomorzany","country":"PL","coord":{"lon":21.13858,"lat":51.225239}},{"_id":3085484,"name":"Słup","country":"PL","coord":{"lon":16.648479,"lat":51.236279}},{"_id":769949,"name":"Julianów","country":"PL","coord":{"lon":21.52887,"lat":51.32362}},{"_id":7531010,"name":"Powiat bełchatowski","country":"PL","coord":{"lon":19.17791,"lat":51.368771}},{"_id":7531362,"name":"Szczerców","country":"PL","coord":{"lon":19.124689,"lat":51.320511}},{"_id":3083788,"name":"Szczercow","country":"PL","coord":{"lon":19.10977,"lat":51.333191}},{"_id":760778,"name":"Radom","country":"PL","coord":{"lon":21.147141,"lat":51.402531}},{"_id":7530878,"name":"Powiat radomski","country":"PL","coord":{"lon":21.16193,"lat":51.335819}},{"_id":7532054,"name":"Pionki","country":"PL","coord":{"lon":21.447399,"lat":51.471699}},{"_id":762199,"name":"Pionki","country":"PL","coord":{"lon":21.449949,"lat":51.47604}},{"_id":7533191,"name":"Kozienice","country":"PL","coord":{"lon":21.536501,"lat":51.585999}},{"_id":767814,"name":"Kozienice","country":"PL","coord":{"lon":21.547791,"lat":51.582939}},{"_id":3337498,"name":"Województwo Wielkopolskie","country":"PL","coord":{"lon":17.0,"lat":52.25}},{"_id":3097078,"name":"Józefów","country":"PL","coord":{"lon":19.49246,"lat":51.706001}},{"_id":3093133,"name":"Lodz","country":"PL","coord":{"lon":19.466669,"lat":51.75}},{"_id":3079992,"name":"Zubardź","country":"PL","coord":{"lon":19.41667,"lat":51.783329}},{"_id":3094508,"name":"Krzepocinek","country":"PL","coord":{"lon":19.10252,"lat":52.003189}},{"_id":762925,"name":"Ostoja","country":"PL","coord":{"lon":20.82316,"lat":52.153431}},{"_id":770155,"name":"Jędrzejów","country":"PL","coord":{"lon":21.72332,"lat":52.192558}},{"_id":771973,"name":"Gołąbki","country":"PL","coord":{"lon":20.859779,"lat":52.20319}},{"_id":3096937,"name":"Kąkolewo","country":"PL","coord":{"lon":16.57638,"lat":52.209999}},{"_id":3080874,"name":"Zajezierze","country":"PL","coord":{"lon":17.51667,"lat":52.23333}},{"_id":3100594,"name":"Dębiec","country":"PL","coord":{"lon":16.91667,"lat":52.366669}},{"_id":7530926,"name":"Powiat legionowski","country":"PL","coord":{"lon":20.94356,"lat":52.45179}},{"_id":7531479,"name":"Jabłonna","country":"PL","coord":{"lon":20.870701,"lat":52.39362}},{"_id":770706,"name":"Jablonna","country":"PL","coord":{"lon":20.91745,"lat":52.378849}},{"_id":7530858,"name":"Poznań","country":"PL","coord":{"lon":16.901541,"lat":52.400631}},{"_id":7531836,"name":"Poznań","country":"PL","coord":{"lon":16.92341,"lat":52.406189}},{"_id":3097127,"name":"Jeżyce","country":"PL","coord":{"lon":16.896629,"lat":52.414669}},{"_id":3337500,"name":"Województwo Kujawsko-Pomorskie","country":"PL","coord":{"lon":18.5,"lat":53.0}},{"_id":7530912,"name":"Powiat mogileński","country":"PL","coord":{"lon":18.07424,"lat":52.661598}},{"_id":7532061,"name":"Jeziora Wielkie","country":"PL","coord":{"lon":18.267349,"lat":52.530689}},{"_id":3081562,"name":"Wola Kożuszkowa","country":"PL","coord":{"lon":18.220831,"lat":52.507549}},{"_id":3094083,"name":"Kwieciszewo","country":"PL","coord":{"lon":18.04233,"lat":52.622169}},{"_id":753732,"name":"Zastawa","country":"PL","coord":{"lon":23.83333,"lat":52.700001}},{"_id":3337494,"name":"Województwo Lubuskie","country":"PL","coord":{"lon":15.25,"lat":52.25}},{"_id":3101497,"name":"Chwalęcice","country":"PL","coord":{"lon":15.2077,"lat":52.767609}},{"_id":3083135,"name":"Trzebiegoszcz","country":"PL","coord":{"lon":19.111601,"lat":52.864849}},{"_id":7530989,"name":"Powiat gryfiński","country":"PL","coord":{"lon":14.49912,"lat":53.02298}},{"_id":7533173,"name":"Chojna","country":"PL","coord":{"lon":14.4269,"lat":52.9562}},{"_id":3101675,"name":"Chojna","country":"PL","coord":{"lon":14.42797,"lat":52.96389}},{"_id":3094960,"name":"Kowalewo","country":"PL","coord":{"lon":17.72641,"lat":52.971771}},{"_id":858789,"name":"Województwo Podlaskie","country":"PL","coord":{"lon":23.0,"lat":53.25}},{"_id":3090763,"name":"Nowa Studnica","country":"PL","coord":{"lon":16.020439,"lat":53.250439}},{"_id":7288011,"name":"Sarnikierz","country":"PL","coord":{"lon":15.51094,"lat":53.478951}},{"_id":7530969,"name":"Grudziądz","country":"PL","coord":{"lon":18.77849,"lat":53.472462}},{"_id":7532955,"name":"Grudziądz","country":"PL","coord":{"lon":18.755381,"lat":53.48233}},{"_id":3098218,"name":"Grudziadz","country":"PL","coord":{"lon":18.75366,"lat":53.484112}},{"_id":3099568,"name":"Gajewo","country":"PL","coord":{"lon":15.78717,"lat":53.566212}},{"_id":7532055,"name":"Chojnice","country":"PL","coord":{"lon":17.560101,"lat":53.699902}},{"_id":3101672,"name":"Chojnice","country":"PL","coord":{"lon":17.557011,"lat":53.695541}},{"_id":858791,"name":"Województwo Warmińsko-Mazurskie","country":"PL","coord":{"lon":21.0,"lat":53.833328}},{"_id":3093293,"name":"Lipki","country":"PL","coord":{"lon":19.070801,"lat":54.006241}},{"_id":3100041,"name":"Drzewina","country":"PL","coord":{"lon":18.3881,"lat":54.14505}},{"_id":3098636,"name":"Gostkowo","country":"PL","coord":{"lon":17.476,"lat":54.223331}},{"_id":3088045,"name":"Pruska Plebanka","country":"PL","coord":{"lon":18.66667,"lat":54.26667}},{"_id":7530789,"name":"Powiat kartuski","country":"PL","coord":{"lon":18.086321,"lat":54.32687}},{"_id":7531179,"name":"Przodkowo","country":"PL","coord":{"lon":18.267179,"lat":54.39328}},{"_id":3085361,"name":"Smołdzino","country":"PL","coord":{"lon":18.30254,"lat":54.356159}},{"_id":7530726,"name":"Biała Podlaska","country":"PL","coord":{"lon":23.138309,"lat":52.029041}},{"_id":7530782,"name":"Powiat strzyżowski","country":"PL","coord":{"lon":21.749491,"lat":49.87698}},{"_id":7533207,"name":"Nekla","country":"PL","coord":{"lon":17.4058,"lat":52.384998}},{"_id":7530739,"name":"Powiat janowski","country":"PL","coord":{"lon":22.41147,"lat":50.745579}},{"_id":7533529,"name":"Janów Lubelski","country":"PL","coord":{"lon":22.413601,"lat":50.7006}},{"_id":7530849,"name":"Powiat wołowski","country":"PL","coord":{"lon":16.613991,"lat":51.372021}},{"_id":7532743,"name":"Żyrardów","country":"PL","coord":{"lon":20.4405,"lat":52.0555}},{"_id":7530933,"name":"Powiat kwidzyński","country":"PL","coord":{"lon":19.031111,"lat":53.746899}},{"_id":7532624,"name":"Kwidzyn","country":"PL","coord":{"lon":18.945299,"lat":53.720501}},{"_id":3094086,"name":"Kwidzyn","country":"PL","coord":{"lon":18.931141,"lat":53.724949}},{"_id":3079850,"name":"Powiat będziński","country":"PL","coord":{"lon":19.104191,"lat":50.329239}},{"_id":7532923,"name":"Będzin","country":"PL","coord":{"lon":19.123899,"lat":50.3358}},{"_id":3098334,"name":"Gródków","country":"PL","coord":{"lon":19.10557,"lat":50.362659}},{"_id":3098306,"name":"Grodziec","country":"PL","coord":{"lon":19.072269,"lat":50.347542}},{"_id":7531038,"name":"Powiat jędrzejowski","country":"PL","coord":{"lon":20.18655,"lat":50.656761}},{"_id":7533465,"name":"Jędrzejów","country":"PL","coord":{"lon":20.289301,"lat":50.6395}},{"_id":770157,"name":"Jedrzejow","country":"PL","coord":{"lon":20.304541,"lat":50.63945}},{"_id":7531046,"name":"Powiat głubczycki","country":"PL","coord":{"lon":17.832661,"lat":50.14846}},{"_id":7531262,"name":"Branice","country":"PL","coord":{"lon":17.814251,"lat":50.056461}},{"_id":3102679,"name":"Branice","country":"PL","coord":{"lon":17.793989,"lat":50.051079}},{"_id":7287839,"name":"Cmentarz Centralny","country":"PL","coord":{"lon":14.52242,"lat":53.41708}},{"_id":768780,"name":"Koło","country":"PL","coord":{"lon":20.94903,"lat":52.245739}},{"_id":765159,"name":"Marymont","country":"PL","coord":{"lon":20.96874,"lat":52.27993}},{"_id":3094374,"name":"Krzyżowniki","country":"PL","coord":{"lon":16.795361,"lat":52.438332}},{"_id":7530824,"name":"Powiat nowosądecki","country":"PL","coord":{"lon":20.730009,"lat":49.551319}},{"_id":7533472,"name":"Muszyna","country":"PL","coord":{"lon":20.895651,"lat":49.354542}},{"_id":764241,"name":"Muszyna","country":"PL","coord":{"lon":20.897181,"lat":49.356609}},{"_id":3098794,"name":"Górniki","country":"PL","coord":{"lon":18.79744,"lat":50.392818}},{"_id":3087033,"name":"Rokitnica","country":"PL","coord":{"lon":18.793261,"lat":50.369179}},{"_id":760462,"name":"Rogalów","country":"PL","coord":{"lon":22.131519,"lat":51.309811}},{"_id":3103063,"name":"Bogucin Mały","country":"PL","coord":{"lon":19.57732,"lat":50.309681}},{"_id":7532747,"name":"Podegrodzie","country":"PL","coord":{"lon":20.564501,"lat":49.597198}},{"_id":763245,"name":"Olszana","country":"PL","coord":{"lon":20.521259,"lat":49.567478}},{"_id":7530852,"name":"Powiat zgorzelecki","country":"PL","coord":{"lon":15.07863,"lat":51.162971}},{"_id":7533031,"name":"Bogatynia","country":"PL","coord":{"lon":14.9386,"lat":50.922298}},{"_id":3094480,"name":"Krzewina","country":"PL","coord":{"lon":14.95042,"lat":51.02034}},{"_id":3083173,"name":"Trzciniec Dolny","country":"PL","coord":{"lon":14.89969,"lat":50.947071}},{"_id":3092238,"name":"Marwice","country":"PL","coord":{"lon":14.41694,"lat":53.17083}},{"_id":756507,"name":"Tworki","country":"PL","coord":{"lon":20.81978,"lat":52.173828}},{"_id":756135,"name":"Warsaw","country":"PL","coord":{"lon":21.01178,"lat":52.229771}},{"_id":764255,"name":"Muranów","country":"PL","coord":{"lon":20.99021,"lat":52.243679}},{"_id":3099184,"name":"Główna","country":"PL","coord":{"lon":16.97394,"lat":52.423321}},{"_id":7531002,"name":"Gdańsk","country":"PL","coord":{"lon":18.68976,"lat":54.361118}},{"_id":7531890,"name":"Gdańsk","country":"PL","coord":{"lon":18.689699,"lat":54.361099}},{"_id":3099434,"name":"Gdansk","country":"PL","coord":{"lon":18.64637,"lat":54.352051}},{"_id":7530819,"name":"Rzeszów","country":"PL","coord":{"lon":21.98848,"lat":50.005451}},{"_id":7532474,"name":"Rzeszów","country":"PL","coord":{"lon":21.9884,"lat":50.005402}},{"_id":759734,"name":"Rzeszow","country":"PL","coord":{"lon":21.99901,"lat":50.041321}},{"_id":6690153,"name":"Powiat gorlicki","country":"PL","coord":{"lon":21.168421,"lat":49.66452}},{"_id":7532785,"name":"Gorlice","country":"PL","coord":{"lon":21.165899,"lat":49.666302}},{"_id":771804,"name":"Gorlice","country":"PL","coord":{"lon":21.160351,"lat":49.655628}},{"_id":3089966,"name":"Orzepowice","country":"PL","coord":{"lon":18.533331,"lat":50.116669}},{"_id":7530808,"name":"Powiat cieszyński","country":"PL","coord":{"lon":18.79147,"lat":49.72628}},{"_id":7531846,"name":"Ustroń","country":"PL","coord":{"lon":18.831301,"lat":49.718601}},{"_id":3082751,"name":"Ustron","country":"PL","coord":{"lon":18.801979,"lat":49.721531}},{"_id":7530791,"name":"Bielsko-Biała","country":"PL","coord":{"lon":19.03899,"lat":49.812038}},{"_id":7532925,"name":"Bielsko-Biała","country":"PL","coord":{"lon":19.0389,"lat":49.812}},{"_id":3103402,"name":"Bielsko-Biala","country":"PL","coord":{"lon":19.04686,"lat":49.822449}},{"_id":3096053,"name":"Klodzko","country":"PL","coord":{"lon":16.661449,"lat":50.434879}},{"_id":3094802,"name":"Krakow","country":"PL","coord":{"lon":19.91667,"lat":50.083328}},{"_id":6690163,"name":"Powiat tarnowski","country":"PL","coord":{"lon":20.978571,"lat":50.015461}},{"_id":7532542,"name":"Tarnów","country":"PL","coord":{"lon":20.986629,"lat":50.017559}},{"_id":757026,"name":"Tarnow","country":"PL","coord":{"lon":20.98698,"lat":50.013809}},{"_id":7530993,"name":"Leszno","country":"PL","coord":{"lon":16.57593,"lat":51.844082}},{"_id":7532770,"name":"Leszno","country":"PL","coord":{"lon":16.575899,"lat":51.844002}},{"_id":3093524,"name":"Leszno","country":"PL","coord":{"lon":16.57494,"lat":51.84034}},{"_id":3083271,"name":"Torun","country":"PL","coord":{"lon":18.598141,"lat":53.013748}},{"_id":3083267,"name":"Toruń Północny","country":"PL","coord":{"lon":18.6,"lat":53.033329}},{"_id":3099759,"name":"Elblag","country":"PL","coord":{"lon":19.40884,"lat":54.152199}},{"_id":7531017,"name":"Powiat łęczycki","country":"PL","coord":{"lon":19.194981,"lat":52.10611}},{"_id":3095030,"name":"Koszutka","country":"PL","coord":{"lon":19.028669,"lat":50.271042}},{"_id":7530988,"name":"Powiat świebodziński","country":"PL","coord":{"lon":15.48522,"lat":52.237991}},{"_id":3098722,"name":"Gorzow Wielkopolski","country":"PL","coord":{"lon":15.22878,"lat":52.73679}},{"_id":7530828,"name":"Powiat zambrowski","country":"PL","coord":{"lon":22.285049,"lat":53.02256}},{"_id":7532422,"name":"Rutki","country":"PL","coord":{"lon":22.438101,"lat":53.120998}},{"_id":759946,"name":"Rutki","country":"PL","coord":{"lon":22.433331,"lat":53.099998}},{"_id":7530826,"name":"Powiat kolneński","country":"PL","coord":{"lon":21.93631,"lat":53.391861}},{"_id":7532707,"name":"Kolno","country":"PL","coord":{"lon":21.9361,"lat":53.401798}},{"_id":768785,"name":"Kolno","country":"PL","coord":{"lon":21.92905,"lat":53.41148}},{"_id":765876,"name":"Lublin","country":"PL","coord":{"lon":22.566669,"lat":51.25}},{"_id":759993,"name":"Rury Jezuickie","country":"PL","coord":{"lon":22.566669,"lat":51.25}},{"_id":7530886,"name":"Powiat przasnyski","country":"PL","coord":{"lon":20.9394,"lat":53.113602}},{"_id":761218,"name":"Przasnysz","country":"PL","coord":{"lon":20.880289,"lat":53.01907}},{"_id":7530857,"name":"Gliwice","country":"PL","coord":{"lon":18.64983,"lat":50.301159}},{"_id":7532030,"name":"Gliwice","country":"PL","coord":{"lon":18.649799,"lat":50.301102}},{"_id":3099230,"name":"Gliwice","country":"PL","coord":{"lon":18.67658,"lat":50.297611}},{"_id":7530968,"name":"Legnica","country":"PL","coord":{"lon":16.15834,"lat":51.204731}},{"_id":7532013,"name":"Legnica","country":"PL","coord":{"lon":16.1583,"lat":51.2047}},{"_id":3093692,"name":"Legnica","country":"PL","coord":{"lon":16.1619,"lat":51.21006}},{"_id":7530803,"name":"Powiat szczycieński","country":"PL","coord":{"lon":21.070339,"lat":53.541759}},{"_id":7532078,"name":"Szczytno","country":"PL","coord":{"lon":21.033001,"lat":53.546398}},{"_id":757357,"name":"Szczytno","country":"PL","coord":{"lon":20.987471,"lat":53.562592}},{"_id":3091804,"name":"Miłakowo","country":"PL","coord":{"lon":16.183331,"lat":54.200001}},{"_id":764494,"name":"Mojcza","country":"PL","coord":{"lon":20.682671,"lat":50.84}},{"_id":3100894,"name":"Czyżkówko","country":"PL","coord":{"lon":17.96105,"lat":53.141621}},{"_id":3092750,"name":"Ludwikowo","country":"PL","coord":{"lon":17.98333,"lat":53.150002}},{"_id":3099424,"name":"Gdynia","country":"PL","coord":{"lon":18.531879,"lat":54.51889}},{"_id":3230651,"name":"Wzgórze Nowotki","country":"PL","coord":{"lon":18.549999,"lat":54.5}},{"_id":763166,"name":"Olsztyn","country":"PL","coord":{"lon":20.49416,"lat":53.779949}},{"_id":7530939,"name":"Płock","country":"PL","coord":{"lon":19.71497,"lat":52.535419}},{"_id":7532723,"name":"Płock","country":"PL","coord":{"lon":19.714899,"lat":52.5354}},{"_id":3088825,"name":"Plock","country":"PL","coord":{"lon":19.706381,"lat":52.546822}},{"_id":3090048,"name":"Opole","country":"PL","coord":{"lon":17.950001,"lat":50.666672}},{"_id":3083829,"name":"Szczecin","country":"PL","coord":{"lon":14.55302,"lat":53.42894}},{"_id":758309,"name":"Starosielce","country":"PL","coord":{"lon":23.075291,"lat":53.13353}},{"_id":7530963,"name":"Konin","country":"PL","coord":{"lon":18.26219,"lat":52.256222}},{"_id":7532374,"name":"Konin","country":"PL","coord":{"lon":18.2621,"lat":52.256199}},{"_id":3095321,"name":"Konin","country":"PL","coord":{"lon":18.251209,"lat":52.223381}},{"_id":7531043,"name":"Powiat ostrowski","country":"PL","coord":{"lon":17.8503,"lat":51.607979}},{"_id":7532713,"name":"Ostrów Wielkopolski","country":"PL","coord":{"lon":17.8039,"lat":51.6469}},{"_id":3089684,"name":"Ostrow Wielkopolski","country":"PL","coord":{"lon":17.80686,"lat":51.65501}},{"_id":7530809,"name":"Powiat mikołowski","country":"PL","coord":{"lon":18.836889,"lat":50.151329}},{"_id":7532266,"name":"Łaziska Górne","country":"PL","coord":{"lon":18.8528,"lat":50.143398}},{"_id":3093785,"name":"Laziska Gorne","country":"PL","coord":{"lon":18.84215,"lat":50.149521}},{"_id":7530964,"name":"Częstochowa","country":"PL","coord":{"lon":19.122169,"lat":50.809639}},{"_id":7532537,"name":"Częstochowa","country":"PL","coord":{"lon":19.122101,"lat":50.809601}},{"_id":3100946,"name":"Czestochowa","country":"PL","coord":{"lon":19.12409,"lat":50.796459}},{"_id":3092313,"name":"Mareza","country":"PL","coord":{"lon":18.906281,"lat":53.738361}},{"_id":7531032,"name":"Powiat bielski","country":"PL","coord":{"lon":19.071739,"lat":49.805962}},{"_id":7533112,"name":"Czechowice-Dziedzice","country":"PL","coord":{"lon":19.000401,"lat":49.903999}},{"_id":3101076,"name":"Czechowice-Dziedzice","country":"PL","coord":{"lon":19.004789,"lat":49.913422}},{"_id":766041,"name":"Łomianki Dolne","country":"PL","coord":{"lon":20.90514,"lat":52.35408}},{"_id":762071,"name":"Pławo","country":"PL","coord":{"lon":22.072769,"lat":50.569939}},{"_id":7530762,"name":"Powiat oleski","country":"PL","coord":{"lon":18.460369,"lat":50.878868}},{"_id":7533314,"name":"Praszka","country":"PL","coord":{"lon":18.4529,"lat":51.048302}},{"_id":3088135,"name":"Praszka","country":"PL","coord":{"lon":18.453171,"lat":51.053749}},{"_id":758967,"name":"Sławek","country":"PL","coord":{"lon":21.25,"lat":52.349998}},{"_id":7531048,"name":"Powiat kędzierzyńsko-kozielski","country":"PL","coord":{"lon":18.169609,"lat":50.293839}},{"_id":7531299,"name":"Kędzierzyn-Koźle","country":"PL","coord":{"lon":18.245529,"lat":50.345329}},{"_id":3096372,"name":"Kedzierzyn-Kozle","country":"PL","coord":{"lon":18.226061,"lat":50.349838}},{"_id":6690156,"name":"Powiat myślenicki","country":"PL","coord":{"lon":19.94482,"lat":49.833939}},{"_id":7533117,"name":"Myślenice","country":"PL","coord":{"lon":19.943621,"lat":49.833549}},{"_id":3091256,"name":"Myslenice","country":"PL","coord":{"lon":19.938299,"lat":49.833832}},{"_id":7530942,"name":"Słupsk","country":"PL","coord":{"lon":17.02787,"lat":54.460602}},{"_id":7532359,"name":"Słupsk","country":"PL","coord":{"lon":17.0278,"lat":54.460499}},{"_id":3085450,"name":"Slupsk","country":"PL","coord":{"lon":17.028721,"lat":54.46405}},{"_id":7530731,"name":"Powiat żarski","country":"PL","coord":{"lon":14.9617,"lat":51.628578}},{"_id":7532206,"name":"Żary","country":"PL","coord":{"lon":15.1455,"lat":51.6245}},{"_id":3080644,"name":"Zary","country":"PL","coord":{"lon":15.13727,"lat":51.642052}},{"_id":7530952,"name":"Zabrze","country":"PL","coord":{"lon":18.79656,"lat":50.314121}},{"_id":7531590,"name":"Zabrze","country":"PL","coord":{"lon":18.79656,"lat":50.314121}},{"_id":3080985,"name":"Zabrze","country":"PL","coord":{"lon":18.785761,"lat":50.324921}},{"_id":6690164,"name":"Powiat tatrzański","country":"PL","coord":{"lon":19.948,"lat":49.304199}},{"_id":7531513,"name":"Zakopane","country":"PL","coord":{"lon":19.971861,"lat":49.275761}},{"_id":3080866,"name":"Zakopane","country":"PL","coord":{"lon":19.948851,"lat":49.298988}},{"_id":7530796,"name":"Jelenia Góra","country":"PL","coord":{"lon":15.72796,"lat":50.850159}},{"_id":7531868,"name":"Jelenia Góra","country":"PL","coord":{"lon":15.72693,"lat":50.900871}},{"_id":3097257,"name":"Jelenia Gora","country":"PL","coord":{"lon":15.72899,"lat":50.899731}},{"_id":6690149,"name":"Powiat bocheński","country":"PL","coord":{"lon":20.43078,"lat":49.969109}},{"_id":7532635,"name":"Bochnia","country":"PL","coord":{"lon":20.429199,"lat":49.974701}},{"_id":775758,"name":"Bochnia","country":"PL","coord":{"lon":20.430281,"lat":49.969051}},{"_id":7530777,"name":"Powiat łańcucki","country":"PL","coord":{"lon":22.268921,"lat":50.08659}},{"_id":7531339,"name":"Łańcut","country":"PL","coord":{"lon":22.224569,"lat":50.069698}},{"_id":766810,"name":"Lancut","country":"PL","coord":{"lon":22.22912,"lat":50.06871}},{"_id":6941021,"name":"powiat Łowicki","country":"PL","coord":{"lon":19.94606,"lat":52.10627}},{"_id":6941022,"name":"gmina Miasto Łowicz","country":"PL","coord":{"lon":19.944651,"lat":52.10614}},{"_id":3093066,"name":"Lowicz","country":"PL","coord":{"lon":19.94525,"lat":52.10714}},{"_id":7530820,"name":"Sopot","country":"PL","coord":{"lon":18.547819,"lat":54.441849}},{"_id":7531444,"name":"Sopot","country":"PL","coord":{"lon":18.547819,"lat":54.441849}},{"_id":3085151,"name":"Sopot","country":"PL","coord":{"lon":18.56003,"lat":54.441799}},{"_id":3081909,"name":"Winiary","country":"PL","coord":{"lon":17.60885,"lat":52.551819}},{"_id":753865,"name":"Zamość","country":"PL","coord":{"lon":23.183331,"lat":50.833328}},{"_id":763471,"name":"Obozisko","country":"PL","coord":{"lon":21.15,"lat":51.416672}},{"_id":7530941,"name":"Suwałki","country":"PL","coord":{"lon":22.92914,"lat":54.102718}},{"_id":7531587,"name":"Suwałki","country":"PL","coord":{"lon":22.92914,"lat":54.102718}},{"_id":757718,"name":"Suwalki","country":"PL","coord":{"lon":22.93087,"lat":54.111752}},{"_id":7531194,"name":"Biała Podlaska","country":"PL","coord":{"lon":23.138309,"lat":52.029041}},{"_id":776175,"name":"Biala Podlaska","country":"PL","coord":{"lon":23.11652,"lat":52.032379}},{"_id":7530976,"name":"Krosno","country":"PL","coord":{"lon":21.753019,"lat":49.689251}},{"_id":7532430,"name":"Krosno","country":"PL","coord":{"lon":21.753,"lat":49.689201}},{"_id":767470,"name":"Krosno","country":"PL","coord":{"lon":21.77058,"lat":49.68866}},{"_id":7530746,"name":"Dąbrowa Górnicza","country":"PL","coord":{"lon":19.32131,"lat":50.371029}},{"_id":7532331,"name":"Dąbrowa Górnicza","country":"PL","coord":{"lon":19.321301,"lat":50.370998}},{"_id":3093646,"name":"Łęknice","country":"PL","coord":{"lon":19.21406,"lat":50.346008}},{"_id":7530991,"name":"Zielona Góra","country":"PL","coord":{"lon":15.51216,"lat":51.937679}},{"_id":7532225,"name":"Zielona Góra","country":"PL","coord":{"lon":15.5121,"lat":51.937599}},{"_id":3080165,"name":"Zielona Gora","country":"PL","coord":{"lon":15.50643,"lat":51.935478}},{"_id":7530804,"name":"Powiat bolesławiecki","country":"PL","coord":{"lon":15.53215,"lat":51.321739}},{"_id":7532649,"name":"Bolesławiec","country":"PL","coord":{"lon":15.5488,"lat":51.321499}},{"_id":3102987,"name":"Boleslawiec","country":"PL","coord":{"lon":15.5697,"lat":51.264179}},{"_id":7533538,"name":"Andrychów","country":"PL","coord":{"lon":19.339199,"lat":49.853802}},{"_id":3104115,"name":"Andrychow","country":"PL","coord":{"lon":19.338341,"lat":49.854969}},{"_id":756349,"name":"Ulica Starowiejska","country":"PL","coord":{"lon":22.297779,"lat":52.165588}},{"_id":7530771,"name":"Powiat mielecki","country":"PL","coord":{"lon":21.391359,"lat":50.313869}},{"_id":7531899,"name":"Mielec","country":"PL","coord":{"lon":21.564699,"lat":50.257301}},{"_id":764849,"name":"Mielec","country":"PL","coord":{"lon":21.423901,"lat":50.28709}},{"_id":7530843,"name":"Powiat kołobrzeski","country":"PL","coord":{"lon":15.61394,"lat":54.050129}},{"_id":7531681,"name":"Kołobrzeg","country":"PL","coord":{"lon":15.514,"lat":54.129101}},{"_id":3095795,"name":"Kolobrzeg","country":"PL","coord":{"lon":15.58342,"lat":54.175652}},{"_id":7530920,"name":"Powiat wąbrzeski","country":"PL","coord":{"lon":18.926491,"lat":53.282669}},{"_id":7531618,"name":"Wąbrzeźno","country":"PL","coord":{"lon":18.952391,"lat":53.278358}},{"_id":3082734,"name":"Wabrzezno","country":"PL","coord":{"lon":18.947729,"lat":53.279888}},{"_id":3103524,"name":"Biały Szarlej","country":"PL","coord":{"lon":18.966669,"lat":50.349998}},{"_id":3100911,"name":"Czułów","country":"PL","coord":{"lon":18.99192,"lat":50.140362}},{"_id":7530924,"name":"Powiat ciechanowski","country":"PL","coord":{"lon":20.576309,"lat":52.902069}},{"_id":7531644,"name":"Ciechanów","country":"PL","coord":{"lon":20.614799,"lat":52.870998}},{"_id":774208,"name":"Ciechanow","country":"PL","coord":{"lon":20.619961,"lat":52.881409}},{"_id":7531015,"name":"Powiat bytowski","country":"PL","coord":{"lon":17.29147,"lat":54.15691}},{"_id":7533199,"name":"Bytów","country":"PL","coord":{"lon":17.500601,"lat":54.179699}},{"_id":3101943,"name":"Bytow","country":"PL","coord":{"lon":17.491871,"lat":54.17057}},{"_id":6690159,"name":"Powiat olkuski","country":"PL","coord":{"lon":19.55772,"lat":50.27932}},{"_id":7533287,"name":"Olkusz","country":"PL","coord":{"lon":19.561701,"lat":50.285801}},{"_id":3090146,"name":"Olkusz","country":"PL","coord":{"lon":19.565029,"lat":50.2813}},{"_id":7530827,"name":"Powiat łomżyński","country":"PL","coord":{"lon":22.060329,"lat":53.20829}},{"_id":762366,"name":"Piatnica","country":"PL","coord":{"lon":22.095909,"lat":53.196571}},{"_id":7533264,"name":"Wadowice","country":"PL","coord":{"lon":19.495399,"lat":49.884201}},{"_id":3082722,"name":"Wadowice","country":"PL","coord":{"lon":19.49292,"lat":49.88335}},{"_id":7530743,"name":"Powiat lubelski","country":"PL","coord":{"lon":22.466539,"lat":51.13419}},{"_id":7531398,"name":"Wólka","country":"PL","coord":{"lon":22.684349,"lat":51.28072}},{"_id":757690,"name":"Świdnik Mały","country":"PL","coord":{"lon":22.6805,"lat":51.256008}},{"_id":7531009,"name":"Powiat sieradzki","country":"PL","coord":{"lon":18.60309,"lat":51.60297}},{"_id":7531129,"name":"Sieradz","country":"PL","coord":{"lon":18.7384,"lat":51.601719}},{"_id":3085978,"name":"Sieradz","country":"PL","coord":{"lon":18.73023,"lat":51.59584}},{"_id":7530902,"name":"Powiat krotoszyński","country":"PL","coord":{"lon":17.421249,"lat":51.741741}},{"_id":7533246,"name":"Krotoszyn","country":"PL","coord":{"lon":17.443701,"lat":51.695099}},{"_id":3094625,"name":"Krotoszyn","country":"PL","coord":{"lon":17.43738,"lat":51.698681}},{"_id":7530848,"name":"Powiat wałbrzyski","country":"PL","coord":{"lon":16.280251,"lat":50.757191}},{"_id":7532039,"name":"Wałbrzych","country":"PL","coord":{"lon":16.291201,"lat":50.785099}},{"_id":6690150,"name":"Powiat brzeski","country":"PL","coord":{"lon":20.605721,"lat":49.971699}},{"_id":7533116,"name":"Brzesko","country":"PL","coord":{"lon":20.610701,"lat":49.974499}},{"_id":775183,"name":"Brzesko","country":"PL","coord":{"lon":20.60606,"lat":49.969109}},{"_id":3097395,"name":"Jastrzębie Dolne","country":"PL","coord":{"lon":18.58333,"lat":49.950001}},{"_id":3084850,"name":"Stare Stawy","country":"PL","coord":{"lon":19.22105,"lat":50.02718}},{"_id":7530805,"name":"Powiat dzierżoniowski","country":"PL","coord":{"lon":16.691919,"lat":50.735062}},{"_id":7531351,"name":"Dzierżoniów","country":"PL","coord":{"lon":16.64731,"lat":50.729179}},{"_id":3099828,"name":"Dzierzoniow","country":"PL","coord":{"lon":16.651409,"lat":50.728199}},{"_id":7530745,"name":"Piotrków Trybunalski","country":"PL","coord":{"lon":19.716619,"lat":51.412949}},{"_id":7532758,"name":"Piotrków Trybunalski","country":"PL","coord":{"lon":19.7166,"lat":51.412899}},{"_id":3088972,"name":"Piotrkow Trybunalski","country":"PL","coord":{"lon":19.703211,"lat":51.405472}},{"_id":7531021,"name":"Powiat pabianicki","country":"PL","coord":{"lon":19.23782,"lat":51.677429}},{"_id":7532602,"name":"Pabianice","country":"PL","coord":{"lon":19.354799,"lat":51.665699}},{"_id":3089578,"name":"Pabianice","country":"PL","coord":{"lon":19.354731,"lat":51.664459}},{"_id":7530775,"name":"Powiat krośnieński","country":"PL","coord":{"lon":21.76943,"lat":49.59959}},{"_id":7533478,"name":"Jedlicze","country":"PL","coord":{"lon":21.646999,"lat":49.716999}},{"_id":770169,"name":"Jedlicze","country":"PL","coord":{"lon":21.648861,"lat":49.717491}},{"_id":3081025,"name":"Zabornia","country":"PL","coord":{"lon":19.966669,"lat":49.616669}},{"_id":6690160,"name":"Powiat oświęcimski","country":"PL","coord":{"lon":19.227711,"lat":50.03796}},{"_id":7533321,"name":"Kęty","country":"PL","coord":{"lon":19.2097,"lat":49.879299}},{"_id":3096328,"name":"Kety","country":"PL","coord":{"lon":19.22333,"lat":49.882141}},{"_id":7530945,"name":"Powiat pilski","country":"PL","coord":{"lon":16.91465,"lat":53.157532}},{"_id":7531697,"name":"Piła","country":"PL","coord":{"lon":16.760099,"lat":53.1348}},{"_id":3089033,"name":"Pila","country":"PL","coord":{"lon":16.73782,"lat":53.151451}},{"_id":757033,"name":"Tarnobrzeg","country":"PL","coord":{"lon":21.679371,"lat":50.57304}},{"_id":7530793,"name":"Powiat stargardzki","country":"PL","coord":{"lon":15.22684,"lat":53.315201}},{"_id":7531735,"name":"Stargard Szczeciński","country":"PL","coord":{"lon":15.0116,"lat":53.308998}},{"_id":3084840,"name":"Stargard Szczecinski","country":"PL","coord":{"lon":15.0499,"lat":53.33672}},{"_id":6690158,"name":"Powiat nowotarski","country":"PL","coord":{"lon":20.043051,"lat":49.476631}},{"_id":7532650,"name":"Nowy Targ","country":"PL","coord":{"lon":20.044201,"lat":49.489201}},{"_id":763523,"name":"Nowy Targ","country":"PL","coord":{"lon":20.03228,"lat":49.477829}},{"_id":3085075,"name":"Sporysz","country":"PL","coord":{"lon":19.23333,"lat":49.683331}},{"_id":3090466,"name":"Nowy Świat","country":"PL","coord":{"lon":19.6,"lat":49.73333}},{"_id":7531055,"name":"Powiat gliwicki","country":"PL","coord":{"lon":18.58107,"lat":50.362659}},{"_id":7531741,"name":"Knurów","country":"PL","coord":{"lon":18.6628,"lat":50.207199}},{"_id":3095971,"name":"Knurow","country":"PL","coord":{"lon":18.650669,"lat":50.219711}},{"_id":7530975,"name":"Sosnowiec","country":"PL","coord":{"lon":19.19463,"lat":50.271191}},{"_id":7532189,"name":"Sosnowiec","country":"PL","coord":{"lon":19.194599,"lat":50.271099}},{"_id":3097090,"name":"Józefów","country":"PL","coord":{"lon":19.178181,"lat":50.310501}},{"_id":7530935,"name":"Powiat tczewski","country":"PL","coord":{"lon":18.71916,"lat":53.918949}},{"_id":7532586,"name":"Tczew","country":"PL","coord":{"lon":18.781601,"lat":54.090698}},{"_id":3083426,"name":"Tczew","country":"PL","coord":{"lon":18.77787,"lat":54.092419}},{"_id":7530972,"name":"Powiat białogardzki","country":"PL","coord":{"lon":16.088551,"lat":53.97686}},{"_id":7531670,"name":"Białogard","country":"PL","coord":{"lon":15.9755,"lat":54.014}},{"_id":3103556,"name":"Bialogard","country":"PL","coord":{"lon":15.98751,"lat":54.006962}},{"_id":3080502,"name":"Zazamcze","country":"PL","coord":{"lon":19.033331,"lat":52.666672}},{"_id":7530749,"name":"Świnoujście","country":"PL","coord":{"lon":14.31313,"lat":53.850201}},{"_id":7532101,"name":"Świnoujście","country":"PL","coord":{"lon":14.3131,"lat":53.850201}},{"_id":3083955,"name":"Swinoujscie","country":"PL","coord":{"lon":14.24712,"lat":53.91053}},{"_id":3079876,"name":"Zyglinek","country":"PL","coord":{"lon":18.94524,"lat":50.492859}},{"_id":3092082,"name":"Miasteczko Slaskie","country":"PL","coord":{"lon":18.939489,"lat":50.502621}},{"_id":7530967,"name":"Chorzów","country":"PL","coord":{"lon":18.96283,"lat":50.28849}},{"_id":7531851,"name":"Chorzów","country":"PL","coord":{"lon":18.962799,"lat":50.288399}},{"_id":3101619,"name":"Chorzow","country":"PL","coord":{"lon":18.974199,"lat":50.30582}},{"_id":3083784,"name":"Szczęść Boże","country":"PL","coord":{"lon":18.83333,"lat":50.316669}},{"_id":7530882,"name":"Powiat ostrowski","country":"PL","coord":{"lon":22.032499,"lat":52.794949}},{"_id":7531958,"name":"Ostrów Mazowiecka","country":"PL","coord":{"lon":21.891001,"lat":52.807098}},{"_id":762850,"name":"Ostrow Mazowiecka","country":"PL","coord":{"lon":21.895069,"lat":52.802448}},{"_id":7530781,"name":"Powiat sanocki","country":"PL","coord":{"lon":22.13619,"lat":49.430012}},{"_id":7531370,"name":"Sanok","country":"PL","coord":{"lon":22.2157,"lat":49.556541}},{"_id":759591,"name":"Sanok","country":"PL","coord":{"lon":22.205601,"lat":49.555729}},{"_id":7533373,"name":"Brzeszcze","country":"PL","coord":{"lon":19.147449,"lat":49.983521}},{"_id":3102444,"name":"Brzeszcze","country":"PL","coord":{"lon":19.151569,"lat":49.982029}},{"_id":7530870,"name":"Powiat rycki","country":"PL","coord":{"lon":21.929291,"lat":51.662189}},{"_id":7533198,"name":"Ryki","country":"PL","coord":{"lon":21.9263,"lat":51.6259}},{"_id":759852,"name":"Ryki","country":"PL","coord":{"lon":21.932739,"lat":51.62574}},{"_id":7531054,"name":"Powiat raciborski","country":"PL","coord":{"lon":18.269159,"lat":50.08696}},{"_id":7532706,"name":"Racibórz","country":"PL","coord":{"lon":18.221701,"lat":50.090599}},{"_id":3087584,"name":"Raciborz","country":"PL","coord":{"lon":18.21928,"lat":50.091949}},{"_id":7532290,"name":"Legionowo","country":"PL","coord":{"lon":20.939301,"lat":52.4048}},{"_id":766555,"name":"Legionowo","country":"PL","coord":{"lon":20.92664,"lat":52.401489}},{"_id":3100871,"name":"Dąbie Dolne","country":"PL","coord":{"lon":19.133329,"lat":50.333328}},{"_id":7530846,"name":"Powiat świdnicki","country":"PL","coord":{"lon":16.430429,"lat":50.87051}},{"_id":7532248,"name":"Świdnica","country":"PL","coord":{"lon":16.4925,"lat":50.840599}},{"_id":3084093,"name":"Swidnica","country":"PL","coord":{"lon":16.48859,"lat":50.843781}},{"_id":7530910,"name":"Powiat inowrocławski","country":"PL","coord":{"lon":18.296709,"lat":52.764629}},{"_id":7532534,"name":"Inowrocław","country":"PL","coord":{"lon":18.249901,"lat":52.781601}},{"_id":3097872,"name":"Inowroclaw","country":"PL","coord":{"lon":18.26388,"lat":52.798859}},{"_id":7533248,"name":"Olesno","country":"PL","coord":{"lon":18.4132,"lat":50.875999}},{"_id":3090158,"name":"Olesno","country":"PL","coord":{"lon":18.42094,"lat":50.87698}},{"_id":3086892,"name":"Rożental","country":"PL","coord":{"lon":18.68943,"lat":53.91082}},{"_id":7530831,"name":"Powiat lubiński","country":"PL","coord":{"lon":16.243179,"lat":51.441719}},{"_id":7532505,"name":"Lubin","country":"PL","coord":{"lon":16.193899,"lat":51.399399}},{"_id":3092931,"name":"Lubin","country":"PL","coord":{"lon":16.20149,"lat":51.40089}},{"_id":7530760,"name":"Powiat żyrardowski","country":"PL","coord":{"lon":20.432751,"lat":52.000278}},{"_id":7533251,"name":"Mszczonów","country":"PL","coord":{"lon":20.532101,"lat":51.9771}},{"_id":764269,"name":"Mszczonow","country":"PL","coord":{"lon":20.52083,"lat":51.974152}},{"_id":3103313,"name":"Binków","country":"PL","coord":{"lon":19.374479,"lat":51.366501}},{"_id":3091543,"name":"Modrzejów","country":"PL","coord":{"lon":19.14831,"lat":50.24007}},{"_id":3103096,"name":"Bogatynia","country":"PL","coord":{"lon":14.95634,"lat":50.907471}},{"_id":3080004,"name":"Zory","country":"PL","coord":{"lon":18.700621,"lat":50.045231}},{"_id":7531062,"name":"Powiat grajewski","country":"PL","coord":{"lon":22.48995,"lat":53.555092}},{"_id":7532934,"name":"Grajewo","country":"PL","coord":{"lon":22.450899,"lat":53.640099}},{"_id":771506,"name":"Grajewo","country":"PL","coord":{"lon":22.45537,"lat":53.647282}},{"_id":771381,"name":"Gromada","country":"PL","coord":{"lon":22.70785,"lat":50.561981}},{"_id":7530756,"name":"Powiat szczecinecki","country":"PL","coord":{"lon":16.589569,"lat":53.737659}},{"_id":7531675,"name":"Szczecinek","country":"PL","coord":{"lon":16.694599,"lat":53.702702}},{"_id":3083826,"name":"Szczecinek","country":"PL","coord":{"lon":16.699369,"lat":53.707909}},{"_id":7533105,"name":"Stary Sącz","country":"PL","coord":{"lon":20.635099,"lat":49.561798}},{"_id":758282,"name":"Stary Sacz","country":"PL","coord":{"lon":20.63496,"lat":49.563641}},{"_id":7533423,"name":"Gryfino","country":"PL","coord":{"lon":14.4967,"lat":53.256001}},{"_id":3098200,"name":"Gryfino","country":"PL","coord":{"lon":14.48831,"lat":53.25243}},{"_id":7531814,"name":"Psary","country":"PL","coord":{"lon":19.121901,"lat":50.386501}},{"_id":3087743,"name":"Psary","country":"PL","coord":{"lon":19.11548,"lat":50.379639}},{"_id":7530734,"name":"Powiat nyski","country":"PL","coord":{"lon":17.335461,"lat":50.460541}},{"_id":7533409,"name":"Paczków","country":"PL","coord":{"lon":17.003799,"lat":50.466099}},{"_id":3089566,"name":"Paczkow","country":"PL","coord":{"lon":17.00658,"lat":50.463951}},{"_id":7531073,"name":"Powiat gostyński","country":"PL","coord":{"lon":17.03471,"lat":51.8368}},{"_id":7533239,"name":"Gostyń","country":"PL","coord":{"lon":17.0091,"lat":51.882702}},{"_id":3098625,"name":"Gostyn","country":"PL","coord":{"lon":17.01226,"lat":51.882469}},{"_id":7531069,"name":"Powiat słupski","country":"PL","coord":{"lon":17.15917,"lat":54.422112}},{"_id":7531163,"name":"Ustka","country":"PL","coord":{"lon":16.86018,"lat":54.573181}},{"_id":3082756,"name":"Ustka","country":"PL","coord":{"lon":16.86194,"lat":54.580479}},{"_id":7533360,"name":"Busko-Zdrój","country":"PL","coord":{"lon":20.716499,"lat":50.4702}},{"_id":774747,"name":"Busko-Zdroj","country":"PL","coord":{"lon":20.71884,"lat":50.470779}},{"_id":7530799,"name":"Powiat giżycki","country":"PL","coord":{"lon":21.821911,"lat":54.018082}},{"_id":7531922,"name":"Giżycko","country":"PL","coord":{"lon":21.757299,"lat":54.025101}},{"_id":772195,"name":"Gizycko","country":"PL","coord":{"lon":21.76441,"lat":54.038109}},{"_id":7533299,"name":"Brok","country":"PL","coord":{"lon":21.880501,"lat":52.6982}},{"_id":775304,"name":"Brok","country":"PL","coord":{"lon":21.85704,"lat":52.699478}},{"_id":7530973,"name":"Skierniewice","country":"PL","coord":{"lon":20.169121,"lat":51.958061}},{"_id":7531180,"name":"Skierniewice","country":"PL","coord":{"lon":20.169121,"lat":51.958061}},{"_id":759123,"name":"Skierniewice","country":"PL","coord":{"lon":20.158369,"lat":51.954849}},{"_id":7530977,"name":"Powiat sandomierski","country":"PL","coord":{"lon":21.608999,"lat":50.69508}},{"_id":7532761,"name":"Sandomierz","country":"PL","coord":{"lon":21.747,"lat":50.679501}},{"_id":759603,"name":"Sandomierz","country":"PL","coord":{"lon":21.74898,"lat":50.682652}},{"_id":3087628,"name":"Pyskowice","country":"PL","coord":{"lon":18.633329,"lat":50.400002}},{"_id":7530835,"name":"Powiat oławski","country":"PL","coord":{"lon":17.306009,"lat":50.960621}},{"_id":7532481,"name":"Oława","country":"PL","coord":{"lon":17.294201,"lat":50.957401}},{"_id":3090205,"name":"Olawa","country":"PL","coord":{"lon":17.292601,"lat":50.946602}},{"_id":774843,"name":"Bugaj","country":"PL","coord":{"lon":21.06925,"lat":51.069721}},{"_id":7530917,"name":"Powiat świecki","country":"PL","coord":{"lon":18.411631,"lat":53.481281}},{"_id":7533276,"name":"Świecie","country":"PL","coord":{"lon":18.418699,"lat":53.403099}},{"_id":3084074,"name":"Swiecie","country":"PL","coord":{"lon":18.44742,"lat":53.409531}},{"_id":7530759,"name":"Powiat sochaczewski","country":"PL","coord":{"lon":20.213381,"lat":52.266891}},{"_id":7532270,"name":"Sochaczew","country":"PL","coord":{"lon":20.244499,"lat":52.236198}},{"_id":758682,"name":"Sochaczew","country":"PL","coord":{"lon":20.23838,"lat":52.229439}},{"_id":7531008,"name":"Powiat radomszczański","country":"PL","coord":{"lon":19.630381,"lat":51.064629}},{"_id":7532572,"name":"Radomsko","country":"PL","coord":{"lon":19.442699,"lat":51.071098}},{"_id":3087497,"name":"Radomsko","country":"PL","coord":{"lon":19.444771,"lat":51.067131}},{"_id":7530841,"name":"Powiat augustowski","country":"PL","coord":{"lon":23.14275,"lat":53.797421}},{"_id":7531271,"name":"Augustów","country":"PL","coord":{"lon":22.9492,"lat":53.83971}},{"_id":776597,"name":"Augustow","country":"PL","coord":{"lon":22.97979,"lat":53.843208}},{"_id":7530732,"name":"Powiat brzeski","country":"PL","coord":{"lon":17.484989,"lat":50.789299}},{"_id":7531919,"name":"Skarbimierz","country":"PL","coord":{"lon":17.491899,"lat":50.8647}},{"_id":3080105,"name":"Żłobizna","country":"PL","coord":{"lon":17.45813,"lat":50.842701}},{"_id":7530994,"name":"Powiat poznański","country":"PL","coord":{"lon":16.925249,"lat":52.415409}},{"_id":7533462,"name":"Swarzędz","country":"PL","coord":{"lon":17.0665,"lat":52.409401}},{"_id":3084130,"name":"Swarzedz","country":"PL","coord":{"lon":17.08503,"lat":52.412891}},{"_id":7530855,"name":"Powiat nowosolski","country":"PL","coord":{"lon":15.72698,"lat":51.842178}},{"_id":7532629,"name":"Nowa Sól","country":"PL","coord":{"lon":15.7118,"lat":51.803398}},{"_id":3090764,"name":"Nowa Sol","country":"PL","coord":{"lon":15.71702,"lat":51.803329}},{"_id":7530851,"name":"Powiat ząbkowicki","country":"PL","coord":{"lon":16.87221,"lat":50.55669}},{"_id":7533200,"name":"Ząbkowice Śląskie","country":"PL","coord":{"lon":16.8228,"lat":50.587299}},{"_id":3083469,"name":"Tarnów","country":"PL","coord":{"lon":16.790371,"lat":50.578491}},{"_id":774534,"name":"Chlewiska","country":"PL","coord":{"lon":22.64031,"lat":51.47187}},{"_id":7530876,"name":"Powiat piaseczyński","country":"PL","coord":{"lon":20.983191,"lat":52.016338}},{"_id":7533319,"name":"Piaseczno","country":"PL","coord":{"lon":21.017,"lat":52.073399}},{"_id":762423,"name":"Piaseczno","country":"PL","coord":{"lon":21.02397,"lat":52.081402}},{"_id":7533235,"name":"Mogilno","country":"PL","coord":{"lon":17.9541,"lat":52.658699}},{"_id":3091523,"name":"Mogilno","country":"PL","coord":{"lon":17.95578,"lat":52.658058}},{"_id":3080525,"name":"Zawiercie Nowe","country":"PL","coord":{"lon":19.41342,"lat":50.505909}},{"_id":3089012,"name":"Pile","country":"PL","coord":{"lon":16.464479,"lat":53.616791}},{"_id":7531063,"name":"Powiat hajnowski","country":"PL","coord":{"lon":23.55719,"lat":52.70845}},{"_id":7532457,"name":"Hajnówka","country":"PL","coord":{"lon":23.5665,"lat":52.723598}},{"_id":771158,"name":"Hajnowka","country":"PL","coord":{"lon":23.581221,"lat":52.743279}},{"_id":7530861,"name":"Powiat drawski","country":"PL","coord":{"lon":16.02132,"lat":53.44743}},{"_id":7533023,"name":"Złocieniec","country":"PL","coord":{"lon":16.0151,"lat":53.525101}},{"_id":3080102,"name":"Zlocieniec","country":"PL","coord":{"lon":16.01132,"lat":53.53286}},{"_id":6695600,"name":"Turczynek","country":"PL","coord":{"lon":20.69309,"lat":52.12701}},{"_id":6690151,"name":"Powiat chrzanowski","country":"PL","coord":{"lon":19.404341,"lat":50.135651}},{"_id":7533327,"name":"Chrzanów","country":"PL","coord":{"lon":19.359501,"lat":50.1292}},{"_id":3101547,"name":"Chrzanow","country":"PL","coord":{"lon":19.402031,"lat":50.13546}},{"_id":7530905,"name":"Powiat brodnicki","country":"PL","coord":{"lon":19.422791,"lat":53.269821}},{"_id":7532702,"name":"Brodnica","country":"PL","coord":{"lon":19.406401,"lat":53.2579}},{"_id":3102627,"name":"Brodnica","country":"PL","coord":{"lon":19.39653,"lat":53.25967}},{"_id":766376,"name":"Leszczyny","country":"PL","coord":{"lon":21.64802,"lat":51.90115}},{"_id":7531058,"name":"Powiat tarnobrzeski","country":"PL","coord":{"lon":21.7363,"lat":50.56287}},{"_id":7533295,"name":"Nowa Dęba","country":"PL","coord":{"lon":21.754,"lat":50.4198}},{"_id":763783,"name":"Nowa Deba","country":"PL","coord":{"lon":21.75078,"lat":50.429741}},{"_id":7530753,"name":"Powiat ostródzki","country":"PL","coord":{"lon":19.9144,"lat":53.729061}},{"_id":7532473,"name":"Grunwald","country":"PL","coord":{"lon":20.1311,"lat":53.5308}},{"_id":771336,"name":"Grunwald","country":"PL","coord":{"lon":20.09425,"lat":53.484219}},{"_id":7531027,"name":"Powiat zduńskowolski","country":"PL","coord":{"lon":18.95085,"lat":51.620399}},{"_id":7531684,"name":"Zduńska Wola","country":"PL","coord":{"lon":18.964701,"lat":51.5952}},{"_id":3080414,"name":"Zdunska Wola","country":"PL","coord":{"lon":18.939739,"lat":51.599152}},{"_id":7531016,"name":"Powiat łaski","country":"PL","coord":{"lon":19.03824,"lat":51.558842}},{"_id":7533524,"name":"Łask","country":"PL","coord":{"lon":19.158199,"lat":51.601799}},{"_id":3093902,"name":"Lask","country":"PL","coord":{"lon":19.13278,"lat":51.590561}},{"_id":7531025,"name":"Powiat wieluński","country":"PL","coord":{"lon":18.630329,"lat":51.232609}},{"_id":7533434,"name":"Wieluń","country":"PL","coord":{"lon":18.569,"lat":51.2253}},{"_id":3082197,"name":"Wielun","country":"PL","coord":{"lon":18.569639,"lat":51.22097}},{"_id":7530795,"name":"Powiat gryficki","country":"PL","coord":{"lon":15.19082,"lat":53.942928}},{"_id":3083145,"name":"Trzebiatow","country":"PL","coord":{"lon":15.26475,"lat":54.06147}},{"_id":764717,"name":"Miłków","country":"PL","coord":{"lon":21.377529,"lat":50.894859}},{"_id":760087,"name":"Rudka","country":"PL","coord":{"lon":21.328529,"lat":52.143242}},{"_id":7530785,"name":"Powiat kościerski","country":"PL","coord":{"lon":18.004,"lat":54.01939}},{"_id":7532759,"name":"Kościerzyna","country":"PL","coord":{"lon":17.9846,"lat":54.120701}},{"_id":3095126,"name":"Koscierzyna","country":"PL","coord":{"lon":17.98119,"lat":54.122261}},{"_id":7531050,"name":"Powiat lubliniecki","country":"PL","coord":{"lon":18.793779,"lat":50.673672}},{"_id":7531778,"name":"Lubliniec","country":"PL","coord":{"lon":18.708599,"lat":50.6432}},{"_id":3092906,"name":"Lubliniec","country":"PL","coord":{"lon":18.684401,"lat":50.668968}},{"_id":3080422,"name":"Zdrojki","country":"PL","coord":{"lon":18.50532,"lat":52.026241}},{"_id":3087027,"name":"Rokitno Szlacheckie","country":"PL","coord":{"lon":19.43293,"lat":50.43195}},{"_id":7530854,"name":"Powiat wodzisławski","country":"PL","coord":{"lon":18.425039,"lat":49.993229}},{"_id":7531744,"name":"Wodzisław Śląski","country":"PL","coord":{"lon":18.439899,"lat":50.0023}},{"_id":3081677,"name":"Wodzislaw Slaski","country":"PL","coord":{"lon":18.47205,"lat":50.003769}},{"_id":7530884,"name":"Powiat płoński","country":"PL","coord":{"lon":20.347099,"lat":52.638939}},{"_id":7531402,"name":"Płońsk","country":"PL","coord":{"lon":20.36301,"lat":52.626469}},{"_id":762021,"name":"Plonsk","country":"PL","coord":{"lon":20.375521,"lat":52.623482}},{"_id":3096605,"name":"Karniszyn","country":"PL","coord":{"lon":19.90349,"lat":52.976089}},{"_id":7530978,"name":"Powiat gorzowski","country":"PL","coord":{"lon":15.08508,"lat":52.738628}},{"_id":7531390,"name":"Kostrzyn nad Odrą","country":"PL","coord":{"lon":14.64042,"lat":52.61628}},{"_id":3095057,"name":"Kostrzyn nad Odra","country":"PL","coord":{"lon":14.64953,"lat":52.587132}},{"_id":7530752,"name":"Powiat wyszkowski","country":"PL","coord":{"lon":21.44537,"lat":52.651371}},{"_id":7533316,"name":"Wyszków","country":"PL","coord":{"lon":21.4471,"lat":52.592201}},{"_id":754454,"name":"Wyszkow","country":"PL","coord":{"lon":21.458401,"lat":52.592781}},{"_id":753911,"name":"Załuski","country":"PL","coord":{"lon":20.937321,"lat":52.173569}},{"_id":761471,"name":"Poręba","country":"PL","coord":{"lon":22.32004,"lat":50.354031}},{"_id":7531024,"name":"Powiat tomaszowski","country":"PL","coord":{"lon":20.06638,"lat":51.596668}},{"_id":7531284,"name":"Tomaszów Mazowiecki","country":"PL","coord":{"lon":20.025921,"lat":51.520599}},{"_id":756867,"name":"Tomaszow Mazowiecki","country":"PL","coord":{"lon":20.008551,"lat":51.531311}},{"_id":7530847,"name":"Powiat trzebnicki","country":"PL","coord":{"lon":17.049891,"lat":51.371948}},{"_id":7533037,"name":"Trzebnica","country":"PL","coord":{"lon":17.059099,"lat":51.3069}},{"_id":3083103,"name":"Trzebnica","country":"PL","coord":{"lon":17.063311,"lat":51.31076}},{"_id":7531070,"name":"Powiat wejherowski","country":"PL","coord":{"lon":18.048809,"lat":54.617069}},{"_id":7532619,"name":"Wejherowo","country":"PL","coord":{"lon":18.2337,"lat":54.605999}},{"_id":3082473,"name":"Wejherowo","country":"PL","coord":{"lon":18.23559,"lat":54.605679}},{"_id":7530788,"name":"Powiat pucki","country":"PL","coord":{"lon":18.369789,"lat":54.69659}},{"_id":7531634,"name":"Puck","country":"PL","coord":{"lon":18.319401,"lat":54.715401}},{"_id":3103267,"name":"Błądzikowo","country":"PL","coord":{"lon":18.430599,"lat":54.698238}},{"_id":761920,"name":"Podemłynek","country":"PL","coord":{"lon":20.903521,"lat":51.123718}},{"_id":7533335,"name":"Trzebinia","country":"PL","coord":{"lon":19.438,"lat":50.179501}},{"_id":3083111,"name":"Trzebinia","country":"PL","coord":{"lon":19.46966,"lat":50.159309}},{"_id":3089231,"name":"Piaski","country":"PL","coord":{"lon":19.090839,"lat":50.305752}},{"_id":7533042,"name":"Strzelin","country":"PL","coord":{"lon":17.0767,"lat":50.777699}},{"_id":3084404,"name":"Strzelin","country":"PL","coord":{"lon":17.06477,"lat":50.78157}},{"_id":7531482,"name":"Nowa Ruda","country":"PL","coord":{"lon":16.51955,"lat":50.573502}},{"_id":3090768,"name":"Nowa Ruda","country":"PL","coord":{"lon":16.50164,"lat":50.580078}},{"_id":7530892,"name":"Powiat łosicki","country":"PL","coord":{"lon":22.8451,"lat":52.223629}},{"_id":7533149,"name":"Łosice","country":"PL","coord":{"lon":22.719801,"lat":52.1959}},{"_id":765976,"name":"Losice","country":"PL","coord":{"lon":22.71801,"lat":52.211288}},{"_id":7531045,"name":"Powiat rawicki","country":"PL","coord":{"lon":16.94944,"lat":51.645069}},{"_id":7533203,"name":"Rawicz","country":"PL","coord":{"lon":16.878201,"lat":51.616901}},{"_id":3087307,"name":"Rawicz","country":"PL","coord":{"lon":16.858521,"lat":51.609459}},{"_id":7530887,"name":"Powiat pułtuski","country":"PL","coord":{"lon":21.02401,"lat":52.67207}},{"_id":7533092,"name":"Pułtusk","country":"PL","coord":{"lon":21.0832,"lat":52.701302}},{"_id":760917,"name":"Pultusk","country":"PL","coord":{"lon":21.08276,"lat":52.702499}},{"_id":7530880,"name":"Powiat mławski","country":"PL","coord":{"lon":20.377081,"lat":53.054958}},{"_id":7532889,"name":"Mława","country":"PL","coord":{"lon":20.381201,"lat":53.134102}},{"_id":764634,"name":"Mlawa","country":"PL","coord":{"lon":20.3841,"lat":53.112782}},{"_id":7530936,"name":"Powiat działdowski","country":"PL","coord":{"lon":20.04817,"lat":53.28883}},{"_id":7532449,"name":"Działdowo","country":"PL","coord":{"lon":20.151899,"lat":53.2883}},{"_id":772748,"name":"Dzialdowo","country":"PL","coord":{"lon":20.17004,"lat":53.239578}},{"_id":7530955,"name":"Powiat rawski","country":"PL","coord":{"lon":20.3853,"lat":51.76228}},{"_id":7532155,"name":"Rawa Mazowiecka","country":"PL","coord":{"lon":20.254999,"lat":51.758202}},{"_id":760584,"name":"Rawa Mazowiecka","country":"PL","coord":{"lon":20.25493,"lat":51.76437}},{"_id":7533362,"name":"Gąbin","country":"PL","coord":{"lon":19.730801,"lat":52.401199}},{"_id":3099619,"name":"Gabin","country":"PL","coord":{"lon":19.73509,"lat":52.398491}},{"_id":7530825,"name":"Powiat tarnowski","country":"PL","coord":{"lon":20.991779,"lat":50.01292}},{"_id":7533072,"name":"Ryglice","country":"PL","coord":{"lon":21.1416,"lat":49.877499}},{"_id":759859,"name":"Ryglice","country":"PL","coord":{"lon":21.13748,"lat":49.878868}},{"_id":7533455,"name":"Czchów","country":"PL","coord":{"lon":20.660999,"lat":49.8274}},{"_id":773832,"name":"Czchow","country":"PL","coord":{"lon":20.680559,"lat":49.837261}},{"_id":7530856,"name":"Powiat żagański","country":"PL","coord":{"lon":15.42253,"lat":51.594711}},{"_id":7532682,"name":"Żagań","country":"PL","coord":{"lon":15.3156,"lat":51.614899}},{"_id":3080944,"name":"Zagan","country":"PL","coord":{"lon":15.31486,"lat":51.617592}},{"_id":7532244,"name":"Zgorzelec","country":"PL","coord":{"lon":15.0171,"lat":51.151699}},{"_id":3080231,"name":"Zgorzelec","country":"PL","coord":{"lon":15.00835,"lat":51.149422}},{"_id":6690155,"name":"Powiat limanowski","country":"PL","coord":{"lon":20.42444,"lat":49.707611}},{"_id":7532380,"name":"Limanowa","country":"PL","coord":{"lon":20.4107,"lat":49.714901}},{"_id":766301,"name":"Limanowa","country":"PL","coord":{"lon":20.422041,"lat":49.70594}},{"_id":7530922,"name":"Powiat żniński","country":"PL","coord":{"lon":17.737431,"lat":52.822552}},{"_id":7533226,"name":"Żnin","country":"PL","coord":{"lon":17.73,"lat":52.844601}},{"_id":3080047,"name":"Znin","country":"PL","coord":{"lon":17.719919,"lat":52.849579}},{"_id":7530906,"name":"Powiat bydgoski","country":"PL","coord":{"lon":18.03808,"lat":53.190289}},{"_id":7533412,"name":"Solec Kujawski","country":"PL","coord":{"lon":18.242599,"lat":53.0746}},{"_id":3085172,"name":"Solec Kujawski","country":"PL","coord":{"lon":18.225719,"lat":53.08371}},{"_id":7531053,"name":"Powiat tarnogórski","country":"PL","coord":{"lon":18.86265,"lat":50.472641}},{"_id":7531827,"name":"Tarnowskie Góry","country":"PL","coord":{"lon":18.841999,"lat":50.4655}},{"_id":3083440,"name":"Tarnowskie Gory","country":"PL","coord":{"lon":18.861469,"lat":50.44548}},{"_id":766919,"name":"Kwiatkowice","country":"PL","coord":{"lon":22.24124,"lat":50.9179}},{"_id":7530798,"name":"Powiat bartoszycki","country":"PL","coord":{"lon":20.740761,"lat":54.212528}},{"_id":7531673,"name":"Bartoszyce","country":"PL","coord":{"lon":20.810301,"lat":54.253399}},{"_id":776337,"name":"Bartoszyce","country":"PL","coord":{"lon":20.808189,"lat":54.25354}},{"_id":7531652,"name":"Ostróda","country":"PL","coord":{"lon":19.9529,"lat":53.702599}},{"_id":3089779,"name":"Ostroda","country":"PL","coord":{"lon":19.964861,"lat":53.696709}},{"_id":7530800,"name":"Powiat lidzbarski","country":"PL","coord":{"lon":20.380449,"lat":54.105808}},{"_id":7531391,"name":"Lidzbark Warmiński","country":"PL","coord":{"lon":20.567341,"lat":54.130779}},{"_id":766307,"name":"Lidzbark Warminski","country":"PL","coord":{"lon":20.57954,"lat":54.125881}},{"_id":7531000,"name":"Powiat nidzicki","country":"PL","coord":{"lon":20.498581,"lat":53.372398}},{"_id":7532990,"name":"Nidzica","country":"PL","coord":{"lon":20.422899,"lat":53.362999}},{"_id":764039,"name":"Nidzica","country":"PL","coord":{"lon":20.42749,"lat":53.360519}},{"_id":7530860,"name":"Powiat kętrzyński","country":"PL","coord":{"lon":21.31217,"lat":54.136509}},{"_id":7531147,"name":"Kętrzyn","country":"PL","coord":{"lon":21.37496,"lat":54.082321}},{"_id":769274,"name":"Ketrzyn","country":"PL","coord":{"lon":21.375271,"lat":54.076759}},{"_id":7530873,"name":"Powiat włodawski","country":"PL","coord":{"lon":23.38279,"lat":51.522671}},{"_id":7532229,"name":"Włodawa","country":"PL","coord":{"lon":23.5336,"lat":51.541199}},{"_id":755474,"name":"Wlodawa","country":"PL","coord":{"lon":23.549999,"lat":51.549999}},{"_id":7532222,"name":"Zambrów","country":"PL","coord":{"lon":22.2472,"lat":52.976002}},{"_id":753895,"name":"Zambrow","country":"PL","coord":{"lon":22.243191,"lat":52.9855}},{"_id":7531028,"name":"Powiat zgierski","country":"PL","coord":{"lon":19.48024,"lat":51.904099}},{"_id":7531886,"name":"Zgierz","country":"PL","coord":{"lon":19.393999,"lat":51.855499}},{"_id":3080251,"name":"Zgierz","country":"PL","coord":{"lon":19.406231,"lat":51.85561}},{"_id":7530754,"name":"Powiat koszaliński","country":"PL","coord":{"lon":16.302311,"lat":54.109699}},{"_id":7533270,"name":"Sianów","country":"PL","coord":{"lon":16.319201,"lat":54.224201}},{"_id":3086134,"name":"Sianow","country":"PL","coord":{"lon":16.291269,"lat":54.22646}},{"_id":7530755,"name":"Powiat sławieński","country":"PL","coord":{"lon":16.53986,"lat":54.379101}},{"_id":7532657,"name":"Darłowo","country":"PL","coord":{"lon":16.410601,"lat":54.428501}},{"_id":3100637,"name":"Darlowo","country":"PL","coord":{"lon":16.4107,"lat":54.420952}},{"_id":7530786,"name":"Powiat lęborski","country":"PL","coord":{"lon":17.651779,"lat":54.568298}},{"_id":7532621,"name":"Lębork","country":"PL","coord":{"lon":17.757799,"lat":54.5355}},{"_id":3093739,"name":"Lebork","country":"PL","coord":{"lon":17.75012,"lat":54.539211}},{"_id":7530913,"name":"Powiat nakielski","country":"PL","coord":{"lon":17.58988,"lat":53.094799}},{"_id":7533425,"name":"Szubin","country":"PL","coord":{"lon":17.7423,"lat":53.009602}},{"_id":3083611,"name":"Szubin","country":"PL","coord":{"lon":17.74,"lat":53.00967}},{"_id":7530919,"name":"Powiat tucholski","country":"PL","coord":{"lon":17.939671,"lat":53.581459}},{"_id":7533414,"name":"Tuchola","country":"PL","coord":{"lon":17.86162,"lat":53.586948}},{"_id":3083043,"name":"Tuchola","country":"PL","coord":{"lon":17.859051,"lat":53.587921}},{"_id":7531051,"name":"Powiat krapkowicki","country":"PL","coord":{"lon":17.95768,"lat":50.452629}},{"_id":7533124,"name":"Zdzieszowice","country":"PL","coord":{"lon":18.114799,"lat":50.421299}},{"_id":3080389,"name":"Zdzieszowice","country":"PL","coord":{"lon":18.123489,"lat":50.42482}},{"_id":7530965,"name":"Piekary Śląskie","country":"PL","coord":{"lon":18.92841,"lat":50.380939}},{"_id":7532298,"name":"Piekary Śląskie","country":"PL","coord":{"lon":18.926531,"lat":50.380501}},{"_id":3094865,"name":"Kozłowa Góra","country":"PL","coord":{"lon":18.94841,"lat":50.411201}},{"_id":7532831,"name":"Wiskitki","country":"PL","coord":{"lon":20.3487,"lat":52.077801}},{"_id":767772,"name":"Nowe Kozłowice","country":"PL","coord":{"lon":20.42968,"lat":52.084782}},{"_id":3097064,"name":"Józefowiec","country":"PL","coord":{"lon":19.01016,"lat":50.286961}},{"_id":3098020,"name":"Helenówka","country":"PL","coord":{"lon":19.36342,"lat":50.593498}},{"_id":3092630,"name":"Łysica","country":"PL","coord":{"lon":19.450001,"lat":54.383331}},{"_id":7530979,"name":"Powiat międzyrzecki","country":"PL","coord":{"lon":15.58284,"lat":52.498909}},{"_id":7533417,"name":"Skwierzyna","country":"PL","coord":{"lon":15.5058,"lat":52.591202}},{"_id":3085656,"name":"Skwierzyna","country":"PL","coord":{"lon":15.50652,"lat":52.59914}},{"_id":7530768,"name":"Powiat krakowski","country":"PL","coord":{"lon":19.937071,"lat":50.099918}},{"_id":7533033,"name":"Świątniki Górne","country":"PL","coord":{"lon":19.954599,"lat":49.932301}},{"_id":3084107,"name":"Swiatniki Gorne","country":"PL","coord":{"lon":19.95364,"lat":49.934292}},{"_id":7530817,"name":"Jaworzno","country":"PL","coord":{"lon":19.301331,"lat":50.18914}},{"_id":7531790,"name":"Jaworzno","country":"PL","coord":{"lon":19.3013,"lat":50.189098}},{"_id":3097333,"name":"Jaworzno","country":"PL","coord":{"lon":19.274981,"lat":50.20528}},{"_id":3086682,"name":"Rumunki Lipnowskie","country":"PL","coord":{"lon":19.200109,"lat":52.834572}},{"_id":7530883,"name":"Powiat otwocki","country":"PL","coord":{"lon":21.372511,"lat":52.048981}},{"_id":7533165,"name":"Karczew","country":"PL","coord":{"lon":21.277399,"lat":52.065701}},{"_id":769539,"name":"Karczew","country":"PL","coord":{"lon":21.24962,"lat":52.07655}},{"_id":7531061,"name":"Powiat bielski","country":"PL","coord":{"lon":23.006689,"lat":52.746288}},{"_id":7531759,"name":"Bielsk Podlaski","country":"PL","coord":{"lon":23.190201,"lat":52.764099}},{"_id":775986,"name":"Bielsk Podlaski","country":"PL","coord":{"lon":23.18647,"lat":52.765121}},{"_id":7531001,"name":"Powiat piski","country":"PL","coord":{"lon":21.857229,"lat":53.680759}},{"_id":7533139,"name":"Pisz","country":"PL","coord":{"lon":21.809601,"lat":53.6273}},{"_id":762120,"name":"Pisz","country":"PL","coord":{"lon":21.812531,"lat":53.627441}},{"_id":7530971,"name":"Powiat gdański","country":"PL","coord":{"lon":18.58157,"lat":54.22493}},{"_id":7531202,"name":"Pruszcz Gdański","country":"PL","coord":{"lon":18.6453,"lat":54.257778}},{"_id":3088034,"name":"Pruszcz Gdanski","country":"PL","coord":{"lon":18.63625,"lat":54.262169}},{"_id":7532573,"name":"Rumia","country":"PL","coord":{"lon":18.384701,"lat":54.569099}},{"_id":3086706,"name":"Rumia","country":"PL","coord":{"lon":18.38802,"lat":54.570919}},{"_id":7533057,"name":"Kartuzy","country":"PL","coord":{"lon":18.19726,"lat":54.33532}},{"_id":3096525,"name":"Kartuzy","country":"PL","coord":{"lon":18.19735,"lat":54.33424}},{"_id":3083614,"name":"Sztumskie Przedmicście","country":"PL","coord":{"lon":19.066669,"lat":54.033329}},{"_id":7530879,"name":"Powiat nowodworski","country":"PL","coord":{"lon":20.664049,"lat":52.465851}},{"_id":7532456,"name":"Nowy Dwór Mazowiecki","country":"PL","coord":{"lon":20.6917,"lat":52.4342}},{"_id":763556,"name":"Nowy Dwor Mazowiecki","country":"PL","coord":{"lon":20.71652,"lat":52.430222}},{"_id":7530834,"name":"Powiat oleśnicki","country":"PL","coord":{"lon":17.51679,"lat":51.254581}},{"_id":7531860,"name":"Oleśnica","country":"PL","coord":{"lon":17.386,"lat":51.210499}},{"_id":3090170,"name":"Olesnica","country":"PL","coord":{"lon":17.38986,"lat":51.213379}},{"_id":7530996,"name":"Powiat wrzesiński","country":"PL","coord":{"lon":17.590191,"lat":52.24091}},{"_id":7533329,"name":"Września","country":"PL","coord":{"lon":17.568501,"lat":52.325802}},{"_id":3081324,"name":"Wrzesnia","country":"PL","coord":{"lon":17.565189,"lat":52.325119}},{"_id":7530995,"name":"Powiat szamotulski","country":"PL","coord":{"lon":16.37726,"lat":52.583912}},{"_id":7533141,"name":"Szamotuły","country":"PL","coord":{"lon":16.5791,"lat":52.6092}},{"_id":3083878,"name":"Szamotuly","country":"PL","coord":{"lon":16.57794,"lat":52.612011}},{"_id":7530802,"name":"Powiat obornicki","country":"PL","coord":{"lon":16.85437,"lat":52.717049}},{"_id":7533554,"name":"Oborniki","country":"PL","coord":{"lon":16.8053,"lat":52.652699}},{"_id":3090403,"name":"Oborniki","country":"PL","coord":{"lon":16.81406,"lat":52.647388}},{"_id":7531079,"name":"Powiat średzki","country":"PL","coord":{"lon":17.30686,"lat":52.180099}},{"_id":7533339,"name":"Środa Wielkopolska","country":"PL","coord":{"lon":17.2803,"lat":52.2299}},{"_id":3085045,"name":"Sroda Wielkopolska","country":"PL","coord":{"lon":17.276171,"lat":52.228432}},{"_id":7533073,"name":"Bystrzyca Kłodzka","country":"PL","coord":{"lon":16.6499,"lat":50.2953}},{"_id":3101968,"name":"Bystrzyca Klodzka","country":"PL","coord":{"lon":16.642309,"lat":50.301788}},{"_id":7530751,"name":"Powiat wołomiński","country":"PL","coord":{"lon":21.401211,"lat":52.406158}},{"_id":7532677,"name":"Ząbki","country":"PL","coord":{"lon":21.112499,"lat":52.2924}},{"_id":754351,"name":"Zabki","country":"PL","coord":{"lon":21.105391,"lat":52.292709}},{"_id":772410,"name":"Gałachy","country":"PL","coord":{"lon":20.63335,"lat":52.433411}},{"_id":753854,"name":"Zanęcin","country":"PL","coord":{"lon":21.327551,"lat":52.15456}},{"_id":759180,"name":"Siwki","country":"PL","coord":{"lon":21.133329,"lat":52.316669}},{"_id":7532455,"name":"Józefów","country":"PL","coord":{"lon":21.219999,"lat":52.128502}},{"_id":769981,"name":"Jozefow","country":"PL","coord":{"lon":21.235889,"lat":52.13707}},{"_id":753276,"name":"Zielonka","country":"PL","coord":{"lon":21.160179,"lat":52.303761}},{"_id":7530765,"name":"Powiat konecki","country":"PL","coord":{"lon":20.34186,"lat":51.151451}},{"_id":7533030,"name":"Końskie","country":"PL","coord":{"lon":20.405399,"lat":51.184399}},{"_id":768218,"name":"Konskie","country":"PL","coord":{"lon":20.406071,"lat":51.191662}},{"_id":7530869,"name":"Powiat radzyński","country":"PL","coord":{"lon":22.707581,"lat":51.782551}},{"_id":7531307,"name":"Radzyń Podlaski","country":"PL","coord":{"lon":22.626369,"lat":51.776829}},{"_id":760680,"name":"Radzyn Podlaski","country":"PL","coord":{"lon":22.616671,"lat":51.783329}},{"_id":7530948,"name":"Powiat złotowski","country":"PL","coord":{"lon":16.915159,"lat":53.412609}},{"_id":7533179,"name":"Jastrowie","country":"PL","coord":{"lon":16.7887,"lat":53.4076}},{"_id":3097420,"name":"Jastrowie","country":"PL","coord":{"lon":16.81756,"lat":53.420479}},{"_id":7531020,"name":"Powiat opoczyński","country":"PL","coord":{"lon":20.1943,"lat":51.392651}},{"_id":7533039,"name":"Opoczno","country":"PL","coord":{"lon":20.274599,"lat":51.377399}},{"_id":763111,"name":"Opoczno","country":"PL","coord":{"lon":20.278271,"lat":51.37569}},{"_id":761131,"name":"Przeworsk","country":"PL","coord":{"lon":22.49408,"lat":50.05912}},{"_id":764977,"name":"Michalinów","country":"PL","coord":{"lon":21.8295,"lat":51.57756}},{"_id":7531617,"name":"Wojkowice","country":"PL","coord":{"lon":19.031521,"lat":50.365929}},{"_id":3085675,"name":"Skrzynówek","country":"PL","coord":{"lon":19.05081,"lat":50.36813}},{"_id":7530960,"name":"Powiat wałecki","country":"PL","coord":{"lon":16.338511,"lat":53.236328}},{"_id":7532617,"name":"Wałcz","country":"PL","coord":{"lon":16.4494,"lat":53.272598}},{"_id":3082704,"name":"Walcz","country":"PL","coord":{"lon":16.47122,"lat":53.27787}},{"_id":3103476,"name":"Bielawa","country":"PL","coord":{"lon":16.622999,"lat":50.69075}},{"_id":7530850,"name":"Powiat wrocławski","country":"PL","coord":{"lon":16.971149,"lat":51.042782}},{"_id":7533109,"name":"Kąty Wrocławskie","country":"PL","coord":{"lon":16.761499,"lat":51.0271}},{"_id":3096444,"name":"Katy Wroclawskie","country":"PL","coord":{"lon":16.76767,"lat":51.030979}},{"_id":7530925,"name":"Powiat grodziski","country":"PL","coord":{"lon":20.59408,"lat":52.063911}},{"_id":7531437,"name":"Podkowa Leśna","country":"PL","coord":{"lon":20.74695,"lat":52.110981}},{"_id":761878,"name":"Podkowa Lesna","country":"PL","coord":{"lon":20.72665,"lat":52.122372}},{"_id":762414,"name":"Piaski","country":"PL","coord":{"lon":20.23436,"lat":50.030022}},{"_id":7531033,"name":"Powiat pszczyński","country":"PL","coord":{"lon":18.881769,"lat":49.989868}},{"_id":7533068,"name":"Pszczyna","country":"PL","coord":{"lon":18.932899,"lat":49.985901}},{"_id":3087705,"name":"Pszczyna","country":"PL","coord":{"lon":18.953819,"lat":49.98037}},{"_id":7533553,"name":"Gniew","country":"PL","coord":{"lon":18.811399,"lat":53.841}},{"_id":3099127,"name":"Gniew","country":"PL","coord":{"lon":18.823099,"lat":53.836021}},{"_id":7533172,"name":"Złoty Stok","country":"PL","coord":{"lon":16.871799,"lat":50.434399}},{"_id":3080061,"name":"Zloty Stok","country":"PL","coord":{"lon":16.87586,"lat":50.444721}},{"_id":3089645,"name":"Otmęt","country":"PL","coord":{"lon":17.975309,"lat":50.483639}},{"_id":7530872,"name":"Powiat tomaszowski","country":"PL","coord":{"lon":23.52083,"lat":50.478249}},{"_id":7531659,"name":"Tomaszów Lubelski","country":"PL","coord":{"lon":23.426399,"lat":50.4478}},{"_id":756868,"name":"Tomaszow Lubelski","country":"PL","coord":{"lon":23.416161,"lat":50.44767}},{"_id":7531060,"name":"Powiat białostocki","country":"PL","coord":{"lon":23.20767,"lat":53.11729}},{"_id":7533545,"name":"Czarna Białostocka","country":"PL","coord":{"lon":23.267799,"lat":53.302299}},{"_id":773941,"name":"Czarna Bialostocka","country":"PL","coord":{"lon":23.28146,"lat":53.305092}},{"_id":7533514,"name":"Wyszogród","country":"PL","coord":{"lon":20.191099,"lat":52.391701}},{"_id":754451,"name":"Wyszogrod","country":"PL","coord":{"lon":20.190809,"lat":52.389881}},{"_id":7530733,"name":"Powiat namysłowski","country":"PL","coord":{"lon":17.763041,"lat":51.016281}},{"_id":7533527,"name":"Namysłów","country":"PL","coord":{"lon":17.6954,"lat":51.076801}},{"_id":3091141,"name":"Namyslow","country":"PL","coord":{"lon":17.722839,"lat":51.07592}},{"_id":7530900,"name":"Powiat siemiatycki","country":"PL","coord":{"lon":22.886419,"lat":52.488419}},{"_id":7533298,"name":"Drohiczyn","country":"PL","coord":{"lon":22.653999,"lat":52.406399}},{"_id":772959,"name":"Drohiczyn","country":"PL","coord":{"lon":22.658529,"lat":52.400108}},{"_id":7530980,"name":"Powiat słubicki","country":"PL","coord":{"lon":14.78921,"lat":52.32267}},{"_id":7533426,"name":"Rzepin","country":"PL","coord":{"lon":14.8363,"lat":52.3437}},{"_id":3086435,"name":"Rzepin","country":"PL","coord":{"lon":14.83227,"lat":52.346401}},{"_id":7530998,"name":"Powiat kamiennogórski","country":"PL","coord":{"lon":16.004709,"lat":50.756031}},{"_id":7532304,"name":"Kamienna Góra","country":"PL","coord":{"lon":16.0336,"lat":50.784599}},{"_id":3096779,"name":"Kamienna Gora","country":"PL","coord":{"lon":16.030371,"lat":50.783138}},{"_id":7531967,"name":"Świebodzice","country":"PL","coord":{"lon":16.338499,"lat":50.872501}},{"_id":3084084,"name":"Swiebodzice","country":"PL","coord":{"lon":16.328199,"lat":50.85976}},{"_id":7533369,"name":"Ziębice","country":"PL","coord":{"lon":17.035101,"lat":50.5924}},{"_id":3080226,"name":"Ziebice","country":"PL","coord":{"lon":17.040649,"lat":50.601219}},{"_id":3091609,"name":"Młyny","country":"PL","coord":{"lon":19.25,"lat":50.099998}},{"_id":7533372,"name":"Strzegom","country":"PL","coord":{"lon":16.3442,"lat":50.9599}},{"_id":3084440,"name":"Strzegom","country":"PL","coord":{"lon":16.35006,"lat":50.962639}},{"_id":7531034,"name":"Powiat bieruńsko-lędziński","country":"PL","coord":{"lon":19.1427,"lat":50.093559}},{"_id":7531497,"name":"Bieruń","country":"PL","coord":{"lon":19.14328,"lat":50.084381}},{"_id":3103365,"name":"Bierun","country":"PL","coord":{"lon":19.092911,"lat":50.09}},{"_id":7531620,"name":"Krokowa","country":"PL","coord":{"lon":18.104191,"lat":54.762749}},{"_id":3091728,"name":"Minkowice","country":"PL","coord":{"lon":18.17293,"lat":54.782181}},{"_id":7530811,"name":"Powiat rybnicki","country":"PL","coord":{"lon":18.517929,"lat":50.099339}},{"_id":7532592,"name":"Świerklany","country":"PL","coord":{"lon":18.58046,"lat":50.02026}},{"_id":3084030,"name":"Swierklany Dolne","country":"PL","coord":{"lon":18.577021,"lat":50.018269}},{"_id":7530949,"name":"Powiat bialski","country":"PL","coord":{"lon":23.15328,"lat":51.972221}},{"_id":7531692,"name":"Międzyrzec Podlaski","country":"PL","coord":{"lon":22.7731,"lat":52.018101}},{"_id":764862,"name":"Miedzyrzec Podlaski","country":"PL","coord":{"lon":22.78248,"lat":51.986401}},{"_id":7530867,"name":"Powiat parczewski","country":"PL","coord":{"lon":22.99629,"lat":51.599819}},{"_id":7533089,"name":"Parczew","country":"PL","coord":{"lon":22.893,"lat":51.634701}},{"_id":762643,"name":"Parczew","country":"PL","coord":{"lon":22.90057,"lat":51.640209}},{"_id":7533237,"name":"Ujście","country":"PL","coord":{"lon":16.727699,"lat":53.054798}},{"_id":3082838,"name":"Ujscie","country":"PL","coord":{"lon":16.73201,"lat":53.053391}},{"_id":7531077,"name":"Powiat chodzieski","country":"PL","coord":{"lon":17.01545,"lat":52.952888}},{"_id":7533285,"name":"Margonin","country":"PL","coord":{"lon":17.0998,"lat":52.970501}},{"_id":3092312,"name":"Margonin","country":"PL","coord":{"lon":17.094641,"lat":52.973351}},{"_id":7533523,"name":"Szczekociny","country":"PL","coord":{"lon":19.8277,"lat":50.6213}},{"_id":3083814,"name":"Szczekociny","country":"PL","coord":{"lon":19.825001,"lat":50.62669}},{"_id":6690162,"name":"Powiat suski","country":"PL","coord":{"lon":19.59103,"lat":49.744621}},{"_id":7532983,"name":"Maków Podhalański","country":"PL","coord":{"lon":19.6607,"lat":49.739799}},{"_id":3092517,"name":"Makow Podhalanski","country":"PL","coord":{"lon":19.677111,"lat":49.73008}},{"_id":7530832,"name":"Powiat lwówecki","country":"PL","coord":{"lon":15.52144,"lat":51.015591}},{"_id":7533128,"name":"Lwówek Śląski","country":"PL","coord":{"lon":15.5866,"lat":51.111118}},{"_id":3092638,"name":"Lwowek Slaski","country":"PL","coord":{"lon":15.58582,"lat":51.110741}},{"_id":3093725,"name":"Łęczyca","country":"PL","coord":{"lon":16.87517,"lat":52.307949}},{"_id":770059,"name":"Jeziorna Oborska","country":"PL","coord":{"lon":21.116671,"lat":52.083328}},{"_id":7531199,"name":"Konstantynów Łódzki","country":"PL","coord":{"lon":19.31012,"lat":51.757179}},{"_id":3095277,"name":"Konstantynow Lodzki","country":"PL","coord":{"lon":19.32564,"lat":51.747761}},{"_id":7530888,"name":"Powiat sokołowski","country":"PL","coord":{"lon":22.26897,"lat":52.49538}},{"_id":7532606,"name":"Sokołów Podlaski","country":"PL","coord":{"lon":22.233999,"lat":52.4142}},{"_id":758626,"name":"Sokolow Podlaski","country":"PL","coord":{"lon":22.253071,"lat":52.406769}},{"_id":7530932,"name":"Powiat człuchowski","country":"PL","coord":{"lon":17.18936,"lat":53.751122}},{"_id":7531776,"name":"Człuchów","country":"PL","coord":{"lon":17.368,"lat":53.6647}},{"_id":3100933,"name":"Czluchow","country":"PL","coord":{"lon":17.358829,"lat":53.667221}},{"_id":7532989,"name":"Koronowo","country":"PL","coord":{"lon":17.947901,"lat":53.321899}},{"_id":3095192,"name":"Koronowo","country":"PL","coord":{"lon":17.936979,"lat":53.313702}},{"_id":7532260,"name":"Zawoja","country":"PL","coord":{"lon":19.543989,"lat":49.64518}},{"_id":7576320,"name":"Przysłop","country":"PL","coord":{"lon":19.572399,"lat":49.692402}},{"_id":3100353,"name":"Dobre","country":"PL","coord":{"lon":16.05386,"lat":54.19994}},{"_id":7530766,"name":"Powiat włoszczowski","country":"PL","coord":{"lon":19.976959,"lat":50.83205}},{"_id":7533374,"name":"Włoszczowa","country":"PL","coord":{"lon":19.986601,"lat":50.8573}},{"_id":3081699,"name":"Wloszczowa","country":"PL","coord":{"lon":19.965931,"lat":50.852558}},{"_id":7530904,"name":"Powiat aleksandrowski","country":"PL","coord":{"lon":18.719299,"lat":52.784649}},{"_id":7532648,"name":"Aleksandrów Kujawski","country":"PL","coord":{"lon":18.700399,"lat":52.876301}},{"_id":3104133,"name":"Aleksandrow Kujawski","country":"PL","coord":{"lon":18.693451,"lat":52.876591}},{"_id":7533398,"name":"Syców","country":"PL","coord":{"lon":17.729401,"lat":51.3032}},{"_id":3083921,"name":"Sycow","country":"PL","coord":{"lon":17.71979,"lat":51.30814}},{"_id":7530740,"name":"Powiat krasnostawski","country":"PL","coord":{"lon":23.17514,"lat":50.984859}},{"_id":7532093,"name":"Krasnystaw","country":"PL","coord":{"lon":23.1724,"lat":50.984959}},{"_id":767605,"name":"Krasnystaw","country":"PL","coord":{"lon":23.1742,"lat":50.984638}},{"_id":7530836,"name":"Powiat polkowicki","country":"PL","coord":{"lon":16.01528,"lat":51.499821}},{"_id":7533252,"name":"Chocianów","country":"PL","coord":{"lon":15.906,"lat":51.4175}},{"_id":3101722,"name":"Chocianow","country":"PL","coord":{"lon":15.90172,"lat":51.418671}},{"_id":7531969,"name":"Kamieniec Ząbkowicki","country":"PL","coord":{"lon":16.9105,"lat":50.521301}},{"_id":3096795,"name":"Kamieniec Zabkowicki","country":"PL","coord":{"lon":16.87921,"lat":50.52541}},{"_id":7530875,"name":"Powiat makowski","country":"PL","coord":{"lon":21.179501,"lat":52.947701}},{"_id":7531204,"name":"Maków Mazowiecki","country":"PL","coord":{"lon":21.093109,"lat":52.861759}},{"_id":765430,"name":"Makow Mazowiecki","country":"PL","coord":{"lon":21.100531,"lat":52.864929}},{"_id":7531935,"name":"Świerklaniec","country":"PL","coord":{"lon":18.936569,"lat":50.442261}},{"_id":3089976,"name":"Orzech","country":"PL","coord":{"lon":18.92275,"lat":50.427441}},{"_id":3099063,"name":"Godziszewy","country":"PL","coord":{"lon":19.48056,"lat":53.05946}},{"_id":7531678,"name":"Duszniki-Zdrój","country":"PL","coord":{"lon":16.3818,"lat":50.3703}},{"_id":3099992,"name":"Duszniki-Zdroj","country":"PL","coord":{"lon":16.390909,"lat":50.403271}},{"_id":7532515,"name":"Pieszyce","country":"PL","coord":{"lon":16.553801,"lat":50.703602}},{"_id":3089065,"name":"Pieszyce","country":"PL","coord":{"lon":16.582319,"lat":50.712872}},{"_id":7532932,"name":"Stoszowice","country":"PL","coord":{"lon":16.6766,"lat":50.5975}},{"_id":3084569,"name":"Stoszowice","country":"PL","coord":{"lon":16.73896,"lat":50.599861}},{"_id":7533453,"name":"Stronie Śląskie","country":"PL","coord":{"lon":16.878901,"lat":50.297001}},{"_id":3084515,"name":"Stronie Slaskie","country":"PL","coord":{"lon":16.87397,"lat":50.29554}},{"_id":7533306,"name":"Libiąż","country":"PL","coord":{"lon":19.3179,"lat":50.094898}},{"_id":3080675,"name":"Zarki","country":"PL","coord":{"lon":19.35199,"lat":50.082588}},{"_id":7533558,"name":"Rajgród","country":"PL","coord":{"lon":22.679899,"lat":53.730099}},{"_id":760672,"name":"Rajgrod","country":"PL","coord":{"lon":22.705151,"lat":53.731022}},{"_id":7533350,"name":"Nysa","country":"PL","coord":{"lon":17.336901,"lat":50.473499}},{"_id":3090436,"name":"Nysa","country":"PL","coord":{"lon":17.33437,"lat":50.473789}},{"_id":7531018,"name":"Powiat brzeziński","country":"PL","coord":{"lon":19.83037,"lat":51.840729}},{"_id":7531224,"name":"Brzeziny","country":"PL","coord":{"lon":19.749439,"lat":51.800659}},{"_id":3102390,"name":"Brzeziny","country":"PL","coord":{"lon":19.75144,"lat":51.800228}},{"_id":3080242,"name":"Zgoda","country":"PL","coord":{"lon":18.91667,"lat":50.283329}},{"_id":7533130,"name":"Zelów","country":"PL","coord":{"lon":19.224899,"lat":51.472599}},{"_id":3080295,"name":"Zelow","country":"PL","coord":{"lon":19.219721,"lat":51.46452}},{"_id":7530859,"name":"Powiat węgorzewski","country":"PL","coord":{"lon":21.77861,"lat":54.207279}},{"_id":7533387,"name":"Węgorzewo","country":"PL","coord":{"lon":21.748899,"lat":54.208}},{"_id":756048,"name":"Wegorzewo","country":"PL","coord":{"lon":21.7372,"lat":54.215672}},{"_id":766774,"name":"Łapy Zięciuki","country":"PL","coord":{"lon":22.86302,"lat":52.985561}},