{"countryCode":"PY","countryName":"Paraguay","countryFilePath":"PY.json","countryCityList":[{"_id":3436728,"name":"Villa Elisa","country":"PY","coord":{"lon":-57.616669,"lat":-25.366671}},{"_id":3437127,"name":"San Antonio","country":"PY","coord":{"lon":-57.633331,"lat":-25.383329}},{"_id":3437665,"name":"Nemby","country":"PY","coord":{"lon":-57.599998,"lat":-25.366671}},{"_id":3437842,"name":"Limpio","country":"PY","coord":{"lon":-57.533329,"lat":-25.183331}},{"_id":3474570,"name":"Asunción","country":"PY","coord":{"lon":-57.666672,"lat":-25.26667}},{"_id":3439389,"name":"Asuncion","country":"PY","coord":{"lon":-57.63591,"lat":-25.300659}},{"_id":3437598,"name":"Republic of Paraguay","country":"PY","coord":{"lon":-57.996391,"lat":-22.99333}},{"_id":3439440,"name":"Departamento del Alto Paraná","country":"PY","coord":{"lon":-54.833328,"lat":-25.5}},{"_id":3439101,"name":"Ciudad del Este","country":"PY","coord":{"lon":-54.616669,"lat":-25.51667}},{"_id":3867442,"name":"Departamento de Boquerón","country":"PY","coord":{"lon":-61.0,"lat":-22.66667}},{"_id":3867395,"name":"Destacamento Militar Número Dos Parque Cué","country":"PY","coord":{"lon":-61.799999,"lat":-20.216669}},{"_id":3438833,"name":"Departamento de Concepción","country":"PY","coord":{"lon":-57.1675,"lat":-23.1775}},{"_id":3439018,"name":"Colonia Hernandarias","country":"PY","coord":{"lon":-57.183331,"lat":-23.299999}},{"_id":3437923,"name":"Departamento de Itapúa","country":"PY","coord":{"lon":-55.833328,"lat":-26.83333}},{"_id":3437370,"name":"Puerto Mayor Otano","country":"PY","coord":{"lon":-54.700001,"lat":-26.4}},{"_id":3439433,"name":"Departamento del Amambay","country":"PY","coord":{"lon":-56.0,"lat":-23.0}},{"_id":3439353,"name":"Bella Vista","country":"PY","coord":{"lon":-56.51667,"lat":-22.133329}},{"_id":3437443,"name":"Departamento de Presidente Hayes","country":"PY","coord":{"lon":-58.833328,"lat":-23.5}},{"_id":3437696,"name":"Nanawa","country":"PY","coord":{"lon":-57.666672,"lat":-25.26667}},{"_id":3439137,"name":"Departamento Central","country":"PY","coord":{"lon":-57.5,"lat":-25.5}},{"_id":3437863,"name":"Lambare","country":"PY","coord":{"lon":-57.606468,"lat":-25.346821}},{"_id":3437637,"name":"Obligado","country":"PY","coord":{"lon":-55.633331,"lat":-27.033331}},{"_id":3438735,"name":"Encarnacion","country":"PY","coord":{"lon":-55.900002,"lat":-27.33333}},{"_id":3438115,"name":"Fernando de la Mora","country":"PY","coord":{"lon":-57.599998,"lat":-25.316669}},{"_id":3437824,"name":"Loma Plata","country":"PY","coord":{"lon":-59.849998,"lat":-22.383329}},{"_id":3436941,"name":"Santísima Trinidad","country":"PY","coord":{"lon":-57.633331,"lat":-25.25}},{"_id":3439184,"name":"Capitan Miranda","country":"PY","coord":{"lon":-55.799999,"lat":-27.200001}},{"_id":3437677,"name":"Departamento de Ñeembucú","country":"PY","coord":{"lon":-58.0,"lat":-27.0}},{"_id":3437526,"name":"Pilar","country":"PY","coord":{"lon":-58.293461,"lat":-26.86879}},{"_id":3437444,"name":"Presidente Franco","country":"PY","coord":{"lon":-54.616669,"lat":-25.533331}},{"_id":3437815,"name":"Los Cedrales","country":"PY","coord":{"lon":-54.700001,"lat":-25.65}},{"_id":3437997,"name":"Hohenau","country":"PY","coord":{"lon":-55.75,"lat":-27.08333}},{"_id":3439214,"name":"Capiata","country":"PY","coord":{"lon":-57.416672,"lat":-25.35}},{"_id":3439312,"name":"Departamento de Caaguazú","country":"PY","coord":{"lon":-55.833328,"lat":-25.33333}},{"_id":3439317,"name":"Caaguazu","country":"PY","coord":{"lon":-56.01667,"lat":-25.450001}},{"_id":3438827,"name":"Departamento de la Cordillera","country":"PY","coord":{"lon":-57.0,"lat":-25.25}},{"_id":3437495,"name":"Piribebuy","country":"PY","coord":{"lon":-57.049999,"lat":-25.48333}},{"_id":3437654,"name":"Nueva Colombia","country":"PY","coord":{"lon":-57.349998,"lat":-25.183331}},{"_id":3438049,"name":"Departamento del Guairá","country":"PY","coord":{"lon":-56.5,"lat":-25.75}},{"_id":3436714,"name":"Villarrica","country":"PY","coord":{"lon":-56.433331,"lat":-25.75}},{"_id":3438819,"name":"Coronel Oviedo","country":"PY","coord":{"lon":-56.450001,"lat":-25.41667}},{"_id":3439362,"name":"Barrio San Isidro (1)","country":"PY","coord":{"lon":-57.599998,"lat":-25.366671}},{"_id":3439296,"name":"Departamento de Caazapá","country":"PY","coord":{"lon":-56.0,"lat":-26.16667}},{"_id":3439297,"name":"Caazapa","country":"PY","coord":{"lon":-56.400002,"lat":-26.15}},{"_id":3439320,"name":"Caacupe","country":"PY","coord":{"lon":-57.150002,"lat":-25.383329}},{"_id":3438834,"name":"Concepcion","country":"PY","coord":{"lon":-57.434441,"lat":-23.406389}},{"_id":3437199,"name":"Remancillo","country":"PY","coord":{"lon":-57.533329,"lat":-25.16667}},{"_id":3436583,"name":"Ypane","country":"PY","coord":{"lon":-57.533329,"lat":-25.450001}},{"_id":3438995,"name":"Colonia Mariano Roque Alonso","country":"PY","coord":{"lon":-57.549999,"lat":-25.16667}},{"_id":3437690,"name":"Naranjál","country":"PY","coord":{"lon":-57.566669,"lat":-25.1}},{"_id":3438743,"name":"Edelira","country":"PY","coord":{"lon":-55.26667,"lat":-26.75}},{"_id":3438825,"name":"Coronel Bogado","country":"PY","coord":{"lon":-56.299999,"lat":-27.183331}},{"_id":3439439,"name":"Altos","country":"PY","coord":{"lon":-57.249161,"lat":-25.263399}},{"_id":3437027,"name":"Departamento de San Pedro","country":"PY","coord":{"lon":-56.5,"lat":-24.25}},{"_id":3437105,"name":"San Estanislao","country":"PY","coord":{"lon":-56.433331,"lat":-24.65}},{"_id":3439185,"name":"Capitán Meza","country":"PY","coord":{"lon":-55.566669,"lat":-27.01667}},{"_id":3437120,"name":"San Bernardino","country":"PY","coord":{"lon":-57.316669,"lat":-25.26667}},{"_id":3437599,"name":"Departamento de Paraguarí","country":"PY","coord":{"lon":-57.166672,"lat":-26.0}},{"_id":3438713,"name":"Establecimiento La Norma","country":"PY","coord":{"lon":-57.150002,"lat":-25.633329}},{"_id":3437918,"name":"Itaugua","country":"PY","coord":{"lon":-57.333328,"lat":-25.383329}},{"_id":3438043,"name":"Guarambare","country":"PY","coord":{"lon":-57.466671,"lat":-25.48333}},{"_id":3436657,"name":"Yataity","country":"PY","coord":{"lon":-56.066669,"lat":-26.366671}},{"_id":3437136,"name":"San Alberto","country":"PY","coord":{"lon":-54.900002,"lat":-24.966669}},{"_id":3439348,"name":"Benjamin Aceval","country":"PY","coord":{"lon":-57.566669,"lat":-24.966669}},{"_id":3436751,"name":"Valle Apúa","country":"PY","coord":{"lon":-57.216671,"lat":-26.033331}},{"_id":3867236,"name":"Mariscal Estigarribia","country":"PY","coord":{"lon":-60.633331,"lat":-22.033331}},{"_id":3867291,"name":"Filadelfia","country":"PY","coord":{"lon":-60.033329,"lat":-22.35}},{"_id":3439044,"name":"Colonia Félix de Azara","country":"PY","coord":{"lon":-54.76667,"lat":-25.48333}},{"_id":3436974,"name":"Santa María","country":"PY","coord":{"lon":-55.900002,"lat":-27.299999}},{"_id":3436534,"name":"Zarate Isla","country":"PY","coord":{"lon":-57.5,"lat":-25.23333}},{"_id":3437056,"name":"San Lorenzo","country":"PY","coord":{"lon":-57.533329,"lat":-25.33333}},{"_id":3437954,"name":"Ita","country":"PY","coord":{"lon":-57.349998,"lat":-25.48333}},{"_id":3436547,"name":"Yuty","country":"PY","coord":{"lon":-56.25,"lat":-26.6}},{"_id":3436585,"name":"Ypacarai","country":"PY","coord":{"lon":-57.285461,"lat":-25.40514}},{"_id":3436595,"name":"Yhu","country":"PY","coord":{"lon":-55.916672,"lat":-25.049999}},{"_id":3436616,"name":"Ygatimi","country":"PY","coord":{"lon":-55.5,"lat":-24.08333}},{"_id":3436617,"name":"Yegros","country":"PY","coord":{"lon":-56.400002,"lat":-26.450001}},{"_id":3436642,"name":"Ybycui","country":"PY","coord":{"lon":-57.049999,"lat":-26.01667}},{"_id":3436655,"name":"Yataity del Norte","country":"PY","coord":{"lon":-56.349998,"lat":-24.83333}},{"_id":3436674,"name":"Yaguaron","country":"PY","coord":{"lon":-57.299999,"lat":-25.6}},{"_id":3436725,"name":"Villa Hayes","country":"PY","coord":{"lon":-57.523609,"lat":-25.09306}},{"_id":3436727,"name":"Villa Florida","country":"PY","coord":{"lon":-57.150002,"lat":-26.383329}},{"_id":3436763,"name":"Union","country":"PY","coord":{"lon":-56.549999,"lat":-24.799999}},{"_id":3436776,"name":"Trinidad","country":"PY","coord":{"lon":-55.783329,"lat":-27.116671}},{"_id":3436812,"name":"Tobati","country":"PY","coord":{"lon":-57.066669,"lat":-25.25}},{"_id":3436880,"name":"Tacuati","country":"PY","coord":{"lon":-56.583328,"lat":-23.450001}},{"_id":3436927,"name":"Sapucai","country":"PY","coord":{"lon":-56.916672,"lat":-25.66667}},{"_id":3436943,"name":"Santiago","country":"PY","coord":{"lon":-56.783329,"lat":-27.15}},{"_id":3436959,"name":"Santa Rosa","country":"PY","coord":{"lon":-56.849998,"lat":-26.866671}},{"_id":3436968,"name":"Santa Rita","country":"PY","coord":{"lon":-55.066669,"lat":-25.783331}},{"_id":3436977,"name":"Santa Maria","country":"PY","coord":{"lon":-56.933331,"lat":-26.783331}},{"_id":3436987,"name":"Santa Elena","country":"PY","coord":{"lon":-56.799999,"lat":-25.4}},{"_id":3437021,"name":"San Pedro de Ycuamandiyu","country":"PY","coord":{"lon":-57.076389,"lat":-24.091669}},{"_id":3437022,"name":"San Pedro del Parana","country":"PY","coord":{"lon":-56.200001,"lat":-26.83333}},{"_id":3437029,"name":"San Patricio","country":"PY","coord":{"lon":-56.816669,"lat":-26.966669}},{"_id":3437042,"name":"San Miguel","country":"PY","coord":{"lon":-57.049999,"lat":-26.5}},{"_id":3437059,"name":"San Juan Nepomuceno","country":"PY","coord":{"lon":-55.966671,"lat":-26.1}},{"_id":3437062,"name":"San Juan del Parana","country":"PY","coord":{"lon":-55.966671,"lat":-27.299999}},{"_id":3437063,"name":"San Juan Bautista","country":"PY","coord":{"lon":-57.145828,"lat":-26.669439}},{"_id":3437074,"name":"San Jose","country":"PY","coord":{"lon":-56.73333,"lat":-25.533331}},{"_id":3437086,"name":"San Joaquin","country":"PY","coord":{"lon":-56.116669,"lat":-24.950001}},{"_id":3437088,"name":"San Isidro de Curuguaty","country":"PY","coord":{"lon":-55.700001,"lat":-24.51667}},{"_id":3437107,"name":"San Cosme y Damian","country":"PY","coord":{"lon":-56.349998,"lat":-27.316669}},{"_id":3437148,"name":"Salto del Guaira","country":"PY","coord":{"lon":-54.306938,"lat":-24.0625}},{"_id":3437197,"name":"Repatriacion","country":"PY","coord":{"lon":-55.950001,"lat":-25.533331}},{"_id":3437215,"name":"Quiindy","country":"PY","coord":{"lon":-57.26667,"lat":-25.966669}},{"_id":3437342,"name":"Puerto Rosario","country":"PY","coord":{"lon":-57.083328,"lat":-24.450001}},{"_id":3437499,"name":"Pirayu","country":"PY","coord":{"lon":-57.23333,"lat":-25.48333}},{"_id":3437514,"name":"Pirapo","country":"PY","coord":{"lon":-55.533329,"lat":-26.85}},{"_id":3437547,"name":"Pedro Juan Caballero","country":"PY","coord":{"lon":-55.73333,"lat":-22.54722}},{"_id":3437600,"name":"Paraguari","country":"PY","coord":{"lon":-57.147221,"lat":-25.620831}},{"_id":3437652,"name":"Nueva Italia","country":"PY","coord":{"lon":-57.5,"lat":-25.616671}},{"_id":3437653,"name":"Nueva Germania","country":"PY","coord":{"lon":-56.566669,"lat":-23.9}},{"_id":3437681,"name":"Natalio","country":"PY","coord":{"lon":-55.083328,"lat":-26.716669}},{"_id":3437682,"name":"Natalicio Talavera","country":"PY","coord":{"lon":-56.299999,"lat":-25.633329}},{"_id":3437689,"name":"Naranjal","country":"PY","coord":{"lon":-55.183331,"lat":-25.966669}},{"_id":3437744,"name":"Mbuyapey","country":"PY","coord":{"lon":-56.75,"lat":-26.200001}},{"_id":3437748,"name":"Mbutuy","country":"PY","coord":{"lon":-56.299999,"lat":-24.966669}},{"_id":3437763,"name":"Mbocayaty","country":"PY","coord":{"lon":-56.400002,"lat":-25.700001}},{"_id":3437853,"name":"Las Palomas","country":"PY","coord":{"lon":-54.51667,"lat":-24.08333}},{"_id":3437868,"name":"La Colmena","country":"PY","coord":{"lon":-56.816669,"lat":-25.883329}},{"_id":3437898,"name":"Jesus","country":"PY","coord":{"lon":-55.783329,"lat":-27.049999}},{"_id":3437909,"name":"Iturbe","country":"PY","coord":{"lon":-56.48333,"lat":-26.049999}},{"_id":3437920,"name":"Itaquyry","country":"PY","coord":{"lon":-55.216671,"lat":-24.933331}},{"_id":3437927,"name":"Itape","country":"PY","coord":{"lon":-56.616669,"lat":-25.85}},{"_id":3437935,"name":"Itacurubi del Rosario","country":"PY","coord":{"lon":-56.683331,"lat":-24.5}},{"_id":3437936,"name":"Itacurubi de la Cordillera","country":"PY","coord":{"lon":-56.849998,"lat":-25.450001}},{"_id":3437962,"name":"Isla Pucu","country":"PY","coord":{"lon":-56.900002,"lat":-25.299999}},{"_id":3437982,"name":"Independencia","country":"PY","coord":{"lon":-56.25,"lat":-25.716669}},{"_id":3438034,"name":"Guayaybi","country":"PY","coord":{"lon":-56.433331,"lat":-24.533331}},{"_id":3438064,"name":"General Jose Eduvigis Diaz","country":"PY","coord":{"lon":-58.416672,"lat":-27.16667}},{"_id":3438066,"name":"General Higinio Morinigo","country":"PY","coord":{"lon":-55.916672,"lat":-25.950001}},{"_id":3438070,"name":"General Elizardo Aquino","country":"PY","coord":{"lon":-56.700001,"lat":-24.433331}},{"_id":3438076,"name":"General Delgado","country":"PY","coord":{"lon":-56.51667,"lat":-27.16667}},{"_id":3438080,"name":"General Artigas","country":"PY","coord":{"lon":-56.216671,"lat":-26.933331}},{"_id":3438102,"name":"Fuerte Olimpo","country":"PY","coord":{"lon":-57.873772,"lat":-21.041531}},{"_id":3438106,"name":"Fram","country":"PY","coord":{"lon":-55.883331,"lat":-26.98333}},{"_id":3438123,"name":"Eusebio Ayala","country":"PY","coord":{"lon":-56.966671,"lat":-25.4}},{"_id":3438738,"name":"Emboscada","country":"PY","coord":{"lon":-57.349998,"lat":-25.15}},{"_id":3438753,"name":"Doctor Juan Manuel Frutos","country":"PY","coord":{"lon":-55.799999,"lat":-25.366671}},{"_id":3438754,"name":"Doctor Juan Leon Mallorquin","country":"PY","coord":{"lon":-55.26667,"lat":-25.4}},{"_id":3438755,"name":"Doctor Cecilio Baez","country":"PY","coord":{"lon":-56.316669,"lat":-25.049999}},{"_id":3438816,"name":"Corpus Christi","country":"PY","coord":{"lon":-54.833328,"lat":-24.033331}},{"_id":3438822,"name":"Coronel Martinez","country":"PY","coord":{"lon":-56.616669,"lat":-25.75}},{"_id":3438872,"name":"Colonia Yguazu","country":"PY","coord":{"lon":-55.0,"lat":-25.450001}},{"_id":3438977,"name":"Colonia Minga Pora","country":"PY","coord":{"lon":-54.900002,"lat":-24.866671}},{"_id":3438981,"name":"Colonia Menno","country":"PY","coord":{"lon":-59.816669,"lat":-22.366671}},{"_id":3438991,"name":"Colonia Mauricio Jose Troche","country":"PY","coord":{"lon":-56.283329,"lat":-25.566669}},{"_id":3439032,"name":"Colonia General Alfredo Stroessner","country":"PY","coord":{"lon":-55.700001,"lat":-25.366671}},{"_id":3439062,"name":"Colonia Catuete","country":"PY","coord":{"lon":-54.616669,"lat":-24.133329}},{"_id":3439133,"name":"Cerrito","country":"PY","coord":{"lon":-57.666672,"lat":-27.316669}},{"_id":3439156,"name":"Carmen del Parana","country":"PY","coord":{"lon":-56.216671,"lat":-27.23333}},{"_id":3439159,"name":"Carlos Antonio Lopez","country":"PY","coord":{"lon":-54.76667,"lat":-26.4}},{"_id":3439163,"name":"Carayao","country":"PY","coord":{"lon":-56.400002,"lat":-25.183331}},{"_id":3439167,"name":"Carapegua","country":"PY","coord":{"lon":-57.23333,"lat":-25.799999}},{"_id":3439175,"name":"Caraguatay","country":"PY","coord":{"lon":-56.816669,"lat":-25.23333}},{"_id":3439189,"name":"Capitan Bado","country":"PY","coord":{"lon":-55.533329,"lat":-23.26667}},{"_id":3439208,"name":"Capiibary","country":"PY","coord":{"lon":-56.033329,"lat":-24.799999}},{"_id":3439304,"name":"Caapucu","country":"PY","coord":{"lon":-57.200001,"lat":-26.216669}},{"_id":3439325,"name":"Buena Vista","country":"PY","coord":{"lon":-56.083328,"lat":-26.183331}},{"_id":3439352,"name":"Bella Vista","country":"PY","coord":{"lon":-55.549999,"lat":-27.049999}},{"_id":3439355,"name":"Belen","country":"PY","coord":{"lon":-57.26194,"lat":-23.46611}},{"_id":3439378,"name":"Ayolas","country":"PY","coord":{"lon":-56.900002,"lat":-27.4}},{"_id":3439386,"name":"Atyra","country":"PY","coord":{"lon":-57.166672,"lat":-25.25}},{"_id":3439395,"name":"Arroyos y Esteros","country":"PY","coord":{"lon":-57.099998,"lat":-25.066669}},{"_id":3439402,"name":"Arquitecto Tomas Romero Pereira","country":"PY","coord":{"lon":-55.25,"lat":-26.48333}},{"_id":3439403,"name":"Aregua","country":"PY","coord":{"lon":-57.38472,"lat":-25.3125}},{"_id":3439423,"name":"Antequera","country":"PY","coord":{"lon":-57.083328,"lat":-24.133329}},{"_id":3439482,"name":"Acahay","country":"PY","coord":{"lon":-57.150002,"lat":-25.91667}},{"_id":3439483,"name":"Abai","country":"PY","coord":{"lon":-55.933331,"lat":-26.033331}},{"_id":3480780,"name":"Horqueta","country":"PY","coord":{"lon":-57.059719,"lat":-23.342779}},{"_id":3867411,"name":"Colonia Neuland","country":"PY","coord":{"lon":-60.116669,"lat":-22.66667}},{"_id":3867427,"name":"Capitan Pablo Lagerenza","country":"PY","coord":{"lon":-60.783329,"lat":-19.91667}}]}
