{"countryCode":"UA","countryName":"Ukraine","countryFilePath":"UA.json","countryCityList":[{"_id":707860,"name":"Hurzuf","country":"UA","coord":{"lon":34.283333,"lat":44.549999}},{"_id":708546,"name":"Holubynka","country":"UA","coord":{"lon":33.900002,"lat":44.599998}},{"_id":703363,"name":"Laspi","country":"UA","coord":{"lon":33.733334,"lat":44.416668}},{"_id":713514,"name":"Alupka","country":"UA","coord":{"lon":34.049999,"lat":44.416668}},{"_id":690856,"name":"Tyuzler","country":"UA","coord":{"lon":34.083332,"lat":44.466667}},{"_id":707716,"name":"Il’ichëvka","country":"UA","coord":{"lon":34.383331,"lat":44.666668}},{"_id":697959,"name":"Partyzans’ke","country":"UA","coord":{"lon":34.083332,"lat":44.833332}},{"_id":711349,"name":"Bucha","country":"UA","coord":{"lon":30.366671,"lat":50.583328}},{"_id":688105,"name":"Yevpatoriya","country":"UA","coord":{"lon":33.355831,"lat":45.197224}},{"_id":703845,"name":"Kryvyy Rih","country":"UA","coord":{"lon":33.349998,"lat":47.916668}},{"_id":690791,"name":"Ukraine","country":"UA","coord":{"lon":32.0,"lat":49.0}},{"_id":703447,"name":"Misto Kyyiv","country":"UA","coord":{"lon":30.516666,"lat":50.433334}},{"_id":703883,"name":"Avtonomna Respublika Krym","country":"UA","coord":{"lon":34.0,"lat":45.0}},{"_id":689552,"name":"Vinogradnoye","country":"UA","coord":{"lon":34.099998,"lat":44.483334}},{"_id":703446,"name":"Kyyivs’ka Oblast’","country":"UA","coord":{"lon":30.5,"lat":50.25}},{"_id":696234,"name":"Privol’noye","country":"UA","coord":{"lon":34.333332,"lat":44.783333}},{"_id":711987,"name":"Bobyanskoye","country":"UA","coord":{"lon":34.366669,"lat":44.650002}},{"_id":709584,"name":"Druzhba","country":"UA","coord":{"lon":33.945278,"lat":52.042778}},{"_id":707611,"name":"Imshanaya","country":"UA","coord":{"lon":33.783333,"lat":51.900002}},{"_id":688041,"name":"Yurov","country":"UA","coord":{"lon":29.733334,"lat":50.416668}},{"_id":701619,"name":"Massandra","country":"UA","coord":{"lon":34.183334,"lat":44.516666}},{"_id":703776,"name":"Kudryne","country":"UA","coord":{"lon":33.950001,"lat":44.700001}},{"_id":704360,"name":"Krasnopeshchernaya","country":"UA","coord":{"lon":34.333332,"lat":44.866669}},{"_id":713772,"name":"Aeroflots’kyy","country":"UA","coord":{"lon":34.033333,"lat":45.016666}},{"_id":703973,"name":"Krucha","country":"UA","coord":{"lon":34.650002,"lat":46.183334}},{"_id":713155,"name":"-","country":"UA","coord":{"lon":33.866669,"lat":46.450001}},{"_id":692248,"name":"Sukhoivanovskoye","country":"UA","coord":{"lon":35.366669,"lat":47.583332}},{"_id":700755,"name":"Morozovskiy","country":"UA","coord":{"lon":35.416668,"lat":48.366669}},{"_id":709624,"name":"Dravtse","country":"UA","coord":{"lon":22.333332,"lat":48.583332}},{"_id":6723018,"name":"Shatylivka","country":"UA","coord":{"lon":36.233105,"lat":50.019814}},{"_id":695305,"name":"Rozovka","country":"UA","coord":{"lon":35.316669,"lat":47.216671}},{"_id":712443,"name":"Berdyanskoye","country":"UA","coord":{"lon":37.44722,"lat":47.100559}},{"_id":709930,"name":"Dnipropetrovsk","country":"UA","coord":{"lon":34.98333,"lat":48.450001}},{"_id":695394,"name":"Rosvigovo","country":"UA","coord":{"lon":22.701941,"lat":48.451172}},{"_id":687640,"name":"Zarech’ye","country":"UA","coord":{"lon":30.10129,"lat":49.788898}},{"_id":700918,"name":"Mohyliv-Podilskyy","country":"UA","coord":{"lon":27.798201,"lat":48.44598}},{"_id":707155,"name":"Kalynivka","country":"UA","coord":{"lon":28.526079,"lat":49.453892}},{"_id":713163,"name":"Artsyz","country":"UA","coord":{"lon":29.41824,"lat":45.99194}},{"_id":461727,"name":"Olenevka","country":"UA","coord":{"lon":32.533329,"lat":45.383331}},{"_id":505257,"name":"Urzuf","country":"UA","coord":{"lon":37.099609,"lat":46.915619}},{"_id":616196,"name":"Staryy Dobrotvor","country":"UA","coord":{"lon":24.377001,"lat":50.231541}},{"_id":686812,"name":"Zuya","country":"UA","coord":{"lon":34.315418,"lat":45.053101}},{"_id":686863,"name":"Zolotyy Potik","country":"UA","coord":{"lon":25.33926,"lat":48.9095}},{"_id":686895,"name":"Zolochiv","country":"UA","coord":{"lon":35.981781,"lat":50.27985}},{"_id":686932,"name":"Zlynka","country":"UA","coord":{"lon":31.539061,"lat":48.485222}},{"_id":686970,"name":"Zhvanets","country":"UA","coord":{"lon":26.48744,"lat":48.549679}},{"_id":687009,"name":"Zhuravka","country":"UA","coord":{"lon":32.594898,"lat":50.481079}},{"_id":687065,"name":"Zhovtneve","country":"UA","coord":{"lon":24.24918,"lat":50.663651}},{"_id":687191,"name":"Zhelyabovka","country":"UA","coord":{"lon":34.757759,"lat":45.398769}},{"_id":687433,"name":"Zdolbitsa","country":"UA","coord":{"lon":26.24111,"lat":50.496071}},{"_id":687526,"name":"Zavallya","country":"UA","coord":{"lon":30.015579,"lat":48.213539}},{"_id":687556,"name":"Karolino-Buhaz","country":"UA","coord":{"lon":30.526091,"lat":46.14492}},{"_id":687557,"name":"Zatoka","country":"UA","coord":{"lon":30.46538,"lat":46.07251}},{"_id":687562,"name":"Zatyshshya","country":"UA","coord":{"lon":29.87327,"lat":47.333511}},{"_id":687578,"name":"Zastavna","country":"UA","coord":{"lon":25.843691,"lat":48.523071}},{"_id":687602,"name":"Zarya","country":"UA","coord":{"lon":29.69672,"lat":45.990799}},{"_id":687645,"name":"Zarichchya","country":"UA","coord":{"lon":24.648569,"lat":48.521439}},{"_id":687652,"name":"Zarichne","country":"UA","coord":{"lon":26.129021,"lat":51.812599}},{"_id":687726,"name":"Zaozerne","country":"UA","coord":{"lon":33.27866,"lat":45.158161}},{"_id":687787,"name":"Zaliztsi","country":"UA","coord":{"lon":25.372971,"lat":49.791882}},{"_id":687790,"name":"Zheleznyj port","country":"UA","coord":{"lon":32.283329,"lat":46.116669}},{"_id":687796,"name":"Zaliznychne","country":"UA","coord":{"lon":36.165241,"lat":47.652382}},{"_id":687797,"name":"Zaliznychne","country":"UA","coord":{"lon":28.61466,"lat":45.748901}},{"_id":687824,"name":"Zalesnoye","country":"UA","coord":{"lon":38.809341,"lat":48.03104}},{"_id":687841,"name":"Zakupne","country":"UA","coord":{"lon":26.337561,"lat":49.119438}},{"_id":687872,"name":"Zahvizdya","country":"UA","coord":{"lon":24.65275,"lat":48.918362}},{"_id":687901,"name":"Zagnitkiv","country":"UA","coord":{"lon":28.89234,"lat":48.048779}},{"_id":688052,"name":"Yurkivka","country":"UA","coord":{"lon":31.10125,"lat":49.012562}},{"_id":688127,"name":"Yerky","country":"UA","coord":{"lon":30.98818,"lat":48.99062}},{"_id":688191,"name":"Yelyzavethradka","country":"UA","coord":{"lon":32.404598,"lat":48.80381}},{"_id":688365,"name":"Yasinya","country":"UA","coord":{"lon":24.36042,"lat":48.279369}},{"_id":688512,"name":"Yamnytsya","country":"UA","coord":{"lon":24.7075,"lat":48.989719}},{"_id":688532,"name":"Yalta","country":"UA","coord":{"lon":37.273651,"lat":46.962791}},{"_id":688602,"name":"Yahilnytsya","country":"UA","coord":{"lon":25.74374,"lat":48.942478}},{"_id":688625,"name":"Yabluniv","country":"UA","coord":{"lon":24.93874,"lat":48.404179}},{"_id":688637,"name":"Yablunytsya","country":"UA","coord":{"lon":24.48448,"lat":48.317421}},{"_id":688717,"name":"Vyshkovo","country":"UA","coord":{"lon":23.421129,"lat":48.04911}},{"_id":688749,"name":"Vylok","country":"UA","coord":{"lon":22.83865,"lat":48.10915}},{"_id":688750,"name":"Vylkove","country":"UA","coord":{"lon":29.585951,"lat":45.402142}},{"_id":688805,"name":"Vvedenka","country":"UA","coord":{"lon":36.507469,"lat":49.824409}},{"_id":688846,"name":"Vradiyivka","country":"UA","coord":{"lon":30.591949,"lat":47.86195}},{"_id":688865,"name":"Voznesenka","country":"UA","coord":{"lon":35.464581,"lat":46.871651}},{"_id":688904,"name":"Voykove","country":"UA","coord":{"lon":36.437241,"lat":45.38261}},{"_id":688951,"name":"Voskhod","country":"UA","coord":{"lon":36.414101,"lat":45.339199}},{"_id":688961,"name":"Vorozhba","country":"UA","coord":{"lon":34.21917,"lat":51.17334}},{"_id":689003,"name":"Voronovytsya","country":"UA","coord":{"lon":28.68078,"lat":49.109539}},{"_id":689106,"name":"Volovets","country":"UA","coord":{"lon":23.185101,"lat":48.710899}},{"_id":689144,"name":"Voloka","country":"UA","coord":{"lon":25.93074,"lat":48.192249}},{"_id":689190,"name":"Volnoye","country":"UA","coord":{"lon":34.813869,"lat":47.636459}},{"_id":689307,"name":"Voyinka","country":"UA","coord":{"lon":33.991379,"lat":45.8699}},{"_id":689428,"name":"Volodymyrets","country":"UA","coord":{"lon":26.14469,"lat":51.421299}},{"_id":689434,"name":"Vyzhnytsya","country":"UA","coord":{"lon":25.194521,"lat":48.248009}},{"_id":689488,"name":"Vyshneve","country":"UA","coord":{"lon":33.91618,"lat":48.436611}},{"_id":689531,"name":"Vynohradove","country":"UA","coord":{"lon":32.9398,"lat":46.369572}},{"_id":689543,"name":"Vynohradivka","country":"UA","coord":{"lon":28.571381,"lat":45.68119}},{"_id":689595,"name":"Viline","country":"UA","coord":{"lon":33.671612,"lat":44.8456}},{"_id":689736,"name":"Vesele","country":"UA","coord":{"lon":34.915039,"lat":47.01479}},{"_id":689817,"name":"Verkhovyna","country":"UA","coord":{"lon":24.791121,"lat":48.155708}},{"_id":689830,"name":"Verkhnyaya Syrovatka","country":"UA","coord":{"lon":34.958611,"lat":50.829021}},{"_id":689834,"name":"Verkhnya Rozhanka","country":"UA","coord":{"lon":23.51569,"lat":48.791851}},{"_id":689857,"name":"Verkhnyachka","country":"UA","coord":{"lon":30.03957,"lat":48.828491}},{"_id":689860,"name":"Verkhniy Yasenov","country":"UA","coord":{"lon":24.94532,"lat":48.16156}},{"_id":689868,"name":"Verkhniy Rohachyk","country":"UA","coord":{"lon":34.337971,"lat":47.250542}},{"_id":689892,"name":"Verkhneye Sinevidnoye","country":"UA","coord":{"lon":23.59099,"lat":49.103069}},{"_id":689945,"name":"Verenchanka","country":"UA","coord":{"lon":25.745331,"lat":48.546532}},{"_id":690009,"name":"Verbivka","country":"UA","coord":{"lon":35.533329,"lat":49.416672}},{"_id":690032,"name":"Vendychany","country":"UA","coord":{"lon":27.79324,"lat":48.611759}},{"_id":690035,"name":"Velykoploske","country":"UA","coord":{"lon":29.671709,"lat":47.012539}},{"_id":690038,"name":"Velyka Mykhaylivka","country":"UA","coord":{"lon":29.851391,"lat":47.079441}},{"_id":690132,"name":"Velykyy Klyuchiv","country":"UA","coord":{"lon":24.946779,"lat":48.470921}},{"_id":690147,"name":"Velikiye Sorochintsy","country":"UA","coord":{"lon":33.941441,"lat":50.02314}},{"_id":690165,"name":"Velyki Kopany","country":"UA","coord":{"lon":32.974979,"lat":46.486839}},{"_id":690184,"name":"Velikiye Borki","country":"UA","coord":{"lon":25.75753,"lat":49.52364}},{"_id":690193,"name":"Velikiy Burluk","country":"UA","coord":{"lon":37.398708,"lat":50.037868}},{"_id":690230,"name":"Velyka Pysarivka","country":"UA","coord":{"lon":35.48502,"lat":50.425869}},{"_id":690285,"name":"Velyka Bahachka","country":"UA","coord":{"lon":33.72258,"lat":49.791161}},{"_id":690428,"name":"Vashkivtsi","country":"UA","coord":{"lon":25.510229,"lat":48.384918}},{"_id":690434,"name":"Vary","country":"UA","coord":{"lon":22.712811,"lat":48.12207}},{"_id":690485,"name":"Vapnyarka","country":"UA","coord":{"lon":28.74358,"lat":48.53479}},{"_id":690571,"name":"Utkivka","country":"UA","coord":{"lon":36.075279,"lat":49.785831}},{"_id":690600,"name":"Ustynivka","country":"UA","coord":{"lon":32.536739,"lat":47.95507}},{"_id":690673,"name":"Uralo-Kavkaz","country":"UA","coord":{"lon":39.825371,"lat":48.295761}},{"_id":690679,"name":"Nyzhni Petrivtsi","country":"UA","coord":{"lon":25.72327,"lat":48.028469}},{"_id":690745,"name":"Ulichnoye","country":"UA","coord":{"lon":23.65111,"lat":49.233849}},{"_id":690756,"name":"Ulanov","country":"UA","coord":{"lon":28.13298,"lat":49.695122}},{"_id":690804,"name":"Uhryniv","country":"UA","coord":{"lon":24.692921,"lat":48.9552}},{"_id":690814,"name":"Ugnev","country":"UA","coord":{"lon":23.748949,"lat":50.368111}},{"_id":690820,"name":"Uhlove","country":"UA","coord":{"lon":33.604519,"lat":44.821461}},{"_id":690875,"name":"Tysmenychany","country":"UA","coord":{"lon":24.66626,"lat":48.771679}},{"_id":690890,"name":"Tynnoye","country":"UA","coord":{"lon":26.18486,"lat":50.601452}},{"_id":690985,"name":"Turbiv","country":"UA","coord":{"lon":28.72117,"lat":49.347881}},{"_id":691019,"name":"Tukhlya","country":"UA","coord":{"lon":23.47303,"lat":48.912182}},{"_id":691051,"name":"Tsybulevka","country":"UA","coord":{"lon":29.10288,"lat":48.387192}},{"_id":691052,"name":"Tsybli","country":"UA","coord":{"lon":31.562811,"lat":49.994839}},{"_id":692410,"name":"Strohonivka","country":"UA","coord":{"lon":34.197269,"lat":44.943089}},{"_id":692468,"name":"Stozhkovskoye","country":"UA","coord":{"lon":38.4925,"lat":48.113331}},{"_id":692604,"name":"Stepanivka","country":"UA","coord":{"lon":29.986839,"lat":46.794891}},{"_id":693002,"name":"Serednye","country":"UA","coord":{"lon":22.50696,"lat":48.540428}},{"_id":700181,"name":"Mykolayivka","country":"UA","coord":{"lon":33.614429,"lat":44.96714}},{"_id":711623,"name":"Borova","country":"UA","coord":{"lon":37.621361,"lat":49.377701}},{"_id":796868,"name":"Mykhaylivka","country":"UA","coord":{"lon":36.262699,"lat":45.28669}},{"_id":703448,"name":"Kiev","country":"UA","coord":{"lon":30.516666,"lat":50.433334}},{"_id":699996,"name":"Nizhniy Airgul’","country":"UA","coord":{"lon":33.950001,"lat":44.599998}},{"_id":691184,"name":"Trukhanov Ostrov","country":"UA","coord":{"lon":30.533333,"lat":50.466667}},{"_id":696877,"name":"Podol","country":"UA","coord":{"lon":30.516666,"lat":50.466667}},{"_id":703863,"name":"Sanatoriy Kryms’ke Prymor”ya","country":"UA","coord":{"lon":35.183334,"lat":44.900002}},{"_id":815919,"name":"Sorokin","country":"UA","coord":{"lon":34.036667,"lat":52.15778}},{"_id":688533,"name":"Yalta","country":"UA","coord":{"lon":34.166668,"lat":44.5}},{"_id":712160,"name":"Bilhorod-Dnistrovskyy","country":"UA","coord":{"lon":30.35,"lat":46.200001}},{"_id":712374,"name":"Berezhani","country":"UA","coord":{"lon":24.933332,"lat":49.450001}},{"_id":690017,"name":"Verbany","country":"UA","coord":{"lon":30.01667,"lat":47.0}},{"_id":713101,"name":"Avtozavodskiy Rayon","country":"UA","coord":{"lon":33.416672,"lat":49.066669}},{"_id":712861,"name":"Bar","country":"UA","coord":{"lon":27.68256,"lat":49.077171}},{"_id":711487,"name":"Brailiv","country":"UA","coord":{"lon":28.174589,"lat":49.109859}},{"_id":710878,"name":"Chekhovo","country":"UA","coord":{"lon":34.133331,"lat":44.5}},{"_id":710425,"name":"Chokolovka","country":"UA","coord":{"lon":30.450001,"lat":50.416668}},{"_id":709716,"name":"Donets’ka Oblast’","country":"UA","coord":{"lon":37.5,"lat":48.0}},{"_id":709717,"name":"Donetsk","country":"UA","coord":{"lon":37.799999,"lat":48.0}},{"_id":693272,"name":"Sokolyne","country":"UA","coord":{"lon":33.966667,"lat":44.549999}},{"_id":699318,"name":"Novopillya","country":"UA","coord":{"lon":33.916668,"lat":44.583332}},{"_id":699072,"name":"Novoul’yanovka","country":"UA","coord":{"lon":33.866669,"lat":44.599998}},{"_id":703498,"name":"Kuybysheve","country":"UA","coord":{"lon":33.866669,"lat":44.650002}},{"_id":711743,"name":"Velyke Sadove","country":"UA","coord":{"lon":33.833332,"lat":44.633331}},{"_id":691919,"name":"Tankove","country":"UA","coord":{"lon":33.816666,"lat":44.650002}},{"_id":704201,"name":"Krasnyy Mak","country":"UA","coord":{"lon":33.783333,"lat":44.650002}},{"_id":687825,"name":"Zalisne","country":"UA","coord":{"lon":33.783333,"lat":44.616669}},{"_id":691462,"name":"Tole","country":"UA","coord":{"lon":33.816666,"lat":44.716667}},{"_id":712969,"name":"Bakhchysaray","country":"UA","coord":{"lon":33.866669,"lat":44.75}},{"_id":690973,"name":"Turhenyevka","country":"UA","coord":{"lon":33.833332,"lat":44.700001}},{"_id":712773,"name":"Bashtanivka","country":"UA","coord":{"lon":33.900002,"lat":44.683334}},{"_id":692800,"name":"Starosel’ye","country":"UA","coord":{"lon":33.916668,"lat":44.75}},{"_id":708727,"name":"Hlybokyy Yar","country":"UA","coord":{"lon":33.933334,"lat":44.766666}},{"_id":697960,"name":"Partizanskoye","country":"UA","coord":{"lon":34.0,"lat":44.75}},{"_id":700416,"name":"Nauchnyy","country":"UA","coord":{"lon":34.016666,"lat":44.733334}},{"_id":696050,"name":"Pushcha-Voditsa","country":"UA","coord":{"lon":30.5,"lat":50.450001}},{"_id":703625,"name":"Kurenëvka","country":"UA","coord":{"lon":30.466667,"lat":50.483334}},{"_id":711660,"name":"Boryspil","country":"UA","coord":{"lon":30.950001,"lat":50.349998}},{"_id":700072,"name":"Nikol’skaya","country":"UA","coord":{"lon":30.583332,"lat":50.450001}},{"_id":696359,"name":"Predmostnaya","country":"UA","coord":{"lon":30.583332,"lat":50.433334}},{"_id":710276,"name":"Darnitsa","country":"UA","coord":{"lon":30.633333,"lat":50.433334}},{"_id":711562,"name":"Bortnichi","country":"UA","coord":{"lon":30.683332,"lat":50.366669}},{"_id":698283,"name":"Osokorki","country":"UA","coord":{"lon":30.6,"lat":50.400002}},{"_id":699317,"name":"Novo-Poznyaki","country":"UA","coord":{"lon":30.633333,"lat":50.416668}},{"_id":701759,"name":"Martusovka","country":"UA","coord":{"lon":30.866667,"lat":50.299999}},{"_id":707305,"name":"Izobil’ne","country":"UA","coord":{"lon":34.349998,"lat":44.716667}},{"_id":713150,"name":"Asport","country":"UA","coord":{"lon":34.25,"lat":44.716667}},{"_id":700661,"name":"Mramorne","country":"UA","coord":{"lon":34.25,"lat":44.816666}},{"_id":709602,"name":"Drovyanka","country":"UA","coord":{"lon":34.099998,"lat":44.783333}},{"_id":703596,"name":"Kurortne","country":"UA","coord":{"lon":35.150002,"lat":44.900002}},{"_id":694320,"name":"Shchebetovka","country":"UA","coord":{"lon":35.150002,"lat":44.933334}},{"_id":713746,"name":"Akikat","country":"UA","coord":{"lon":35.066666,"lat":44.916668}},{"_id":694385,"name":"Shakh-Murza Staraya","country":"UA","coord":{"lon":35.016666,"lat":44.983334}},{"_id":697652,"name":"Perevalivka","country":"UA","coord":{"lon":34.983334,"lat":44.966667}},{"_id":703169,"name":"Lisne","country":"UA","coord":{"lon":34.950001,"lat":44.933334}},{"_id":709267,"name":"Eski Yurt","country":"UA","coord":{"lon":34.900002,"lat":44.950001}},{"_id":687301,"name":"Zemlyanychne","country":"UA","coord":{"lon":34.833332,"lat":44.966667}},{"_id":710680,"name":"Chernoslivka","country":"UA","coord":{"lon":34.75,"lat":44.950001}},{"_id":687388,"name":"Arpat","country":"UA","coord":{"lon":34.716667,"lat":44.866669}},{"_id":704324,"name":"Krasnoselivka","country":"UA","coord":{"lon":34.633331,"lat":44.916668}},{"_id":697811,"name":"Pcholyne","country":"UA","coord":{"lon":34.549999,"lat":44.933334}},{"_id":706557,"name":"Kazil’","country":"UA","coord":{"lon":34.5,"lat":44.950001}},{"_id":701300,"name":"Baksan","country":"UA","coord":{"lon":34.416668,"lat":44.966667}},{"_id":705127,"name":"Konrat","country":"UA","coord":{"lon":34.416668,"lat":44.983334}},{"_id":691743,"name":"Telichka","country":"UA","coord":{"lon":30.566668,"lat":50.400002}},{"_id":692196,"name":"Sums’ka Oblast’","country":"UA","coord":{"lon":34.0,"lat":51.0}},{"_id":709681,"name":"Doroshivka","country":"UA","coord":{"lon":33.858891,"lat":52.029167}},{"_id":688501,"name":"Yampil","country":"UA","coord":{"lon":33.783333,"lat":51.950001}},{"_id":701500,"name":"Mayorovka","country":"UA","coord":{"lon":33.266666,"lat":51.483334}},{"_id":710734,"name":"Chernihivs’ka Oblast’","country":"UA","coord":{"lon":32.0,"lat":51.0}},{"_id":706098,"name":"Khutor Fomina","country":"UA","coord":{"lon":31.766666,"lat":51.200001}},{"_id":704218,"name":"Krasnyye Partizany","country":"UA","coord":{"lon":31.783333,"lat":50.950001}},{"_id":711999,"name":"Bobrovytsya","country":"UA","coord":{"lon":31.383333,"lat":50.75}},{"_id":701779,"name":"Markovtsy","country":"UA","coord":{"lon":31.25,"lat":50.733334}},{"_id":699871,"name":"Novaya Darnitsa","country":"UA","coord":{"lon":30.65,"lat":50.433334}},{"_id":703757,"name":"Kukhmisterskaya Sloboda","country":"UA","coord":{"lon":30.6,"lat":50.416668}},{"_id":696377,"name":"Poznyaki","country":"UA","coord":{"lon":30.616667,"lat":50.400002}},{"_id":707470,"name":"Ivano-Frankivs’ka Oblast’","country":"UA","coord":{"lon":24.5,"lat":48.5}},{"_id":689037,"name":"Vorokhta","country":"UA","coord":{"lon":24.571943,"lat":48.286945}},{"_id":686966,"name":"Zhytomyrs’ka Oblast’","country":"UA","coord":{"lon":28.5,"lat":50.5}},{"_id":705514,"name":"Kocherovo","country":"UA","coord":{"lon":29.35,"lat":50.349998}},{"_id":706021,"name":"Khutor Pen’kovatoye","country":"UA","coord":{"lon":29.416668,"lat":50.366669}},{"_id":704183,"name":"Krasnyy Shlyakh","country":"UA","coord":{"lon":29.433332,"lat":50.366669}},{"_id":688675,"name":"Vysokoye","country":"UA","coord":{"lon":29.516666,"lat":50.383331}},{"_id":692672,"name":"Stavyshche","country":"UA","coord":{"lon":29.533333,"lat":50.400002}},{"_id":700396,"name":"Nebilitsa","country":"UA","coord":{"lon":29.6,"lat":50.416668}},{"_id":693738,"name":"Sitnyaki","country":"UA","coord":{"lon":29.700001,"lat":50.416668}},{"_id":706082,"name":"Khutor Kalinovka","country":"UA","coord":{"lon":29.799999,"lat":50.416668}},{"_id":705015,"name":"Kopylov","country":"UA","coord":{"lon":29.883333,"lat":50.400002}},{"_id":688726,"name":"Vyshegrad","country":"UA","coord":{"lon":29.933332,"lat":50.450001}},{"_id":705303,"name":"Kolonshchina","country":"UA","coord":{"lon":29.966667,"lat":50.450001}},{"_id":711055,"name":"Buzovaya","country":"UA","coord":{"lon":30.033333,"lat":50.416668}},{"_id":712590,"name":"Belogorodka","country":"UA","coord":{"lon":30.216667,"lat":50.383331}},{"_id":697418,"name":"Petropavlovskaya Borshchagovka","country":"UA","coord":{"lon":30.333332,"lat":50.433334}},{"_id":712631,"name":"Belichi","country":"UA","coord":{"lon":30.35,"lat":50.466667}},{"_id":692014,"name":"Svyatoshino","country":"UA","coord":{"lon":30.366667,"lat":50.450001}},{"_id":711390,"name":"Brovary","country":"UA","coord":{"lon":30.766666,"lat":50.5}},{"_id":706081,"name":"Khutor Kalinovka","country":"UA","coord":{"lon":30.833332,"lat":50.566666}},{"_id":711919,"name":"Bogdanovka","country":"UA","coord":{"lon":30.916668,"lat":50.633331}},{"_id":694558,"name":"Semypolky","country":"UA","coord":{"lon":30.933332,"lat":50.716667}},{"_id":707123,"name":"Kalita","country":"UA","coord":{"lon":31.016666,"lat":50.75}},{"_id":688157,"name":"Yemel’yanov","country":"UA","coord":{"lon":31.033333,"lat":50.766666}},{"_id":691991,"name":"Syrai","country":"UA","coord":{"lon":31.049999,"lat":50.849998}},{"_id":689772,"name":"Vesëloye","country":"UA","coord":{"lon":33.966667,"lat":45.0}},{"_id":704393,"name":"Krasnogorovka","country":"UA","coord":{"lon":37.516666,"lat":48.016666}},{"_id":691606,"name":"Terny","country":"UA","coord":{"lon":33.983334,"lat":50.983334}},{"_id":706043,"name":"Khutor Naumovskiy","country":"UA","coord":{"lon":32.0,"lat":51.0}},{"_id":688455,"name":"Yaremche","country":"UA","coord":{"lon":24.551945,"lat":48.458332}},{"_id":693585,"name":"Slavov","country":"UA","coord":{"lon":28.533333,"lat":50.483334}},{"_id":71296900,"name":"Голубинка","country":"UA","coord":{"lon":33.92,"lat":44.59}},{"_id":700924,"name":"Mogilëv","country":"UA","coord":{"lon":30.35,"lat":53.900002}},{"_id":709112,"name":"Foros","country":"UA","coord":{"lon":33.783333,"lat":44.400002}},{"_id":698466,"name":"Opolzneve","country":"UA","coord":{"lon":33.933334,"lat":44.400002}},{"_id":693372,"name":"Snitovskoye","country":"UA","coord":{"lon":33.866669,"lat":44.416668}},{"_id":700997,"name":"Miskhor","country":"UA","coord":{"lon":34.083332,"lat":44.433334}},{"_id":706452,"name":"Tylove","country":"UA","coord":{"lon":33.733334,"lat":44.433334}},{"_id":703586,"name":"Kurpaty","country":"UA","coord":{"lon":34.116669,"lat":44.433334}},{"_id":696961,"name":"Pidhirne","country":"UA","coord":{"lon":33.816666,"lat":44.450001}},{"_id":695572,"name":"Rodnykivs’ke","country":"UA","coord":{"lon":33.849998,"lat":44.466667}},{"_id":705440,"name":"Kolkhozne","country":"UA","coord":{"lon":33.883331,"lat":44.466667}},{"_id":702907,"name":"Livadiya","country":"UA","coord":{"lon":34.150002,"lat":44.466667}},{"_id":708408,"name":"Gornaya Zdravnitsa","country":"UA","coord":{"lon":34.133331,"lat":44.466667}},{"_id":707552,"name":"Isar","country":"UA","coord":{"lon":34.099998,"lat":44.5}},{"_id":696310,"name":"Prigorodnoye","country":"UA","coord":{"lon":33.599998,"lat":44.516666}},{"_id":712930,"name":"Balaklava","country":"UA","coord":{"lon":33.599998,"lat":44.5}},{"_id":698159,"name":"Otradnoye","country":"UA","coord":{"lon":34.233334,"lat":44.5}},{"_id":713520,"name":"Alsu","country":"UA","coord":{"lon":33.716667,"lat":44.516666}},{"_id":688952,"name":"Voskhod","country":"UA","coord":{"lon":34.216667,"lat":44.516666}},{"_id":690647,"name":"Ushchel’noye","country":"UA","coord":{"lon":34.166668,"lat":44.516666}},{"_id":711527,"name":"Nikita","country":"UA","coord":{"lon":34.233334,"lat":44.533333}},{"_id":700182,"name":"Mykolayivka","country":"UA","coord":{"lon":33.533333,"lat":44.549999}},{"_id":693056,"name":"Sovetskoye","country":"UA","coord":{"lon":34.166668,"lat":44.549999}},{"_id":709761,"name":"Dolossy","country":"UA","coord":{"lon":34.200001,"lat":44.533333}},{"_id":699992,"name":"Nizhniy Chorgun’","country":"UA","coord":{"lon":33.683334,"lat":44.533333}},{"_id":706372,"name":"Khmel’nyts’ke","country":"UA","coord":{"lon":33.650002,"lat":44.549999}},{"_id":713191,"name":"Artek","country":"UA","coord":{"lon":34.299999,"lat":44.566666}},{"_id":704377,"name":"Krasnokamenka","country":"UA","coord":{"lon":34.283333,"lat":44.566666}},{"_id":694393,"name":"Shablykina","country":"UA","coord":{"lon":33.433334,"lat":44.583332}},{"_id":694728,"name":"Schastlivoye","country":"UA","coord":{"lon":34.066666,"lat":44.566666}},{"_id":712576,"name":"Inkerman","country":"UA","coord":{"lon":33.599998,"lat":44.599998}},{"_id":691634,"name":"Ternivka","country":"UA","coord":{"lon":33.75,"lat":44.583332}},{"_id":694422,"name":"Misto Sevastopol’","country":"UA","coord":{"lon":33.533333,"lat":44.599998}},{"_id":694423,"name":"Sevastopol","country":"UA","coord":{"lon":33.533333,"lat":44.599998}},{"_id":707526,"name":"Istoki","country":"UA","coord":{"lon":33.833332,"lat":44.583332}},{"_id":704116,"name":"Urochyshche Kripke","country":"UA","coord":{"lon":33.733334,"lat":44.616669}},{"_id":712223,"name":"Beshuyskiye Kopi","country":"UA","coord":{"lon":34.183334,"lat":44.650002}},{"_id":701419,"name":"Mekenziyevy Gory","country":"UA","coord":{"lon":33.583332,"lat":44.616669}},{"_id":712796,"name":"Bartenivka","country":"UA","coord":{"lon":33.549999,"lat":44.633331}},{"_id":690847,"name":"Uchkuyeva","country":"UA","coord":{"lon":33.533333,"lat":44.633331}},{"_id":701947,"name":"Malyy Mayak","country":"UA","coord":{"lon":34.366669,"lat":44.616669}},{"_id":695947,"name":"Rabochiy Ugolok","country":"UA","coord":{"lon":34.400002,"lat":44.650002}},{"_id":687670,"name":"Zaprudnoye","country":"UA","coord":{"lon":34.316666,"lat":44.599998}},{"_id":702463,"name":"Lyubymivka","country":"UA","coord":{"lon":33.566666,"lat":44.666668}},{"_id":713513,"name":"Alushta","country":"UA","coord":{"lon":34.416668,"lat":44.666668}},{"_id":703518,"name":"Verkhnya Kutuzovka","country":"UA","coord":{"lon":34.366669,"lat":44.733334}},{"_id":694574,"name":"Semydvir”ya","country":"UA","coord":{"lon":34.466667,"lat":44.716667}},{"_id":693070,"name":"Sotera","country":"UA","coord":{"lon":34.5,"lat":44.733334}},{"_id":702705,"name":"Luchyste","country":"UA","coord":{"lon":34.400002,"lat":44.75}},{"_id":708879,"name":"Heneral’s’ke","country":"UA","coord":{"lon":34.483334,"lat":44.799999}},{"_id":693698,"name":"Skalyste","country":"UA","coord":{"lon":33.966667,"lat":44.816666}},{"_id":701611,"name":"Matiasa","country":"UA","coord":{"lon":35.016666,"lat":44.833332}},{"_id":698866,"name":"Novyi Svit","country":"UA","coord":{"lon":34.900002,"lat":44.816666}},{"_id":697653,"name":"Perevalnoe","country":"UA","coord":{"lon":34.333332,"lat":44.833332}},{"_id":690557,"name":"Uyutnaya","country":"UA","coord":{"lon":34.950001,"lat":44.833332}},{"_id":692315,"name":"Sudak","country":"UA","coord":{"lon":34.966667,"lat":44.849998}},{"_id":693219,"name":"Sonyachna Dolyna","country":"UA","coord":{"lon":35.099998,"lat":44.866669}},{"_id":703423,"name":"Lagernoye","country":"UA","coord":{"lon":35.099998,"lat":44.883331}},{"_id":710334,"name":"Dachne","country":"UA","coord":{"lon":34.983334,"lat":44.883331}},{"_id":709151,"name":"Fersmanove","country":"UA","coord":{"lon":34.166668,"lat":44.900002}},{"_id":694115,"name":"Shevekova","country":"UA","coord":{"lon":35.200001,"lat":44.916668}},{"_id":702741,"name":"Lozove","country":"UA","coord":{"lon":34.166668,"lat":44.916668}},{"_id":697124,"name":"Koktebel","country":"UA","coord":{"lon":35.25,"lat":44.950001}},{"_id":687746,"name":"Zamost’ye","country":"UA","coord":{"lon":34.099998,"lat":44.950001}},{"_id":696309,"name":"Prigorodnoye","country":"UA","coord":{"lon":34.150002,"lat":44.950001}},{"_id":687150,"name":"Zhigulina Roshcha","country":"UA","coord":{"lon":34.133331,"lat":44.966667}},{"_id":703168,"name":"Lesnaya","country":"UA","coord":{"lon":34.349998,"lat":44.966667}},{"_id":687995,"name":"Yuzhne","country":"UA","coord":{"lon":35.283333,"lat":44.983334}},{"_id":688074,"name":"Yunga","country":"UA","coord":{"lon":35.266666,"lat":44.966667}},{"_id":708507,"name":"Goncharova","country":"UA","coord":{"lon":35.266666,"lat":44.983334}},{"_id":704259,"name":"Krasnoye Selo","country":"UA","coord":{"lon":35.083332,"lat":45.016666}},{"_id":690652,"name":"Urus-Khodzha","country":"UA","coord":{"lon":34.799999,"lat":45.016666}},{"_id":712228,"name":"Besh Terek","country":"UA","coord":{"lon":34.233334,"lat":45.016666}},{"_id":709161,"name":"Feodosiya","country":"UA","coord":{"lon":35.383331,"lat":45.033333}},{"_id":796898,"name":"Novyy Koyash","country":"UA","coord":{"lon":36.228611,"lat":45.045555}},{"_id":712654,"name":"Bila Skelya","country":"UA","coord":{"lon":34.616669,"lat":45.099998}},{"_id":694910,"name":"Saky","country":"UA","coord":{"lon":33.603058,"lat":45.135555}},{"_id":688817,"name":"Vulkanivka","country":"UA","coord":{"lon":35.950001,"lat":45.150002}},{"_id":690556,"name":"Uyutne","country":"UA","coord":{"lon":33.301388,"lat":45.199444}},{"_id":706524,"name":"Kerch","country":"UA","coord":{"lon":36.475834,"lat":45.358334}},{"_id":826049,"name":"Tsementna Slobidka","country":"UA","coord":{"lon":36.468056,"lat":45.3325}},{"_id":688146,"name":"Yenikale","country":"UA","coord":{"lon":36.599998,"lat":45.349998}},{"_id":687032,"name":"Zhukivka","country":"UA","coord":{"lon":36.628334,"lat":45.370834}},{"_id":697114,"name":"Plavni","country":"UA","coord":{"lon":35.900002,"lat":45.383331}},{"_id":697958,"name":"Adzhymushkay","country":"UA","coord":{"lon":36.523609,"lat":45.387222}},{"_id":694627,"name":"Semenivka","country":"UA","coord":{"lon":35.766666,"lat":45.383331}},{"_id":826042,"name":"Yehorove","country":"UA","coord":{"lon":36.482777,"lat":45.385834}},{"_id":700550,"name":"Mysove","country":"UA","coord":{"lon":35.849998,"lat":45.450001}},{"_id":710687,"name":"Chornomorske","country":"UA","coord":{"lon":32.699722,"lat":45.503887}},{"_id":695322,"name":"Urochyshche Rozhkova","country":"UA","coord":{"lon":35.166668,"lat":45.533333}},{"_id":696471,"name":"Portove","country":"UA","coord":{"lon":33.483334,"lat":45.849998}},{"_id":712105,"name":"Biyuk-Nayman","country":"UA","coord":{"lon":34.349998,"lat":46.016666}},{"_id":708877,"name":"Heniches’ka Hirka","country":"UA","coord":{"lon":34.833332,"lat":46.083332}},{"_id":694308,"name":"Shchemilovka","country":"UA","coord":{"lon":33.700001,"lat":46.150002}},{"_id":708953,"name":"Gaspra","country":"UA","coord":{"lon":34.099998,"lat":44.433334}},{"_id":712752,"name":"Sanatoriy Batylyman","country":"UA","coord":{"lon":33.683334,"lat":44.416668}},{"_id":698391,"name":"Orlyne","country":"UA","coord":{"lon":33.766666,"lat":44.450001}},{"_id":695646,"name":"Rezervne","country":"UA","coord":{"lon":33.666668,"lat":44.466667}},{"_id":710298,"name":"Danilovka","country":"UA","coord":{"lon":34.25,"lat":44.516666}},{"_id":690398,"name":"Vasil’yevka","country":"UA","coord":{"lon":34.166668,"lat":44.516666}},{"_id":709075,"name":"Partenit","country":"UA","coord":{"lon":34.344635,"lat":44.577995}},{"_id":710320,"name":"Kamyshly","country":"UA","coord":{"lon":33.650002,"lat":44.666668}},{"_id":696945,"name":"Pidhorodne","country":"UA","coord":{"lon":33.866669,"lat":44.766666}},{"_id":697530,"name":"Pishchane","country":"UA","coord":{"lon":33.599998,"lat":44.849998}},{"_id":687501,"name":"Zavods’ke","country":"UA","coord":{"lon":34.083332,"lat":44.916668}},{"_id":697624,"name":"Perove","country":"UA","coord":{"lon":34.066666,"lat":44.933334}},{"_id":713204,"name":"Armutluk","country":"UA","coord":{"lon":35.166668,"lat":44.983334}},{"_id":708003,"name":"Hrushivka","country":"UA","coord":{"lon":34.983334,"lat":45.016666}},{"_id":686898,"name":"Zol’noye","country":"UA","coord":{"lon":33.983334,"lat":45.033333}},{"_id":692714,"name":"Staryy Krym","country":"UA","coord":{"lon":35.099998,"lat":45.033333}},{"_id":712587,"name":"Bilohirsk","country":"UA","coord":{"lon":34.599998,"lat":45.049999}},{"_id":712050,"name":"Blyzhnye","country":"UA","coord":{"lon":35.333332,"lat":45.049999}},{"_id":700432,"name":"Nasypne","country":"UA","coord":{"lon":35.283333,"lat":45.049999}},{"_id":713076,"name":"Ayvazovskaya","country":"UA","coord":{"lon":35.383331,"lat":45.049999}},{"_id":708506,"name":"Goncharovka","country":"UA","coord":{"lon":35.166668,"lat":45.066666}},{"_id":712048,"name":"Blizhniye Kamyshi","country":"UA","coord":{"lon":35.400002,"lat":45.083332}},{"_id":712427,"name":"Berehove","country":"UA","coord":{"lon":35.433334,"lat":45.099998}},{"_id":710315,"name":"Dal’niye Kamyshi","country":"UA","coord":{"lon":35.483334,"lat":45.116669}},{"_id":689374,"name":"Vladyslavivka","country":"UA","coord":{"lon":35.366669,"lat":45.166668}},{"_id":712755,"name":"Batal’ne","country":"UA","coord":{"lon":35.616669,"lat":45.200001}},{"_id":698351,"name":"Ortay","country":"UA","coord":{"lon":35.150002,"lat":45.183334}},{"_id":702662,"name":"Luhove","country":"UA","coord":{"lon":35.716667,"lat":45.233334}},{"_id":694554,"name":"Semysotka","country":"UA","coord":{"lon":35.566666,"lat":45.233334}},{"_id":710655,"name":"Chernyakovo","country":"UA","coord":{"lon":36.181667,"lat":45.277779}},{"_id":700180,"name":"Mykolayivka","country":"UA","coord":{"lon":34.933334,"lat":45.266666}},{"_id":690466,"name":"Varvarivka","country":"UA","coord":{"lon":34.900002,"lat":45.333332}},{"_id":796931,"name":"Dzhardzhava","country":"UA","coord":{"lon":36.417778,"lat":45.340557}},{"_id":699550,"name":"Novoivanivka","country":"UA","coord":{"lon":34.799999,"lat":45.450001}},{"_id":712236,"name":"Besharan’","country":"UA","coord":{"lon":34.766666,"lat":45.450001}},{"_id":686850,"name":"Zorkine","country":"UA","coord":{"lon":34.716667,"lat":45.549999}},{"_id":701491,"name":"Mays’ke","country":"UA","coord":{"lon":34.566666,"lat":45.599998}},{"_id":709334,"name":"Dzhankoy","country":"UA","coord":{"lon":34.400002,"lat":45.716667}},{"_id":709367,"name":"Dymovka","country":"UA","coord":{"lon":34.450001,"lat":45.700001}},{"_id":706515,"name":"Kerleut","country":"UA","coord":{"lon":34.416668,"lat":45.733334}},{"_id":696313,"name":"Prydorozhnye","country":"UA","coord":{"lon":34.450001,"lat":45.799999}},{"_id":688122,"name":"Yermakove","country":"UA","coord":{"lon":34.483334,"lat":45.849998}},{"_id":701453,"name":"Medvedivka","country":"UA","coord":{"lon":34.549999,"lat":45.883331}},{"_id":704362,"name":"Krasnoperekopsk","country":"UA","coord":{"lon":33.792221,"lat":45.955002}},{"_id":706442,"name":"Khersons’ka Oblast’","country":"UA","coord":{"lon":34.0,"lat":46.5}},{"_id":710413,"name":"Ataman’","country":"UA","coord":{"lon":34.5,"lat":46.016666}},{"_id":690393,"name":"Vasil’yevka","country":"UA","coord":{"lon":34.583332,"lat":46.049999}},{"_id":688986,"name":"Chernihivka","country":"UA","coord":{"lon":34.599998,"lat":46.150002}},{"_id":688357,"name":"Yasna Polyana","country":"UA","coord":{"lon":34.633331,"lat":46.183334}},{"_id":698738,"name":"Odes’ka Oblast’","country":"UA","coord":{"lon":30.0,"lat":47.0}},{"_id":699706,"name":"Novooleksiyivka","country":"UA","coord":{"lon":34.642776,"lat":46.226944}},{"_id":697957,"name":"Partyzany","country":"UA","coord":{"lon":34.750278,"lat":46.33139}},{"_id":699100,"name":"Novotroyitske","country":"UA","coord":{"lon":34.332779,"lat":46.351112}},{"_id":695347,"name":"Rozy Lyuksemburh","country":"UA","coord":{"lon":34.883331,"lat":46.400002}},{"_id":692995,"name":"Sredniy Fontan","country":"UA","coord":{"lon":30.766666,"lat":46.400002}},{"_id":701965,"name":"Malyy Fontan","country":"UA","coord":{"lon":30.766666,"lat":46.433334}},{"_id":696740,"name":"Pokrovka","country":"UA","coord":{"lon":31.700001,"lat":46.483334}},{"_id":698740,"name":"Odessa","country":"UA","coord":{"lon":30.732622,"lat":46.477474}},{"_id":704051,"name":"Krivaya Balka","country":"UA","coord":{"lon":30.683332,"lat":46.5}},{"_id":708632,"name":"Hola Prystan","country":"UA","coord":{"lon":32.525833,"lat":46.520557}},{"_id":700567,"name":"Mykolayivs’ka Oblast’","country":"UA","coord":{"lon":32.0,"lat":47.25}},{"_id":696722,"name":"Pokrovs’ke","country":"UA","coord":{"lon":31.633333,"lat":46.533333}},{"_id":711820,"name":"Bol’shaya Balka","country":"UA","coord":{"lon":30.6,"lat":46.566666}},{"_id":706333,"name":"Kholodnaya Balka","country":"UA","coord":{"lon":30.583332,"lat":46.599998}},{"_id":713135,"name":"Atestovo","country":"UA","coord":{"lon":30.549999,"lat":46.633331}},{"_id":707647,"name":"Imeni Lenina","country":"UA","coord":{"lon":36.774723,"lat":46.636112}},{"_id":687699,"name":"Zaporiz’ka Oblast’","country":"UA","coord":{"lon":35.5,"lat":47.5}},{"_id":713743,"name":"Yakymivka","country":"UA","coord":{"lon":35.15361,"lat":46.68972}},{"_id":693080,"name":"Sosnovka","country":"UA","coord":{"lon":35.166668,"lat":46.683334}},{"_id":710013,"name":"Dmitriyevka","country":"UA","coord":{"lon":35.183334,"lat":46.700001}},{"_id":712451,"name":"Berdyansk","country":"UA","coord":{"lon":36.794445,"lat":46.750278}},{"_id":701579,"name":"Matrosskaya Sloboda","country":"UA","coord":{"lon":36.816387,"lat":46.723331}},{"_id":702962,"name":"Liski","country":"UA","coord":{"lon":36.766666,"lat":46.766666}},{"_id":710299,"name":"Danylo-Ivanivka","country":"UA","coord":{"lon":35.274723,"lat":46.746666}},{"_id":701404,"name":"Melitopol","country":"UA","coord":{"lon":35.373055,"lat":46.84222}},{"_id":703972,"name":"Krucha","country":"UA","coord":{"lon":35.400002,"lat":46.849998}},{"_id":694623,"name":"Semenivka","country":"UA","coord":{"lon":35.413334,"lat":46.889999}},{"_id":710531,"name":"Chervonoznamenka","country":"UA","coord":{"lon":30.299999,"lat":47.016666}},{"_id":699657,"name":"Novobohdanivka","country":"UA","coord":{"lon":35.327221,"lat":47.081944}},{"_id":688681,"name":"Vysoke","country":"UA","coord":{"lon":35.403889,"lat":47.231388}},{"_id":701932,"name":"Malyy Tokmak","country":"UA","coord":{"lon":35.716667,"lat":47.25}},{"_id":691469,"name":"Tokmak","country":"UA","coord":{"lon":35.705833,"lat":47.251389}},{"_id":706225,"name":"Khozyain","country":"UA","coord":{"lon":35.366669,"lat":47.299999}},{"_id":687345,"name":"Zeleny Hay","country":"UA","coord":{"lon":35.362499,"lat":47.390835}},{"_id":686729,"name":"Vasylivka","country":"UA","coord":{"lon":35.274166,"lat":47.436943}},{"_id":706967,"name":"Yanchekrak","country":"UA","coord":{"lon":35.360279,"lat":47.536388}},{"_id":699573,"name":"Novo-Grigor’yevka","country":"UA","coord":{"lon":30.316668,"lat":47.549999}},{"_id":707898,"name":"Hulyaypole","country":"UA","coord":{"lon":36.257778,"lat":47.665279}},{"_id":708120,"name":"Hryhorivka","country":"UA","coord":{"lon":35.341389,"lat":47.69278}},{"_id":703555,"name":"Kushuhum","country":"UA","coord":{"lon":35.209167,"lat":47.714443}},{"_id":712934,"name":"Balabine","country":"UA","coord":{"lon":35.206112,"lat":47.734444}},{"_id":710189,"name":"Demidovka","country":"UA","coord":{"lon":30.25,"lat":47.766666}},{"_id":700151,"name":"Nikolayevka","country":"UA","coord":{"lon":35.200001,"lat":47.783333}},{"_id":700871,"name":"Mokroye","country":"UA","coord":{"lon":35.25,"lat":47.816666}},{"_id":687676,"name":"Zaporozh’ye Levoye","country":"UA","coord":{"lon":35.283333,"lat":47.849998}},{"_id":701587,"name":"Matveyevka","country":"UA","coord":{"lon":35.266666,"lat":47.883331}},{"_id":694240,"name":"Shëlokovyy","country":"UA","coord":{"lon":35.283333,"lat":47.900002}},{"_id":709929,"name":"Dnipropetrovska Oblast'","country":"UA","coord":{"lon":35.0,"lat":48.5}},{"_id":713760,"name":"Ageyevka","country":"UA","coord":{"lon":30.299999,"lat":47.916668}},{"_id":702657,"name":"Luhans’ka Oblast’","country":"UA","coord":{"lon":39.0,"lat":49.0}},{"_id":712142,"name":"Birjukowo","country":"UA","coord":{"lon":39.733334,"lat":47.950001}},{"_id":701216,"name":"Mikhaylovka","country":"UA","coord":{"lon":35.25,"lat":47.950001}},{"_id":708662,"name":"Gnorovskoye","country":"UA","coord":{"lon":35.266666,"lat":48.033333}},{"_id":688828,"name":"Vuglyar","country":"UA","coord":{"lon":38.150002,"lat":48.016666}},{"_id":696010,"name":"Putilovka","country":"UA","coord":{"lon":37.75,"lat":48.033333}},{"_id":713698,"name":"Aleksandro-Grigor’yevka","country":"UA","coord":{"lon":37.75,"lat":48.049999}},{"_id":691630,"name":"Ternovka","country":"UA","coord":{"lon":35.333332,"lat":48.116669}},{"_id":697859,"name":"Pavlovka","country":"UA","coord":{"lon":35.349998,"lat":48.233334}},{"_id":710720,"name":"Chernivets’ka Oblast’","country":"UA","coord":{"lon":26.0,"lat":48.25}},{"_id":708633,"name":"Gogulina","country":"UA","coord":{"lon":26.216667,"lat":48.233334}},{"_id":705811,"name":"Kirovohrads’ka Oblast’","country":"UA","coord":{"lon":32.0,"lat":48.5}},{"_id":690713,"name":"Ul’yanovka","country":"UA","coord":{"lon":30.231667,"lat":48.326111}},{"_id":711756,"name":"Bol’shiye Troyany","country":"UA","coord":{"lon":30.216667,"lat":48.400002}},{"_id":696317,"name":"Pridneprovsk","country":"UA","coord":{"lon":35.116669,"lat":48.400002}},{"_id":702765,"name":"Lozovatka Vtoraya","country":"UA","coord":{"lon":35.349998,"lat":48.433334}},{"_id":700022,"name":"Nizhnedneprovsk","country":"UA","coord":{"lon":35.066666,"lat":48.5}},{"_id":706244,"name":"Khotyn","country":"UA","coord":{"lon":26.5,"lat":48.483334}},{"_id":694117,"name":"Shevchenko Vtoroy","country":"UA","coord":{"lon":35.400002,"lat":48.516666}},{"_id":705392,"name":"Kolomyya","country":"UA","coord":{"lon":25.040277,"lat":48.530556}},{"_id":706370,"name":"Khmel’nyts’ka Oblast’","country":"UA","coord":{"lon":27.0,"lat":49.5}},{"_id":713142,"name":"Ataki","country":"UA","coord":{"lon":26.483334,"lat":48.533333}},{"_id":693250,"name":"Sokolovo","country":"UA","coord":{"lon":35.316666,"lat":48.533333}},{"_id":708266,"name":"Goryanovskoye","country":"UA","coord":{"lon":34.866669,"lat":48.583332}},{"_id":709077,"name":"Frunzenskiy","country":"UA","coord":{"lon":34.916668,"lat":48.566666}},{"_id":687869,"name":"Zakarpats’ka Oblast’","country":"UA","coord":{"lon":23.0,"lat":48.333332}},{"_id":701091,"name":"Mynay","country":"UA","coord":{"lon":22.283333,"lat":48.583332}},{"_id":701405,"name":"Meliorativnoye","country":"UA","coord":{"lon":35.366669,"lat":48.599998}},{"_id":708545,"name":"Golubinoye","country":"UA","coord":{"lon":22.966667,"lat":48.566666}},{"_id":699445,"name":"Novomoskovsk","country":"UA","coord":{"lon":35.200001,"lat":48.616669}},{"_id":698362,"name":"Orlovshchina","country":"UA","coord":{"lon":35.333332,"lat":48.633331}},{"_id":704232,"name":"Krasnyy","country":"UA","coord":{"lon":23.700001,"lat":48.616669}},{"_id":690548,"name":"Uzhhorod","country":"UA","coord":{"lon":22.299999,"lat":48.616669}},{"_id":697536,"name":"Peschanka","country":"UA","coord":{"lon":35.299999,"lat":48.599998}},{"_id":691649,"name":"Ternopil’s’ka Oblast’","country":"UA","coord":{"lon":25.5,"lat":49.5}},{"_id":687826,"name":"Zalishchyky","country":"UA","coord":{"lon":25.733889,"lat":48.644722}},{"_id":695641,"name":"Reshetilovskiy Kut","country":"UA","coord":{"lon":35.283333,"lat":48.666668}},{"_id":698542,"name":"Ol’khovtsy","country":"UA","coord":{"lon":26.516666,"lat":48.650002}},{"_id":710802,"name":"Cherkas’ka Oblast’","country":"UA","coord":{"lon":31.0,"lat":49.0}},{"_id":830068,"name":"Hromy","country":"UA","coord":{"lon":30.184999,"lat":48.666389}},{"_id":706950,"name":"Kamieniec Podolski","country":"UA","coord":{"lon":26.566668,"lat":48.666668}},{"_id":686949,"name":"Zin’kovtsy","country":"UA","coord":{"lon":26.583332,"lat":48.683334}},{"_id":696071,"name":"Pudlovtsy","country":"UA","coord":{"lon":26.549999,"lat":48.716667}},{"_id":705282,"name":"Kolubayevtsy","country":"UA","coord":{"lon":26.666668,"lat":48.733334}},{"_id":706482,"name":"Kharkivs’ka Oblast’","country":"UA","coord":{"lon":36.5,"lat":49.5}},{"_id":806450,"name":"Chernyaki","country":"UA","coord":{"lon":36.454189,"lat":50.085377}},{"_id":6722149,"name":"Sokol’nyky","country":"UA","coord":{"lon":36.261181,"lat":50.033634}},{"_id":689304,"name":"Vovchansk","country":"UA","coord":{"lon":36.946667,"lat":50.300278}},{"_id":690553,"name":"Uzenbash","country":"UA","coord":{"lon":33.766666,"lat":44.549999}},{"_id":6722153,"name":"Ivanivka","country":"UA","coord":{"lon":36.202209,"lat":50.005161}},{"_id":696743,"name":"Pokotylivka","country":"UA","coord":{"lon":36.177219,"lat":49.915279}},{"_id":703014,"name":"Lipovaya Rosheha","country":"UA","coord":{"lon":36.166672,"lat":49.950001}},{"_id":812803,"name":"Nadtochiv","country":"UA","coord":{"lon":36.098888,"lat":49.963058}},{"_id":697488,"name":"Pesochin","country":"UA","coord":{"lon":36.101391,"lat":49.956669}},{"_id":812806,"name":"Sinolitsovka","country":"UA","coord":{"lon":36.042782,"lat":49.958889}},{"_id":702417,"name":"Lyubotyn","country":"UA","coord":{"lon":35.966671,"lat":49.950001}},{"_id":6723020,"name":"Dal'nya Zhuravlivka","country":"UA","coord":{"lon":36.272141,"lat":50.012501}},{"_id":706483,"name":"Kharkiv","country":"UA","coord":{"lon":36.25,"lat":50.0}},{"_id":812917,"name":"Losevo","country":"UA","coord":{"lon":36.321671,"lat":49.953609}},{"_id":812926,"name":"Chunikhin","country":"UA","coord":{"lon":36.33667,"lat":49.946941}},{"_id":806512,"name":"Imeni Frunze","country":"UA","coord":{"lon":36.33852,"lat":49.965851}},{"_id":694246,"name":"Shelkovichnoye","country":"UA","coord":{"lon":34.099998,"lat":44.633331}},{"_id":6982974,"name":"Marta","country":"UA","coord":{"lon":34.10199,"lat":44.686298}},{"_id":6725648,"name":"Shevchenka","country":"UA","coord":{"lon":36.212448,"lat":50.36552}},{"_id":706587,"name":"Kozacha Lopan’","country":"UA","coord":{"lon":36.187229,"lat":50.339199}},{"_id":6725459,"name":"Il’icha","country":"UA","coord":{"lon":36.171322,"lat":50.302448}},{"_id":693598,"name":"Slatino","country":"UA","coord":{"lon":36.160831,"lat":50.224171}},{"_id":688696,"name":"Vysokyy","country":"UA","coord":{"lon":36.119999,"lat":49.89056}},{"_id":697135,"name":"Pivdenne","country":"UA","coord":{"lon":36.07,"lat":49.88139}},{"_id":705240,"name":"Komarovka","country":"UA","coord":{"lon":36.066669,"lat":49.866669}},{"_id":713178,"name":"Artemovka","country":"UA","coord":{"lon":36.041672,"lat":49.840561}},{"_id":701347,"name":"Merefa","country":"UA","coord":{"lon":36.051941,"lat":49.819721}},{"_id":812877,"name":"Krasnyy Oktyabr’","country":"UA","coord":{"lon":36.025558,"lat":49.778889}},{"_id":706748,"name":"Karlovka","country":"UA","coord":{"lon":35.933331,"lat":49.76667}},{"_id":812881,"name":"Kislovskiy","country":"UA","coord":{"lon":36.02528,"lat":49.760281}},{"_id":808864,"name":"Vasil’yevo-Grigor’yevskiy","country":"UA","coord":{"lon":36.509441,"lat":49.243061}},{"_id":699406,"name":"Novo-Nikolayevka","country":"UA","coord":{"lon":36.275002,"lat":49.33028}},{"_id":695570,"name":"Rodomyslovka","country":"UA","coord":{"lon":36.284721,"lat":49.293331}},{"_id":809657,"name":"Kooperatorka","country":"UA","coord":{"lon":36.316391,"lat":49.264439}},{"_id":687835,"name":"Zakutnevka","country":"UA","coord":{"lon":36.310001,"lat":49.207218}},{"_id":688170,"name":"Yelizavetovka","country":"UA","coord":{"lon":36.345829,"lat":49.186111}},{"_id":704363,"name":"Krasnopavlivka","country":"UA","coord":{"lon":36.327221,"lat":49.137218}},{"_id":808926,"name":"Privol’ye","country":"UA","coord":{"lon":36.346939,"lat":49.107498}},{"_id":808841,"name":"Novo Ivanovka","country":"UA","coord":{"lon":36.340832,"lat":49.084438}},{"_id":808832,"name":"Otdokhnina","country":"UA","coord":{"lon":36.323059,"lat":49.061668}},{"_id":710600,"name":"Chervona-Shakhtarka","country":"UA","coord":{"lon":36.299999,"lat":49.033329}},{"_id":808829,"name":"Kostyanka","country":"UA","coord":{"lon":36.285278,"lat":49.00639}},{"_id":696628,"name":"Poltavskoye","country":"UA","coord":{"lon":36.26667,"lat":48.98333}},{"_id":698003,"name":"Panyutyne","country":"UA","coord":{"lon":36.283329,"lat":48.933331}},{"_id":700272,"name":"Nestileyevka","country":"UA","coord":{"lon":36.25,"lat":48.849998}},{"_id":699718,"name":"Novo-Aleksandrovka","country":"UA","coord":{"lon":36.200001,"lat":48.799999}},{"_id":701196,"name":"Mikhaylovka","country":"UA","coord":{"lon":36.150002,"lat":48.799999}},{"_id":699562,"name":"Novo-Grigor’yevka","country":"UA","coord":{"lon":36.116669,"lat":48.73333}},{"_id":688022,"name":"Yur”yivka","country":"UA","coord":{"lon":36.033329,"lat":48.73333}},{"_id":690454,"name":"Varvarovka","country":"UA","coord":{"lon":36.0,"lat":48.716671}},{"_id":689985,"name":"Verbovatovka","country":"UA","coord":{"lon":35.933331,"lat":48.683331}},{"_id":699967,"name":"Nizhnyanka","country":"UA","coord":{"lon":35.916672,"lat":48.666672}},{"_id":700754,"name":"Morozovskiy","country":"UA","coord":{"lon":35.916672,"lat":48.650002}},{"_id":689997,"name":"Verbki","country":"UA","coord":{"lon":35.900002,"lat":48.583328}},{"_id":690367,"name":"Vasil’yevka","country":"UA","coord":{"lon":35.5,"lat":48.033329}},{"_id":687363,"name":"Zelënyy","country":"UA","coord":{"lon":35.5,"lat":47.966671}},{"_id":700201,"name":"Nikiforovskiy","country":"UA","coord":{"lon":35.366669,"lat":47.916672}},{"_id":690777,"name":"Ukrainka","country":"UA","coord":{"lon":35.349998,"lat":47.916672}},{"_id":707356,"name":"Ivanovskiy","country":"UA","coord":{"lon":35.366669,"lat":47.883331}},{"_id":687700,"name":"Zaporizhzhya","country":"UA","coord":{"lon":35.183331,"lat":47.816669}},{"_id":702072,"name":"Malokaterynivka","country":"UA","coord":{"lon":35.253891,"lat":47.6525}},{"_id":696278,"name":"Prymors’ke","country":"UA","coord":{"lon":35.285,"lat":47.617779}},{"_id":712615,"name":"Belitskiy","country":"UA","coord":{"lon":35.299999,"lat":47.583328}},{"_id":689845,"name":"Verkhnya Krynytsya","country":"UA","coord":{"lon":35.279999,"lat":47.491669}},{"_id":690380,"name":"Vasil’yevka","country":"UA","coord":{"lon":35.299999,"lat":47.433331}},{"_id":711165,"name":"Burchak","country":"UA","coord":{"lon":35.299999,"lat":47.383331}},{"_id":698410,"name":"Orekhovskiy","country":"UA","coord":{"lon":35.316669,"lat":47.333328}},{"_id":689482,"name":"Vishnëvyy","country":"UA","coord":{"lon":35.333328,"lat":47.299999}},{"_id":696262,"name":"Pryshyb","country":"UA","coord":{"lon":35.322781,"lat":47.260281}},{"_id":699606,"name":"Novofëdorovka","country":"UA","coord":{"lon":35.316669,"lat":47.083328}},{"_id":710324,"name":"Dalëkiy","country":"UA","coord":{"lon":35.283329,"lat":46.950001}},{"_id":705214,"name":"Kommercheskiy","country":"UA","coord":{"lon":35.316669,"lat":46.916672}},{"_id":707592,"name":"Dolyns’ke","country":"UA","coord":{"lon":35.207218,"lat":46.77861}},{"_id":707800,"name":"Gutertal’","country":"UA","coord":{"lon":35.200001,"lat":46.75}},{"_id":689416,"name":"Volodymyrivka","country":"UA","coord":{"lon":35.151669,"lat":46.655281}},{"_id":692035,"name":"Svobodnaya Zhizn’","country":"UA","coord":{"lon":35.049999,"lat":46.599998}},{"_id":694568,"name":"Semikhatka","country":"UA","coord":{"lon":35.066669,"lat":46.583328}},{"_id":7048363,"name":"Druzhba","country":"UA","coord":{"lon":34.994579,"lat":46.54496}},{"_id":697244,"name":"Pikalovka","country":"UA","coord":{"lon":35.0,"lat":46.533329}},{"_id":690029,"name":"Rozivka","country":"UA","coord":{"lon":34.960609,"lat":46.507191}},{"_id":693269,"name":"Sokolohirne","country":"UA","coord":{"lon":34.942539,"lat":46.498131}},{"_id":7048362,"name":"Novoyefremivka","country":"UA","coord":{"lon":34.93766,"lat":46.478409}},{"_id":7046810,"name":"Kommunarskoye","country":"UA","coord":{"lon":34.785191,"lat":46.372169}},{"_id":7046809,"name":"Rivne","country":"UA","coord":{"lon":34.757729,"lat":46.360168}},{"_id":7046808,"name":"Moskalenka","country":"UA","coord":{"lon":34.741928,"lat":46.286369}},{"_id":709865,"name":"Dobroye Utro","country":"UA","coord":{"lon":34.683331,"lat":46.283329}},{"_id":7032306,"name":"Shchorsivka","country":"UA","coord":{"lon":34.68531,"lat":46.256531}},{"_id":7046678,"name":"Sal’kove","country":"UA","coord":{"lon":34.606331,"lat":46.175251}},{"_id":700177,"name":"Mykolayivka","country":"UA","coord":{"lon":34.606361,"lat":46.107071}},{"_id":7046679,"name":"Krasne Znam”ya","country":"UA","coord":{"lon":34.575668,"lat":46.083031}},{"_id":7046674,"name":"Novyy Trud","country":"UA","coord":{"lon":34.551159,"lat":46.07766}},{"_id":7031339,"name":"Chonhar","country":"UA","coord":{"lon":34.539871,"lat":46.032261}},{"_id":693226,"name":"Solone Ozero","country":"UA","coord":{"lon":34.447819,"lat":45.888481}},{"_id":705053,"name":"Kopani","country":"UA","coord":{"lon":34.462528,"lat":45.85004}},{"_id":692505,"name":"Stovpove","country":"UA","coord":{"lon":34.467331,"lat":45.826759}},{"_id":701922,"name":"Mamut","country":"UA","coord":{"lon":34.428249,"lat":45.79575}},{"_id":7021061,"name":"Vitvyste","country":"UA","coord":{"lon":34.419579,"lat":45.791241}},{"_id":691842,"name":"Ostrovs’ke","country":"UA","coord":{"lon":34.421612,"lat":45.769058}},{"_id":7021003,"name":"Izumrudne","country":"UA","coord":{"lon":34.410198,"lat":45.737942}},{"_id":7020274,"name":"Kostyantynivka","country":"UA","coord":{"lon":34.368149,"lat":45.674541}},{"_id":7020273,"name":"Tymofiyivka","country":"UA","coord":{"lon":34.360882,"lat":45.659939}},{"_id":712053,"name":"Blyzhn’ohorods’ke","country":"UA","coord":{"lon":34.377159,"lat":45.640099}},{"_id":706811,"name":"Arbuzivka","country":"UA","coord":{"lon":34.332851,"lat":45.627071}},{"_id":7019908,"name":"Vidradne","country":"UA","coord":{"lon":34.33712,"lat":45.606522}},{"_id":689738,"name":"Vesele","country":"UA","coord":{"lon":34.318588,"lat":45.593929}},{"_id":7019906,"name":"Dibrivka","country":"UA","coord":{"lon":34.32132,"lat":45.568619}},{"_id":704253,"name":"Krasnoye Znamya","country":"UA","coord":{"lon":34.299999,"lat":45.549999}},{"_id":691160,"name":"Pushkine","country":"UA","coord":{"lon":34.30534,"lat":45.538559}},{"_id":7019513,"name":"Blyzhnye","country":"UA","coord":{"lon":34.298809,"lat":45.521919}},{"_id":704381,"name":"Krasnohvardiys’ke","country":"UA","coord":{"lon":34.30024,"lat":45.501621}},{"_id":710297,"name":"Danilovka","country":"UA","coord":{"lon":34.299999,"lat":45.48333}},{"_id":701862,"name":"Mare","country":"UA","coord":{"lon":34.292511,"lat":45.453239}},{"_id":7018912,"name":"Yantarne","country":"UA","coord":{"lon":34.222069,"lat":45.433819}},{"_id":7018274,"name":"Krasnyy Partyzan","country":"UA","coord":{"lon":34.20821,"lat":45.406109}},{"_id":711681,"name":"Borangar","country":"UA","coord":{"lon":34.200001,"lat":45.400002}},{"_id":712987,"name":"Baglikovo","country":"UA","coord":{"lon":34.183331,"lat":45.366669}},{"_id":7018275,"name":"Poltavka","country":"UA","coord":{"lon":34.18388,"lat":45.351109}},{"_id":691064,"name":"Tsvitkove","country":"UA","coord":{"lon":34.165859,"lat":45.31181}},{"_id":713505,"name":"Amurs’ke","country":"UA","coord":{"lon":34.14159,"lat":45.290138}},{"_id":698652,"name":"Oktyabrs’ke","country":"UA","coord":{"lon":34.126678,"lat":45.292839}},{"_id":713724,"name":"Alabash Konrat","country":"UA","coord":{"lon":34.133331,"lat":45.26667}},{"_id":6981130,"name":"Novoandriyivka","country":"UA","coord":{"lon":34.075611,"lat":45.21973}},{"_id":6981123,"name":"Shyroke","country":"UA","coord":{"lon":34.047321,"lat":45.20155}},{"_id":709344,"name":"Dzhaga-Mamysh","country":"UA","coord":{"lon":34.083328,"lat":45.183331}},{"_id":704431,"name":"Krasna Zor’ka","country":"UA","coord":{"lon":34.037819,"lat":45.135479}},{"_id":707777,"name":"Hvardiys’ke","country":"UA","coord":{"lon":34.018452,"lat":45.120861}},{"_id":693342,"name":"Sofiyivka","country":"UA","coord":{"lon":34.001209,"lat":45.097092}},{"_id":6980613,"name":"Malen’ke","country":"UA","coord":{"lon":34.002399,"lat":45.076889}},{"_id":698873,"name":"Novyy Sarabuz","country":"UA","coord":{"lon":34.033329,"lat":45.049999}},{"_id":6976172,"name":"Komsomols’ke","country":"UA","coord":{"lon":34.016312,"lat":45.019669}},{"_id":700835,"name":"Molodizhne","country":"UA","coord":{"lon":34.05006,"lat":45.00428}},{"_id":707240,"name":"Kakhovskoye","country":"UA","coord":{"lon":34.066669,"lat":44.98333}},{"_id":690788,"name":"Ukrayinka","country":"UA","coord":{"lon":34.063461,"lat":44.96072}},{"_id":6974770,"name":"Molochne","country":"UA","coord":{"lon":34.033039,"lat":44.91288}},{"_id":710454,"name":"Chysten’ke","country":"UA","coord":{"lon":34.038979,"lat":44.882568}},{"_id":6974516,"name":"Pryyatne Svidannya","country":"UA","coord":{"lon":34.00095,"lat":44.850368}},{"_id":7040002,"name":"Topoli","country":"UA","coord":{"lon":33.995129,"lat":44.841999}},{"_id":696999,"name":"Poshtove","country":"UA","coord":{"lon":33.95446,"lat":44.831108}},{"_id":7040016,"name":"Samokhvalove","country":"UA","coord":{"lon":33.922482,"lat":44.824558}},{"_id":7040021,"name":"Aromatne","country":"UA","coord":{"lon":33.868141,"lat":44.801441}},{"_id":688826,"name":"Vulino","country":"UA","coord":{"lon":33.650002,"lat":44.849998}},{"_id":704416,"name":"Krasnoarmeyskoye","country":"UA","coord":{"lon":33.683331,"lat":44.849998}},{"_id":698157,"name":"Vidradne","country":"UA","coord":{"lon":33.730942,"lat":44.859341}},{"_id":7040014,"name":"Kocherhine","country":"UA","coord":{"lon":33.750011,"lat":44.83709}},{"_id":698166,"name":"Otesh-Eli","country":"UA","coord":{"lon":33.76667,"lat":44.833328}},{"_id":700490,"name":"Nagornoye","country":"UA","coord":{"lon":33.799999,"lat":44.799999}},{"_id":7040022,"name":"Malovydne","country":"UA","coord":{"lon":33.81052,"lat":44.795849}},{"_id":7040139,"name":"Zaliznychne","country":"UA","coord":{"lon":33.802689,"lat":44.71629}},{"_id":7021078,"name":"Male Sadove","country":"UA","coord":{"lon":33.840729,"lat":44.63913}},{"_id":7021112,"name":"Nyzhnya Holubynka","country":"UA","coord":{"lon":33.911209,"lat":44.598068}},{"_id":7040140,"name":"Pyrohivka","country":"UA","coord":{"lon":33.725811,"lat":44.68391}},{"_id":689905,"name":"Verkhn’osadove","country":"UA","coord":{"lon":33.699791,"lat":44.689701}},{"_id":7040142,"name":"Semarenka","country":"UA","coord":{"lon":33.689098,"lat":44.700291}},{"_id":709083,"name":"Fruktove","country":"UA","coord":{"lon":33.599689,"lat":44.68045}},{"_id":697889,"name":"Pavlohrad","country":"UA","coord":{"lon":35.866669,"lat":48.51667}},{"_id":7046438,"name":"Zaliznychne","country":"UA","coord":{"lon":34.512772,"lat":46.01931}},{"_id":7021138,"name":"Aromat","country":"UA","coord":{"lon":33.940498,"lat":44.577511}},{"_id":709325,"name":"Dzhefar-Berdy","country":"UA","coord":{"lon":34.283329,"lat":44.900002}},{"_id":6986274,"name":"Lazarivka","country":"UA","coord":{"lon":34.27541,"lat":44.927059}},{"_id":691679,"name":"Terenair","country":"UA","coord":{"lon":34.26667,"lat":44.933331}},{"_id":699844,"name":"Ivanivka","country":"UA","coord":{"lon":34.24807,"lat":44.937309}},{"_id":710141,"name":"Denysivka","country":"UA","coord":{"lon":34.22234,"lat":44.92186}},{"_id":6986279,"name":"Druzhne","country":"UA","coord":{"lon":34.290379,"lat":44.89592}},{"_id":687656,"name":"Zarichne","country":"UA","coord":{"lon":34.262199,"lat":44.855999}},{"_id":713099,"name":"Ayans’ke Dzherelo","country":"UA","coord":{"lon":34.28706,"lat":44.827229}},{"_id":6987036,"name":"Rozovyy","country":"UA","coord":{"lon":34.318111,"lat":44.695549}},{"_id":6988139,"name":"Lavanda","country":"UA","coord":{"lon":34.366871,"lat":44.742569}},{"_id":695053,"name":"Rybache","country":"UA","coord":{"lon":34.592991,"lat":44.772388}},{"_id":696240,"name":"Pryvitne","country":"UA","coord":{"lon":34.679031,"lat":44.817371}},{"_id":701822,"name":"Mariupol","country":"UA","coord":{"lon":37.5,"lat":47.066669}},{"_id":712005,"name":"Bobritsa","country":"UA","coord":{"lon":30.18858,"lat":50.349979}},{"_id":689974,"name":"Verbovka","country":"UA","coord":{"lon":31.96711,"lat":48.997749}},{"_id":708140,"name":"Hresivs’kyy","country":"UA","coord":{"lon":34.026569,"lat":45.008041}},{"_id":704121,"name":"Krenichi","country":"UA","coord":{"lon":30.505831,"lat":50.241291}},{"_id":6957702,"name":"Krasnogorovka","country":"UA","coord":{"lon":37.514011,"lat":48.00769}},{"_id":692909,"name":"Staraya Darnitsa","country":"UA","coord":{"lon":30.633329,"lat":50.433331}},{"_id":8037857,"name":"Krasnyy Prohres","country":"UA","coord":{"lon":34.036709,"lat":52.158852}},{"_id":702694,"name":"Lug","country":"UA","coord":{"lon":24.58333,"lat":48.51667}},{"_id":709250,"name":"Fasovaya","country":"UA","coord":{"lon":29.799999,"lat":50.433331}},{"_id":709273,"name":"Eriklik","country":"UA","coord":{"lon":34.133331,"lat":44.466671}},{"_id":7019825,"name":"Oktyabrs’kyy","country":"UA","coord":{"lon":33.604359,"lat":44.592049}},{"_id":707711,"name":"Il’ichëvskoye","country":"UA","coord":{"lon":34.966671,"lat":44.849998}},{"_id":699989,"name":"Nizhniye Partizany","country":"UA","coord":{"lon":34.083328,"lat":44.833328}},{"_id":6983015,"name":"Tretiy Samostriy","country":"UA","coord":{"lon":36.542801,"lat":45.366879}},{"_id":712548,"name":"Belostadnoye","country":"UA","coord":{"lon":35.062222,"lat":45.530682}},{"_id":7021056,"name":"Pavlivka","country":"UA","coord":{"lon":33.77359,"lat":44.450031}},{"_id":693805,"name":"Simferopol","country":"UA","coord":{"lon":34.11079,"lat":44.957191}},{"_id":713154,"name":"Askaniya Nova","country":"UA","coord":{"lon":33.868889,"lat":46.451351}},{"_id":701911,"name":"Manchzhuriya","country":"UA","coord":{"lon":32.033329,"lat":47.23333}},{"_id":705758,"name":"Kislitskiy","country":"UA","coord":{"lon":35.51667,"lat":47.48333}},{"_id":694165,"name":"Shevchenko","country":"UA","coord":{"lon":35.0,"lat":48.5}},{"_id":707663,"name":"Imeni Artëma","country":"UA","coord":{"lon":33.366669,"lat":47.933331}},{"_id":699677,"name":"Novoaydar","country":"UA","coord":{"lon":39.005829,"lat":48.963909}},{"_id":707511,"name":"Ivanenki","country":"UA","coord":{"lon":35.283329,"lat":48.033329}},{"_id":706466,"name":"Khartsyzsk","country":"UA","coord":{"lon":38.147282,"lat":48.042431}},{"_id":710958,"name":"Chagor","country":"UA","coord":{"lon":25.993919,"lat":48.243301}},{"_id":694197,"name":"Shestakovka","country":"UA","coord":{"lon":31.97595,"lat":48.515968}},{"_id":687060,"name":"Zhovtnevoye","country":"UA","coord":{"lon":31.98333,"lat":48.51667}},{"_id":705652,"name":"Klimashëvka","country":"UA","coord":{"lon":26.993469,"lat":49.519989}},{"_id":693360,"name":"Sobatin","country":"UA","coord":{"lon":22.99712,"lat":48.324169}},{"_id":703728,"name":"Kulebovka","country":"UA","coord":{"lon":35.187908,"lat":48.632038}},{"_id":7040018,"name":"Sevastyanivka","country":"UA","coord":{"lon":33.932999,"lat":44.81974}},{"_id":616743,"name":"Druzhkovka","country":"UA","coord":{"lon":37.552589,"lat":48.630131}},{"_id":711621,"name":"Borova","country":"UA","coord":{"lon":30.10429,"lat":50.17625}},{"_id":706448,"name":"Kherson","country":"UA","coord":{"lon":32.617802,"lat":46.655811}},{"_id":700019,"name":"Nyzhnohirskyy","country":"UA","coord":{"lon":34.738392,"lat":45.447891}},{"_id":702549,"name":"L’vivs’ka Oblast’","country":"UA","coord":{"lon":24.0,"lat":50.0}},{"_id":702550,"name":"Lviv","country":"UA","coord":{"lon":24.023239,"lat":49.838261}},{"_id":691650,"name":"Ternopil","country":"UA","coord":{"lon":25.60556,"lat":49.555889}},{"_id":701824,"name":"Mariupol","country":"UA","coord":{"lon":37.533089,"lat":47.105701}},{"_id":710719,"name":"Chernivtsi","country":"UA","coord":{"lon":25.94034,"lat":48.291489}},{"_id":686928,"name":"Zmiyev","country":"UA","coord":{"lon":36.361092,"lat":49.69664}},{"_id":710554,"name":"Chervonograd","country":"UA","coord":{"lon":24.23514,"lat":50.391048}},{"_id":689064,"name":"Volyns’ka Oblast’","country":"UA","coord":{"lon":25.0,"lat":51.0}},{"_id":702569,"name":"Lutsk","country":"UA","coord":{"lon":25.34244,"lat":50.759319}},{"_id":688723,"name":"Vyshhorod","country":"UA","coord":{"lon":30.489799,"lat":50.584759}},{"_id":705812,"name":"Kirovohrad","country":"UA","coord":{"lon":32.259701,"lat":48.513199}},{"_id":700051,"name":"Nikopol","country":"UA","coord":{"lon":34.39637,"lat":47.57119}},{"_id":710403,"name":"Chornobyl’","country":"UA","coord":{"lon":30.22249,"lat":51.27359}},{"_id":696677,"name":"Polohy","country":"UA","coord":{"lon":36.253609,"lat":47.48444}},{"_id":689321,"name":"Vodyane","country":"UA","coord":{"lon":34.492352,"lat":47.487461}},{"_id":692194,"name":"Sumy","country":"UA","coord":{"lon":34.800289,"lat":50.9216}},{"_id":710735,"name":"Chernihiv","country":"UA","coord":{"lon":31.28488,"lat":51.505508}},{"_id":710791,"name":"Cherkasy","country":"UA","coord":{"lon":32.062069,"lat":49.428539}},{"_id":706369,"name":"Khmelnytskyy","country":"UA","coord":{"lon":26.996531,"lat":49.421612}},{"_id":708421,"name":"Gorki","country":"UA","coord":{"lon":37.549999,"lat":48.716671}},{"_id":700569,"name":"Mykolayiv","country":"UA","coord":{"lon":31.9974,"lat":46.965912}},{"_id":689487,"name":"Vyshneve","country":"UA","coord":{"lon":30.370501,"lat":50.38913}},{"_id":707565,"name":"Irpin","country":"UA","coord":{"lon":30.250549,"lat":50.521751}},{"_id":696634,"name":"Poltavs’ka Oblast’","country":"UA","coord":{"lon":34.0,"lat":49.5}},{"_id":692975,"name":"Stakhanov","country":"UA","coord":{"lon":38.64352,"lat":48.56818}},{"_id":691999,"name":"Syeverodonetsk","country":"UA","coord":{"lon":38.491661,"lat":48.948318}},{"_id":713716,"name":"Alchevsk","country":"UA","coord":{"lon":38.816689,"lat":48.468929}},{"_id":709248,"name":"Fastiv","country":"UA","coord":{"lon":29.9177,"lat":50.076698}},{"_id":688746,"name":"Vynohradiv","country":"UA","coord":{"lon":22.76667,"lat":48.150002}},{"_id":695592,"name":"Rivnens’ka Oblast’","country":"UA","coord":{"lon":26.5,"lat":51.0}},{"_id":703464,"name":"Kuznetsovsk","country":"UA","coord":{"lon":25.866671,"lat":51.683331}},{"_id":706165,"name":"Khust","country":"UA","coord":{"lon":23.299089,"lat":48.179298}},{"_id":689559,"name":"Vinnyts’ka Oblast’","country":"UA","coord":{"lon":29.0,"lat":49.0}},{"_id":706571,"name":"Kozyatyn","country":"UA","coord":{"lon":28.833851,"lat":49.71431}},{"_id":702972,"name":"Lisichansk","country":"UA","coord":{"lon":38.44207,"lat":48.90485}},{"_id":710098,"name":"Derhachy","country":"UA","coord":{"lon":36.12112,"lat":50.10659}},{"_id":699942,"name":"Nizhyn","country":"UA","coord":{"lon":31.886881,"lat":51.048012}},{"_id":712423,"name":"Berehove","country":"UA","coord":{"lon":22.64418,"lat":48.205551}},{"_id":707688,"name":"Illichivsk","country":"UA","coord":{"lon":30.654779,"lat":46.304951}},{"_id":707099,"name":"Kalush","country":"UA","coord":{"lon":24.373079,"lat":49.011871}},{"_id":698138,"name":"Ovidiopol","country":"UA","coord":{"lon":30.441271,"lat":46.249981}},{"_id":707308,"name":"Izmayil","country":"UA","coord":{"lon":28.84079,"lat":45.349289}},{"_id":810039,"name":"Kuznetsovka","country":"UA","coord":{"lon":38.072048,"lat":48.278042}},{"_id":694350,"name":"Sharhorod","country":"UA","coord":{"lon":28.08497,"lat":48.73835}},{"_id":697107,"name":"Plenenfel’d","country":"UA","coord":{"lon":35.566669,"lat":47.51667}},{"_id":705135,"name":"Konotop","country":"UA","coord":{"lon":33.202629,"lat":51.240318}},{"_id":686875,"name":"Zolotonosha","country":"UA","coord":{"lon":32.037731,"lat":49.668861}},{"_id":687432,"name":"Zdolbuniv","country":"UA","coord":{"lon":26.24251,"lat":50.520599}},{"_id":691255,"name":"Trostyanets","country":"UA","coord":{"lon":34.962978,"lat":50.478432}},{"_id":690906,"name":"Tyachiv","country":"UA","coord":{"lon":23.57061,"lat":48.011799}},{"_id":693468,"name":"Sloviansk","country":"UA","coord":{"lon":37.616669,"lat":48.866669}},{"_id":690412,"name":"Vasylkiv","country":"UA","coord":{"lon":30.313459,"lat":50.18692}},{"_id":698782,"name":"Obukhiv","country":"UA","coord":{"lon":30.622721,"lat":50.10997}},{"_id":704920,"name":"Korolevo","country":"UA","coord":{"lon":23.136589,"lat":48.15247}},{"_id":707559,"name":"Irshava","country":"UA","coord":{"lon":23.03846,"lat":48.316669}},{"_id":713171,"name":"Artëmovskiy Rayon","country":"UA","coord":{"lon":39.333328,"lat":48.566669}},{"_id":693709,"name":"Skadovsk","country":"UA","coord":{"lon":32.91124,"lat":46.1161}},{"_id":688628,"name":"Yablon’ki","country":"UA","coord":{"lon":30.216669,"lat":50.549999}},{"_id":702116,"name":"Malyn","country":"UA","coord":{"lon":29.238331,"lat":50.772331}},{"_id":691715,"name":"Teofipol’","country":"UA","coord":{"lon":26.41433,"lat":49.838181}},{"_id":703142,"name":"Letychiv","country":"UA","coord":{"lon":27.63051,"lat":49.382629}},{"_id":689159,"name":"Volochys’k","country":"UA","coord":{"lon":26.17185,"lat":49.5312}},{"_id":707296,"name":"Izyaslav","country":"UA","coord":{"lon":26.821251,"lat":50.119469}},{"_id":693581,"name":"Slavuta","country":"UA","coord":{"lon":26.865061,"lat":50.301552}},{"_id":694216,"name":"Shepetivka","country":"UA","coord":{"lon":27.06365,"lat":50.185452}},{"_id":700261,"name":"Netishyn","country":"UA","coord":{"lon":26.64171,"lat":50.340038}},{"_id":693514,"name":"Sloboda Zasluch’","country":"UA","coord":{"lon":27.216669,"lat":49.75}},{"_id":693942,"name":"Shostka","country":"UA","coord":{"lon":33.469799,"lat":51.862961}},{"_id":689378,"name":"Volodymyr-Volynskyy","country":"UA","coord":{"lon":24.323641,"lat":50.852531}},{"_id":701855,"name":"Marhanets","country":"UA","coord":{"lon":34.627689,"lat":47.635429}},{"_id":689558,"name":"Vinnytsya","country":"UA","coord":{"lon":28.48097,"lat":49.23278}},{"_id":704403,"name":"Krasnodon","country":"UA","coord":{"lon":39.737289,"lat":48.29229}},{"_id":700322,"name":"Nemyriv","country":"UA","coord":{"lon":28.83779,"lat":48.97076}},{"_id":700500,"name":"Nadychi","country":"UA","coord":{"lon":24.0793,"lat":49.979519}},{"_id":704492,"name":"Krasyliv","country":"UA","coord":{"lon":26.972521,"lat":49.651859}},{"_id":700507,"name":"Nadvirna","country":"UA","coord":{"lon":24.569361,"lat":48.6348}},{"_id":706736,"name":"Karnaukhovka","country":"UA","coord":{"lon":34.73074,"lat":48.47821}},{"_id":697628,"name":"Perkovtsy","country":"UA","coord":{"lon":26.65056,"lat":48.447472}},{"_id":691705,"name":"Teplogorsk","country":"UA","coord":{"lon":38.591648,"lat":48.59877}},{"_id":710374,"name":"Chuhuyiv","country":"UA","coord":{"lon":36.68803,"lat":49.83588}},{"_id":713175,"name":"Artëmovsk","country":"UA","coord":{"lon":38.731998,"lat":48.440609}},{"_id":692176,"name":"Sursko-Litovskoye","country":"UA","coord":{"lon":34.93367,"lat":48.336658}},{"_id":709932,"name":"Dniprodzerzhynsk","country":"UA","coord":{"lon":34.6021,"lat":48.511341}},{"_id":691959,"name":"Taburishche","country":"UA","coord":{"lon":33.25,"lat":49.049999}},{"_id":711134,"name":"Burshtyn","country":"UA","coord":{"lon":24.62776,"lat":49.258659}},{"_id":690688,"name":"Uman","country":"UA","coord":{"lon":30.22184,"lat":48.748379}},{"_id":711515,"name":"Boyarka","country":"UA","coord":{"lon":30.297279,"lat":50.319099}},{"_id":710381,"name":"Chudniv","country":"UA","coord":{"lon":28.117451,"lat":50.05204}},{"_id":698949,"name":"Novyy Chudnov","country":"UA","coord":{"lon":28.116671,"lat":50.049999}},{"_id":710409,"name":"Chop","country":"UA","coord":{"lon":22.205549,"lat":48.43198}},{"_id":712808,"name":"Barmashovo","country":"UA","coord":{"lon":32.449139,"lat":47.09037}},{"_id":693301,"name":"Sokal","country":"UA","coord":{"lon":24.282881,"lat":50.47438}},{"_id":698247,"name":"Oster","country":"UA","coord":{"lon":30.88229,"lat":50.9506}},{"_id":690288,"name":"Velyka Oleksandrivka","country":"UA","coord":{"lon":33.30373,"lat":47.319691}},{"_id":700079,"name":"Nikolaypol’ye","country":"UA","coord":{"lon":37.558739,"lat":48.526958}},{"_id":707928,"name":"Gubinikha","country":"UA","coord":{"lon":35.254719,"lat":48.810829}},{"_id":696643,"name":"Poltava","country":"UA","coord":{"lon":34.54073,"lat":49.593731}},{"_id":697994,"name":"Paraskoveyevka","country":"UA","coord":{"lon":38.002048,"lat":48.66296}},{"_id":695594,"name":"Rivne","country":"UA","coord":{"lon":26.22743,"lat":50.623081}},{"_id":700568,"name":"Mykolayiv","country":"UA","coord":{"lon":23.98522,"lat":49.52372}},{"_id":686896,"name":"Zolochiv","country":"UA","coord":{"lon":24.89436,"lat":49.805969}},{"_id":698436,"name":"Ordzhonikidze","country":"UA","coord":{"lon":34.05957,"lat":47.667622}},{"_id":704422,"name":"Krasnoarmiysk","country":"UA","coord":{"lon":37.17585,"lat":48.281979}},{"_id":710129,"name":"Derazhnya","country":"UA","coord":{"lon":27.433821,"lat":49.269199}},{"_id":696660,"name":"Polonne","country":"UA","coord":{"lon":27.51087,"lat":50.124241}},{"_id":694792,"name":"Sarny","country":"UA","coord":{"lon":26.60191,"lat":51.337952}},{"_id":699986,"name":"Nyzhni Sirohozy","country":"UA","coord":{"lon":34.38044,"lat":46.848419}},{"_id":704079,"name":"Krynychky","country":"UA","coord":{"lon":34.46701,"lat":48.375511}},{"_id":690281,"name":"Velyka Bilozerka","country":"UA","coord":{"lon":34.706161,"lat":47.277561}},{"_id":688689,"name":"Vysokopillya","country":"UA","coord":{"lon":33.530609,"lat":47.491871}},{"_id":710513,"name":"Chervonyy Pakhar’","country":"UA","coord":{"lon":29.683331,"lat":50.683331}},{"_id":693379,"name":"Snihurivka","country":"UA","coord":{"lon":32.805161,"lat":47.07579}},{"_id":691355,"name":"Toshkovka","country":"UA","coord":{"lon":38.579029,"lat":48.77914}},{"_id":690509,"name":"Valky","country":"UA","coord":{"lon":35.62072,"lat":49.83868}},{"_id":693231,"name":"Solone","country":"UA","coord":{"lon":34.872082,"lat":48.20805}},{"_id":694992,"name":"Rzhyshchiv","country":"UA","coord":{"lon":31.04628,"lat":49.968861}},{"_id":710342,"name":"Chutove","country":"UA","coord":{"lon":35.160259,"lat":49.710419}},{"_id":696943,"name":"Pidhorodne","country":"UA","coord":{"lon":35.1068,"lat":48.575279}},{"_id":689198,"name":"Volnovakha","country":"UA","coord":{"lon":37.496738,"lat":47.601028}},{"_id":694864,"name":"Sambir","country":"UA","coord":{"lon":23.197519,"lat":49.518299}},{"_id":702878,"name":"Lokachi","country":"UA","coord":{"lon":24.649441,"lat":50.737}},{"_id":688451,"name":"Yarizovka","country":"UA","coord":{"lon":34.5,"lat":48.950001}},{"_id":697692,"name":"Peremyshlyany","country":"UA","coord":{"lon":24.55846,"lat":49.66523}},{"_id":698770,"name":"Ochakiv","country":"UA","coord":{"lon":31.54982,"lat":46.612831}},{"_id":708395,"name":"Gornyak","country":"UA","coord":{"lon":37.373089,"lat":48.055698}},{"_id":704138,"name":"Kreminna","country":"UA","coord":{"lon":38.217918,"lat":49.0495}},{"_id":713019,"name":"Babintsy","country":"UA","coord":{"lon":24.616671,"lat":49.416672}},{"_id":695326,"name":"Rozhyshche","country":"UA","coord":{"lon":25.26906,"lat":50.915421}},{"_id":692301,"name":"Sudovaya Vishnya","country":"UA","coord":{"lon":23.372181,"lat":49.788921}},{"_id":713126,"name":"Auly","country":"UA","coord":{"lon":34.49493,"lat":48.527081}},{"_id":690335,"name":"Vasyshcheve","country":"UA","coord":{"lon":36.326908,"lat":49.828522}},{"_id":702337,"name":"Makariv","country":"UA","coord":{"lon":29.811279,"lat":50.464081}},{"_id":701650,"name":"Mar’yevka","country":"UA","coord":{"lon":34.900002,"lat":48.883331}},{"_id":696280,"name":"Primorskoye","country":"UA","coord":{"lon":37.692661,"lat":47.174358}},{"_id":702320,"name":"Makiyivka","country":"UA","coord":{"lon":37.925758,"lat":48.047821}},{"_id":689200,"name":"Vil’nohirs’k","country":"UA","coord":{"lon":34.022968,"lat":48.485531}},{"_id":698232,"name":"Ostroh","country":"UA","coord":{"lon":26.51425,"lat":50.329418}},{"_id":702844,"name":"Lopatin","country":"UA","coord":{"lon":24.84831,"lat":50.220219}},{"_id":711359,"name":"Bryukhovychi","country":"UA","coord":{"lon":23.9597,"lat":49.904671}},{"_id":713122,"name":"Avdeyevka","country":"UA","coord":{"lon":37.74255,"lat":48.139889}},{"_id":699329,"name":"Novopokrovka","country":"UA","coord":{"lon":34.60619,"lat":48.059181}},{"_id":712926,"name":"Balakliya","country":"UA","coord":{"lon":36.859509,"lat":49.4627}},{"_id":690960,"name":"Turka","country":"UA","coord":{"lon":23.029671,"lat":49.15411}},{"_id":709983,"name":"Dmytrivka","country":"UA","coord":{"lon":32.71645,"lat":48.796902}},{"_id":705104,"name":"Kostyantynivka","country":"UA","coord":{"lon":37.706902,"lat":48.527699}},{"_id":711382,"name":"Brusyliv","country":"UA","coord":{"lon":29.52626,"lat":50.284489}},{"_id":687093,"name":"Zhovkva","country":"UA","coord":{"lon":23.972601,"lat":50.05825}},{"_id":829788,"name":"Narkevychi","country":"UA","coord":{"lon":26.641781,"lat":49.51717}},{"_id":713017,"name":"Babintsy","country":"UA","coord":{"lon":30.023911,"lat":50.633141}},{"_id":692372,"name":"Stryi","country":"UA","coord":{"lon":23.856091,"lat":49.26223}},{"_id":707026,"name":"Kamenka-Na-Dnepre","country":"UA","coord":{"lon":34.411461,"lat":47.48481}},{"_id":699034,"name":"Novovorontsovka","country":"UA","coord":{"lon":33.91748,"lat":47.500351}},{"_id":691374,"name":"Torez","country":"UA","coord":{"lon":38.596851,"lat":48.038761}},{"_id":696032,"name":"Pustomyty","country":"UA","coord":{"lon":23.912951,"lat":49.715321}},{"_id":687933,"name":"Zachepylivka","country":"UA","coord":{"lon":35.239429,"lat":49.193851}},{"_id":710663,"name":"Chernyakhiv","country":"UA","coord":{"lon":28.670179,"lat":50.45652}},{"_id":692632,"name":"Stebnik","country":"UA","coord":{"lon":23.56357,"lat":49.294159}},{"_id":691741,"name":"Tel’manove","country":"UA","coord":{"lon":38.024761,"lat":47.409939}},{"_id":704617,"name":"Kovel","country":"UA","coord":{"lon":24.70867,"lat":51.21526}},{"_id":687277,"name":"Zhurivka","country":"UA","coord":{"lon":31.78492,"lat":50.502762}},{"_id":687116,"name":"Zhmerynka","country":"UA","coord":{"lon":28.112009,"lat":49.037048}},{"_id":704204,"name":"Krasnyy Liman","country":"UA","coord":{"lon":37.80225,"lat":48.988361}},{"_id":698597,"name":"Olevsk","country":"UA","coord":{"lon":27.652281,"lat":51.224819}},{"_id":697593,"name":"Pervomaysk","country":"UA","coord":{"lon":30.850731,"lat":48.044331}},{"_id":710229,"name":"Debaltsevo","country":"UA","coord":{"lon":38.4049,"lat":48.340721}},{"_id":695209,"name":"Rudniki","country":"UA","coord":{"lon":23.15502,"lat":49.802639}},{"_id":712775,"name":"Bashtanka","country":"UA","coord":{"lon":32.438679,"lat":47.407188}},{"_id":701372,"name":"Mena","country":"UA","coord":{"lon":32.215679,"lat":51.521702}},{"_id":709373,"name":"Dymer","country":"UA","coord":{"lon":30.302601,"lat":50.786469}},{"_id":686943,"name":"Zlatopol’","country":"UA","coord":{"lon":35.0247,"lat":47.40826}},{"_id":696292,"name":"Prymorsk","country":"UA","coord":{"lon":36.34425,"lat":46.734791}},{"_id":708367,"name":"Gorodishche","country":"UA","coord":{"lon":35.845509,"lat":48.518162}},{"_id":704000,"name":"Krolevets","country":"UA","coord":{"lon":33.38475,"lat":51.547749}},{"_id":806930,"name":"Savkino","country":"UA","coord":{"lon":34.086109,"lat":51.583889}},{"_id":693920,"name":"Shpola","country":"UA","coord":{"lon":31.394711,"lat":49.00687}},{"_id":690773,"name":"Ukrainka","country":"UA","coord":{"lon":30.74612,"lat":50.143169}},{"_id":705115,"name":"Kostyantynivka","country":"UA","coord":{"lon":35.422871,"lat":46.81673}},{"_id":713245,"name":"Apostolove","country":"UA","coord":{"lon":33.713692,"lat":47.66003}},{"_id":701031,"name":"Myronivka","country":"UA","coord":{"lon":30.98225,"lat":49.660069}},{"_id":711669,"name":"Boryslav","country":"UA","coord":{"lon":23.432381,"lat":49.28672}},{"_id":712471,"name":"Belz","country":"UA","coord":{"lon":24.00642,"lat":50.382259}},{"_id":700753,"name":"Morshin","country":"UA","coord":{"lon":23.87232,"lat":49.156521}},{"_id":704885,"name":"Korostyshiv","country":"UA","coord":{"lon":29.056299,"lat":50.31723}},{"_id":712441,"name":"Berdychiv","country":"UA","coord":{"lon":28.60235,"lat":49.899281}},{"_id":704901,"name":"Korosten","country":"UA","coord":{"lon":28.63855,"lat":50.95937}},{"_id":810965,"name":"Butovka","country":"UA","coord":{"lon":36.38203,"lat":49.708038}},{"_id":709054,"name":"Hadyach","country":"UA","coord":{"lon":33.99099,"lat":50.37112}},{"_id":690247,"name":"Velyka Lepetykha","country":"UA","coord":{"lon":33.943619,"lat":47.17572}},{"_id":705598,"name":"Klyuchevaya","country":"UA","coord":{"lon":33.349998,"lat":46.75}},{"_id":708663,"name":"Hnivan’","country":"UA","coord":{"lon":28.345921,"lat":49.08897}},{"_id":713259,"name":"Antratsit","country":"UA","coord":{"lon":39.091282,"lat":48.115028}},{"_id":702246,"name":"Mala Bilozerka","country":"UA","coord":{"lon":34.93457,"lat":47.247372}},{"_id":705799,"name":"Kirovs’ke","country":"UA","coord":{"lon":35.199871,"lat":45.229671}},{"_id":688288,"name":"Yavoriv","country":"UA","coord":{"lon":23.38254,"lat":49.938641}},{"_id":688663,"name":"Vyshchetarasivka","country":"UA","coord":{"lon":34.880959,"lat":47.568501}},{"_id":704705,"name":"Kotel’va","country":"UA","coord":{"lon":34.758621,"lat":50.068642}},{"_id":710552,"name":"Chervonohryhorivka","country":"UA","coord":{"lon":34.538872,"lat":47.622978}},{"_id":709296,"name":"Dz’vinogrud","country":"UA","coord":{"lon":25.4,"lat":49.083328}},{"_id":713203,"name":"Armyansk","country":"UA","coord":{"lon":33.692059,"lat":46.109192}},{"_id":696108,"name":"Pryluky","country":"UA","coord":{"lon":32.387611,"lat":50.593239}},{"_id":709611,"name":"Drogobych","country":"UA","coord":{"lon":23.50561,"lat":49.349911}},{"_id":695464,"name":"Romny","country":"UA","coord":{"lon":33.474709,"lat":50.751041}},{"_id":709540,"name":"Dubno","country":"UA","coord":{"lon":25.73432,"lat":50.416939}},{"_id":692129,"name":"Svalyava","country":"UA","coord":{"lon":22.995781,"lat":48.548531}},{"_id":691037,"name":"Tsyurupynsk","country":"UA","coord":{"lon":32.718899,"lat":46.61842}},{"_id":695912,"name":"Radomyshl","country":"UA","coord":{"lon":29.229111,"lat":50.496132}},{"_id":692287,"name":"Sukharka","country":"UA","coord":{"lon":29.23333,"lat":50.5}},{"_id":712787,"name":"Baryshivka","country":"UA","coord":{"lon":31.32173,"lat":50.360981}},{"_id":691293,"name":"Troyits’ko-Khartsyz’k","country":"UA","coord":{"lon":38.264118,"lat":47.967918}},{"_id":693457,"name":"Smila","country":"UA","coord":{"lon":31.88714,"lat":49.22242}},{"_id":703071,"name":"Lyman","country":"UA","coord":{"lon":36.46711,"lat":49.594799}},{"_id":705730,"name":"Kivertsy","country":"UA","coord":{"lon":25.45821,"lat":50.834251}},{"_id":692487,"name":"Storozhynets’","country":"UA","coord":{"lon":25.72028,"lat":48.164299}},{"_id":690043,"name":"Vel'ky Sevl'yush","country":"UA","coord":{"lon":22.76667,"lat":48.150002}},{"_id":708320,"name":"Horodnya","country":"UA","coord":{"lon":31.59741,"lat":51.89085}},{"_id":694677,"name":"Selidovo","country":"UA","coord":{"lon":37.30032,"lat":48.147079}},{"_id":713544,"name":"Alekseyevo-Druzhkovka","country":"UA","coord":{"lon":37.609409,"lat":48.57909}},{"_id":698625,"name":"Oleksandriya","country":"UA","coord":{"lon":33.115929,"lat":48.669609}},{"_id":699035,"name":"Novovolynsk","country":"UA","coord":{"lon":24.162649,"lat":50.725761}},{"_id":689916,"name":"Verkhn’odniprovs’k","country":"UA","coord":{"lon":34.334572,"lat":48.65242}},{"_id":693796,"name":"Synelnykove","country":"UA","coord":{"lon":35.517921,"lat":48.320438}},{"_id":707679,"name":"Ilovaysk","country":"UA","coord":{"lon":38.202358,"lat":47.92498}},{"_id":809274,"name":"Kabachki","country":"UA","coord":{"lon":38.458328,"lat":48.031109}},{"_id":708901,"name":"Haysyn","country":"UA","coord":{"lon":29.389771,"lat":48.811432}},{"_id":702723,"name":"Lubny","country":"UA","coord":{"lon":32.996941,"lat":50.016251}},{"_id":712886,"name":"Balta","country":"UA","coord":{"lon":29.61982,"lat":47.935478}},{"_id":698627,"name":"Oleksandrivka","country":"UA","coord":{"lon":32.234921,"lat":48.96336}},{"_id":707758,"name":"Hlukhiv","country":"UA","coord":{"lon":33.916199,"lat":51.678219}},{"_id":709399,"name":"Dvorichna","country":"UA","coord":{"lon":37.68568,"lat":49.849628}},{"_id":865729,"name":"Tavriys’k","country":"UA","coord":{"lon":33.418411,"lat":46.75285}},{"_id":705883,"name":"Kiliya","country":"UA","coord":{"lon":29.26367,"lat":45.455181}},{"_id":711416,"name":"Brody","country":"UA","coord":{"lon":25.15027,"lat":50.08791}},{"_id":713174,"name":"Artemivsk","country":"UA","coord":{"lon":37.99987,"lat":48.595589}},{"_id":711369,"name":"Bryanka","country":"UA","coord":{"lon":38.672218,"lat":48.511002}},{"_id":704881,"name":"Korotych","country":"UA","coord":{"lon":36.040569,"lat":49.945518}},{"_id":710041,"name":"Dykanka","country":"UA","coord":{"lon":34.52787,"lat":49.825008}},{"_id":700446,"name":"Narodychi","country":"UA","coord":{"lon":29.082279,"lat":51.202862}},{"_id":690873,"name":"Tysmenytsya","country":"UA","coord":{"lon":24.84482,"lat":48.902191}},{"_id":705818,"name":"Kirovo","country":"UA","coord":{"lon":36.394642,"lat":48.870251}},{"_id":704525,"name":"Kozova","country":"UA","coord":{"lon":25.15086,"lat":49.43544}},{"_id":686762,"name":"Ivano-Frankove","country":"UA","coord":{"lon":23.73333,"lat":49.916672}},{"_id":865087,"name":"Teplodar","country":"UA","coord":{"lon":30.325199,"lat":46.505852}},{"_id":697650,"name":"Perevalsk","country":"UA","coord":{"lon":38.843842,"lat":48.43779}},{"_id":697979,"name":"Parizhskaya Kommuna","country":"UA","coord":{"lon":38.816669,"lat":48.433331}},{"_id":710202,"name":"Dilyatyn","country":"UA","coord":{"lon":24.62466,"lat":48.52354}},{"_id":693705,"name":"Skakunka","country":"UA","coord":{"lon":29.049999,"lat":49.23333}},{"_id":695344,"name":"Rozdilna","country":"UA","coord":{"lon":30.079189,"lat":46.843342}},{"_id":699403,"name":"Novo-Nikolayevskiy","country":"UA","coord":{"lon":37.316669,"lat":48.25}},{"_id":704202,"name":"Krasnyy Luch","country":"UA","coord":{"lon":38.937149,"lat":48.139542}},{"_id":711894,"name":"Bohodukhiv","country":"UA","coord":{"lon":35.527649,"lat":50.164661}},{"_id":695670,"name":"Reni","country":"UA","coord":{"lon":28.293171,"lat":45.457272}},{"_id":711867,"name":"Bohuslav","country":"UA","coord":{"lon":30.874399,"lat":49.549389}},{"_id":691803,"name":"Tatarbunary","country":"UA","coord":{"lon":29.614241,"lat":45.837311}},{"_id":713749,"name":"Okhtyrka","country":"UA","coord":{"lon":34.898788,"lat":50.31036}},{"_id":703311,"name":"Lebedyn","country":"UA","coord":{"lon":31.52696,"lat":48.962421}},{"_id":705914,"name":"Khyriv","country":"UA","coord":{"lon":22.85236,"lat":49.533321}},{"_id":699675,"name":"Novoazovsk","country":"UA","coord":{"lon":38.085991,"lat":47.113892}},{"_id":699066,"name":"Novo-Uspenka","country":"UA","coord":{"lon":39.216671,"lat":48.400002}},{"_id":710400,"name":"Chortkiv","country":"UA","coord":{"lon":25.79804,"lat":49.01709}},{"_id":696542,"name":"Popova","country":"UA","coord":{"lon":33.833328,"lat":51.200001}},{"_id":710716,"name":"Chornobay","country":"UA","coord":{"lon":32.323872,"lat":49.670792}},{"_id":691179,"name":"Truskavets","country":"UA","coord":{"lon":23.50618,"lat":49.27837}},{"_id":692832,"name":"Starobilsk","country":"UA","coord":{"lon":38.91069,"lat":49.27832}},{"_id":704143,"name":"Kremenets","country":"UA","coord":{"lon":25.72459,"lat":50.096931}},{"_id":692254,"name":"Sukhodol’sk","country":"UA","coord":{"lon":39.710499,"lat":48.35014}},{"_id":686967,"name":"Zhytomyr","country":"UA","coord":{"lon":28.676689,"lat":50.26487}},{"_id":712389,"name":"Berezan’","country":"UA","coord":{"lon":31.467119,"lat":50.311199}},{"_id":688956,"name":"Vorzel","country":"UA","coord":{"lon":30.153049,"lat":50.544399}},{"_id":707489,"name":"Ivankiv","country":"UA","coord":{"lon":29.89426,"lat":50.938641}},{"_id":706536,"name":"Kel’mentsi","country":"UA","coord":{"lon":26.83457,"lat":48.465031}},{"_id":688373,"name":"Yasinovataya","country":"UA","coord":{"lon":37.859402,"lat":48.129799}},{"_id":706757,"name":"Soledar","country":"UA","coord":{"lon":38.08902,"lat":48.679352}},{"_id":712575,"name":"Belokamenskoye","country":"UA","coord":{"lon":38.099998,"lat":48.683331}},{"_id":695274,"name":"Rubizhne","country":"UA","coord":{"lon":38.379669,"lat":49.012291}},{"_id":701845,"name":"Mar’inka","country":"UA","coord":{"lon":37.50544,"lat":47.945271}},{"_id":707251,"name":"Kaharlyk","country":"UA","coord":{"lon":30.82815,"lat":49.862331}},{"_id":709354,"name":"Dzerzhynsk","country":"UA","coord":{"lon":37.84787,"lat":48.398689}},{"_id":708928,"name":"Gavrilovka","country":"UA","coord":{"lon":36.049999,"lat":49.98333}},{"_id":689584,"name":"Vil’nyans’k","country":"UA","coord":{"lon":35.43539,"lat":47.94381}},{"_id":690823,"name":"Ugledar","country":"UA","coord":{"lon":37.250641,"lat":47.780312}},{"_id":688279,"name":"Yavoruv","country":"UA","coord":{"lon":22.914049,"lat":49.016739}},{"_id":708380,"name":"Horodenka","country":"UA","coord":{"lon":25.501631,"lat":48.672741}},{"_id":695859,"name":"Rakhiv","country":"UA","coord":{"lon":24.20089,"lat":48.052601}},{"_id":698450,"name":"Orativ","country":"UA","coord":{"lon":29.52697,"lat":49.188889}},{"_id":697637,"name":"Pereyaslav-Khmelnytskyy","country":"UA","coord":{"lon":31.4795,"lat":50.087681}},{"_id":711841,"name":"Bolhrad","country":"UA","coord":{"lon":28.61487,"lat":45.682621}},{"_id":687965,"name":"Zabolotiv","country":"UA","coord":{"lon":25.285709,"lat":48.470539}},{"_id":693615,"name":"Skvyra","country":"UA","coord":{"lon":29.665689,"lat":49.73177}},{"_id":710548,"name":"Chervonopartizansk","country":"UA","coord":{"lon":39.796181,"lat":48.07613}},{"_id":704858,"name":"Korsun-Shevchenkivskyy","country":"UA","coord":{"lon":31.25865,"lat":49.418941}},{"_id":690963,"name":"Turiysk","country":"UA","coord":{"lon":24.52294,"lat":51.086441}},{"_id":707244,"name":"Kakhovka","country":"UA","coord":{"lon":33.48698,"lat":46.813709}},{"_id":708753,"name":"Hlobyne","country":"UA","coord":{"lon":33.25959,"lat":49.38784}},{"_id":708431,"name":"Gorishni Plavni","country":"UA","coord":{"lon":33.650002,"lat":49.033329}},{"_id":699761,"name":"Nove-Misto","country":"UA","coord":{"lon":29.828131,"lat":48.981129}},{"_id":712521,"name":"Bilovodsk","country":"UA","coord":{"lon":39.589748,"lat":49.208462}},{"_id":701075,"name":"Myrhorod","country":"UA","coord":{"lon":33.60886,"lat":49.96854}},{"_id":708784,"name":"Glevakha","country":"UA","coord":{"lon":30.327061,"lat":50.274231}},{"_id":704839,"name":"Koryukivka","country":"UA","coord":{"lon":32.248131,"lat":51.768768}},{"_id":687245,"name":"Zhashkiv","country":"UA","coord":{"lon":30.110201,"lat":49.245449}},{"_id":704388,"name":"Krasnohrad","country":"UA","coord":{"lon":35.440208,"lat":49.381401}},{"_id":711887,"name":"Bohorodchany","country":"UA","coord":{"lon":24.53834,"lat":48.806999}},{"_id":706900,"name":"Kaniv","country":"UA","coord":{"lon":31.460039,"lat":49.75182}},{"_id":687455,"name":"Zbarazh","country":"UA","coord":{"lon":25.776159,"lat":49.66357}},{"_id":710565,"name":"Radyvyliv","country":"UA","coord":{"lon":25.25576,"lat":50.12994}},{"_id":613273,"name":"Lebedyn","country":"UA","coord":{"lon":34.484901,"lat":50.585178}},{"_id":703646,"name":"Kurakhovo","country":"UA","coord":{"lon":37.282101,"lat":47.985222}},{"_id":694812,"name":"Sarata","country":"UA","coord":{"lon":29.66567,"lat":46.019661}},{"_id":696823,"name":"Pidvolochys’k","country":"UA","coord":{"lon":26.145849,"lat":49.534721}},{"_id":690545,"name":"Uzyn","country":"UA","coord":{"lon":30.414869,"lat":49.826191}},{"_id":708553,"name":"Golta","country":"UA","coord":{"lon":30.862591,"lat":48.027969}},{"_id":686818,"name":"Zuhres","country":"UA","coord":{"lon":38.264439,"lat":48.011398}},{"_id":690312,"name":"Vatutine","country":"UA","coord":{"lon":31.062111,"lat":49.015018}},{"_id":695379,"name":"Rovenki","country":"UA","coord":{"lon":39.37764,"lat":48.083321}},{"_id":688148,"name":"Yenakiyeve","country":"UA","coord":{"lon":38.211369,"lat":48.233311}},{"_id":692105,"name":"Sverdlovsk","country":"UA","coord":{"lon":39.652431,"lat":48.089642}},{"_id":707744,"name":"Ichnya","country":"UA","coord":{"lon":32.394249,"lat":50.862579}},{"_id":687449,"name":"Zboriv","country":"UA","coord":{"lon":25.140961,"lat":49.664841}},{"_id":707189,"name":"Kalyniv","country":"UA","coord":{"lon":23.316669,"lat":49.549999}},{"_id":692118,"name":"Svatove","country":"UA","coord":{"lon":38.150349,"lat":49.41029}},{"_id":704679,"name":"Kotovsk","country":"UA","coord":{"lon":29.532049,"lat":47.753052}},{"_id":699453,"name":"Novomyrhorod","country":"UA","coord":{"lon":31.64204,"lat":48.781052}},{"_id":689157,"name":"Volodarka","country":"UA","coord":{"lon":29.91222,"lat":49.524841}},{"_id":688860,"name":"Voznesensk","country":"UA","coord":{"lon":31.33078,"lat":47.564941}},{"_id":704737,"name":"Kostopil’","country":"UA","coord":{"lon":26.45192,"lat":50.87841}},{"_id":699557,"name":"Novogrodovka","country":"UA","coord":{"lon":37.34153,"lat":48.202671}},{"_id":710020,"name":"Dluga-Strona","country":"UA","coord":{"lon":24.633329,"lat":49.966671}},{"_id":699311,"name":"Novopskov","country":"UA","coord":{"lon":39.08987,"lat":49.546398}},{"_id":696008,"name":"Putyvl","country":"UA","coord":{"lon":33.870659,"lat":51.337448}},{"_id":701305,"name":"Mezhova","country":"UA","coord":{"lon":36.73468,"lat":48.253181}},{"_id":705660,"name":"Klevan’","country":"UA","coord":{"lon":25.97628,"lat":50.74305}},{"_id":705265,"name":"Komarno","country":"UA","coord":{"lon":23.69952,"lat":49.627392}},{"_id":699777,"name":"Nova Vodolaha","country":"UA","coord":{"lon":35.870781,"lat":49.718498}},{"_id":706634,"name":"Katerynopil’","country":"UA","coord":{"lon":30.968229,"lat":48.955299}},{"_id":712250,"name":"Bershad’","country":"UA","coord":{"lon":29.51726,"lat":48.367821}},{"_id":705016,"name":"Kopychyntsi","country":"UA","coord":{"lon":25.910259,"lat":49.104408}},{"_id":694656,"name":"Sel’tse","country":"UA","coord":{"lon":26.75,"lat":51.0}},{"_id":698598,"name":"Olesko","country":"UA","coord":{"lon":24.89336,"lat":49.96233}},{"_id":686919,"name":"Znomenka","country":"UA","coord":{"lon":32.664719,"lat":48.71278}},{"_id":688440,"name":"Yarmolyntsi","country":"UA","coord":{"lon":26.83725,"lat":49.19236}},{"_id":810784,"name":"Slavyanoserbsk","country":"UA","coord":{"lon":38.908329,"lat":48.549171}},{"_id":702231,"name":"Mala Danylivka","country":"UA","coord":{"lon":36.165642,"lat":50.063541}},{"_id":707232,"name":"Kalanchak","country":"UA","coord":{"lon":33.290699,"lat":46.256229}},{"_id":712508,"name":"Bilozerka","country":"UA","coord":{"lon":32.442509,"lat":46.624802}},{"_id":707689,"name":"Illarionovo","country":"UA","coord":{"lon":35.275391,"lat":48.40657}},{"_id":689151,"name":"Volodarskoye","country":"UA","coord":{"lon":37.32346,"lat":47.206848}},{"_id":705403,"name":"Kolomak","country":"UA","coord":{"lon":35.30442,"lat":49.839859}},{"_id":711587,"name":"Borshchiv","country":"UA","coord":{"lon":26.04347,"lat":48.803322}},{"_id":693809,"name":"Simeiz","country":"UA","coord":{"lon":34.007038,"lat":44.40646}},{"_id":691497,"name":"Tlumach","country":"UA","coord":{"lon":25.00325,"lat":48.864029}},{"_id":713683,"name":"Oleksandrivka","country":"UA","coord":{"lon":30.634809,"lat":46.32893}},{"_id":690648,"name":"Usatove","country":"UA","coord":{"lon":30.659599,"lat":46.532959}},{"_id":709429,"name":"Dunaivtsi","country":"UA","coord":{"lon":26.856359,"lat":48.889091}},{"_id":703428,"name":"Ladyzhyn","country":"UA","coord":{"lon":29.23678,"lat":48.684959}},{"_id":697613,"name":"Manhush","country":"UA","coord":{"lon":37.31068,"lat":47.05582}},{"_id":691693,"name":"Terebovlya","country":"UA","coord":{"lon":25.70997,"lat":49.301868}},{"_id":697750,"name":"Perechyn","country":"UA","coord":{"lon":22.466669,"lat":48.73333}},{"_id":712260,"name":"Beryslav","country":"UA","coord":{"lon":33.428379,"lat":46.841518}},{"_id":696332,"name":"Pryazovs’ke","country":"UA","coord":{"lon":35.642509,"lat":46.734261}},{"_id":692146,"name":"Sutysky","country":"UA","coord":{"lon":28.41732,"lat":49.04245}},{"_id":694745,"name":"Savran","country":"UA","coord":{"lon":30.08247,"lat":48.132191}},{"_id":695643,"name":"Reshetylivka","country":"UA","coord":{"lon":34.078152,"lat":49.56501}},{"_id":710915,"name":"Chasov Yar","country":"UA","coord":{"lon":37.857239,"lat":48.593479}},{"_id":690822,"name":"Uglegorsk","country":"UA","coord":{"lon":38.274231,"lat":48.314739}},{"_id":700273,"name":"Nestervarka","country":"UA","coord":{"lon":28.86113,"lat":48.689751}},{"_id":693381,"name":"Snizhne","country":"UA","coord":{"lon":38.772251,"lat":48.026119}},{"_id":687669,"name":"Zaprudnoye","country":"UA","coord":{"lon":38.76667,"lat":48.01667}},{"_id":705544,"name":"Kobelyaky","country":"UA","coord":{"lon":34.196529,"lat":49.148918}},{"_id":712794,"name":"Barvinkove","country":"UA","coord":{"lon":37.020512,"lat":48.909698}},{"_id":701119,"name":"Mikulintsy","country":"UA","coord":{"lon":25.605181,"lat":49.396}},{"_id":692786,"name":"Staroverovka","country":"UA","coord":{"lon":35.696651,"lat":49.54361}},{"_id":691628,"name":"Ternovka","country":"UA","coord":{"lon":36.096748,"lat":48.519279}},{"_id":690197,"name":"Velikiy Berëznyy","country":"UA","coord":{"lon":22.46052,"lat":48.888309}},{"_id":688827,"name":"Vugrinivka","country":"UA","coord":{"lon":27.950001,"lat":49.549999}},{"_id":707133,"name":"Kalinova Popasnaya","country":"UA","coord":{"lon":38.332642,"lat":48.608479}},{"_id":689717,"name":"Veselynove","country":"UA","coord":{"lon":31.23488,"lat":47.356659}},{"_id":700700,"name":"Mospyne","country":"UA","coord":{"lon":38.06395,"lat":47.890808}},{"_id":701906,"name":"Manevichi","country":"UA","coord":{"lon":25.534361,"lat":51.294048}},{"_id":693365,"name":"Snyatyn","country":"UA","coord":{"lon":25.56937,"lat":48.446918}},{"_id":708179,"name":"Grebënki","country":"UA","coord":{"lon":30.193211,"lat":49.95536}},{"_id":704573,"name":"Kozelets","country":"UA","coord":{"lon":31.121401,"lat":50.913342}},{"_id":710935,"name":"Chaplynka","country":"UA","coord":{"lon":33.540272,"lat":46.36507}},{"_id":713504,"name":"Amvrosiyivka","country":"UA","coord":{"lon":38.47768,"lat":47.79348}},{"_id":690629,"name":"Uspenka","country":"UA","coord":{"lon":39.161942,"lat":48.390282}},{"_id":710408,"name":"Chopovychi","country":"UA","coord":{"lon":28.953341,"lat":50.833248}},{"_id":694603,"name":"Semenivka","country":"UA","coord":{"lon":33.180489,"lat":49.590309}},{"_id":708296,"name":"Gorokhov","country":"UA","coord":{"lon":24.76148,"lat":50.501862}},{"_id":710473,"name":"Chyhyryn","country":"UA","coord":{"lon":32.655491,"lat":49.083759}},{"_id":699917,"name":"Nosivka","country":"UA","coord":{"lon":31.582821,"lat":50.931519}},{"_id":709034,"name":"Galich","country":"UA","coord":{"lon":24.72578,"lat":49.121792}},{"_id":709547,"name":"Dublyany","country":"UA","coord":{"lon":23.38718,"lat":49.498322}},{"_id":687292,"name":"Zinkiv","country":"UA","coord":{"lon":34.363762,"lat":50.208061}},{"_id":690471,"name":"Varshitsa","country":"UA","coord":{"lon":28.533331,"lat":49.466671}},{"_id":691435,"name":"Tomakivka","country":"UA","coord":{"lon":34.741371,"lat":47.815689}},{"_id":698006,"name":"Panteleymonovka","country":"UA","coord":{"lon":37.974281,"lat":48.201809}},{"_id":709755,"name":"Dolyna","country":"UA","coord":{"lon":24.009439,"lat":48.973301}},{"_id":706289,"name":"Khorol","country":"UA","coord":{"lon":33.278332,"lat":49.783669}},{"_id":687196,"name":"Zhovti Vody","country":"UA","coord":{"lon":33.50034,"lat":48.347309}},{"_id":691526,"name":"Tymoshivka","country":"UA","coord":{"lon":35.10881,"lat":47.184181}},{"_id":713500,"name":"Anan’yiv","country":"UA","coord":{"lon":29.966351,"lat":47.720081}},{"_id":810074,"name":"Krasnyy Pakhar’","country":"UA","coord":{"lon":38.305,"lat":48.286671}},{"_id":712559,"name":"Bilopillya","country":"UA","coord":{"lon":34.31287,"lat":51.150162}},{"_id":707471,"name":"Ivano-Frankivsk","country":"UA","coord":{"lon":24.709721,"lat":48.921501}},{"_id":704670,"name":"Kotsyubinskoye","country":"UA","coord":{"lon":30.329571,"lat":50.488361}},